~VERSION INFORMATION
VERS.           1.2   :CWLS Log ASCII Standard - VERSION 1.2
WRAP.           NO    :One Line per depth step
PROD.  Schlumberger   :LAS Producer
PROG.  DLIS to ASCII 17C0-152                          :LAS Program name and version
CREA.        2013/10/06 02:44                          :LAS Creation date {YYYY/MM/DD hh:mm}
DLIS_CREA.  2013-Oct-05 16:22                          :DLIS Creation date and time {YYYY-MMM-DD hh:mm}
SOURCE.     563481d1-2dcb-47d9-a1d9-48f1ce5abb79       :DLIS File Name
#--------------------------------------------------
~WELL INFORMATION
#MNEM.UNIT      DATA             DESCRIPTION
#---- ------ --------------   -----------------------------
STRT .F      1000.5000       :START DEPTH        # original; data subset to 5500-8000
STOP .F      7736.0000       :STOP DEPTH        # original; data subset to 5500-8000
STEP .F       0.5000         :STEP       
NULL .          -999.25      :NULL VALUE
COMP .                 COMPANY:  Bear Oil & Gas, Inc.               
WELL .                    WELL:  Mattson 12-32                      
FLD  .                   FIELD:  Wildcat                            
LOC  .                LOCATION:  SWNW, Sec. 32, T16N, R60W          
CNTY .                  COUNTY:  Laramie                            
STAT .                   STATE:  Wyoming                            
CTRY .                 COUNTRY:                                     
SRVC .         SERVICE COMPANY:  Schlumberger                       
LATI .DEG             LATITUDE:  41.310000 degrees                  
LONG .DEG            LONGITUDE:  -104.15000 degrees                 
API  .              API NUMBER:  49-021-20933-0000                  
DATE .                LOG DATE:  05-Oct-2013
UWI  .          UNIQUE WELL ID:                                     
#-----------------------------------------------------------------------------
~PARAMETER INFORMATION
#MNEM.UNIT    VALUE                      DESCRIPTION
#---- -----   --------------------       ------------------------
CN   .        Bear Oil & Gas  Inc.       :Company Name
WN   .        Mattson 12-32              :Well Name
FN   .        Wildcat                    :Field Name
FL   .        SWNW  Sec. 32  T16N  R60W  :Field Location
FL1  .        SHL  2529' FNL X 605' FWL  :Field Location, Line 1
COUN .        Laramie                    :County or Parish
STAT .        Wyoming                    :State or Province
NATI .                                   :Nation
DATE .        05-Oct-2013                :Tools Above Rotary Table Date
APIN .        49-021-20933-0000          :API Well Number
SECT .        32                         :Section
TOWN .        16N                        :Township
RANG .        60W                        :Range
DMF  .        KB                         :Drilling Measured From (Name of Drilling Elevation Reference)
LMF  .        KB                         :Logging Measured From (Name of Logging Elevation Reference)
PDAT .        GL                         :Permanent Datum
ENGI .        Heather Hoffman            :Engineer s Name
WITN .        Terry Eitteim              :Witness s Name
LATI .        41.310000 degrees          :Latitude
LONG .        -104.15000 degrees         :Longitude
LUL  .        Ft. Morgan  CO             :Logging Unit Location
LUN  .        3022                       :Logging Unit Number
RUN  .        PEX AIT                    :Run Number
SON  .        CQQL-00002                 :Service Order Number
BHT  .DEGF     164.00000                 :Bottom Hole Temperature
BS   .IN         7.87500                 :Bit Size
MDEN .G/C3       2.65000                 :Matrix Density for Density Porosity
DFD  .LB/G       9.00000                 :Drilling Fluid Density
DFV  .S       -999.25000                 :Drilling Fluid Viscosity
DFL  .C3      -999.25000                 :Drilling Fluid Loss
RMFS .OHMM       0.94400                 :Resistivity of Mud Filtrate Sample
EKB  .F       5303.00000                 :Elevation of Kelly Bushing
EGL  .F       5291.00000                 :Elevation of Ground Level
BLI  .F       7708.00000                 :Bottom Log Interval
BSAL .PPM        0.00000                 :Borehole Salinity
FLEV .F          8.00000                 :Depth of Drilling Fluid Level to LMF (Log Measured From)
MCST .DEGF      68.00000                 :Mudcake Sample Temperature
MFST .DEGF      68.20000                 :Mud Filtrate Sample Temperature
MRT  .DEGF     164.00000                 :Maximum Recorded Temperature
MST  .DEGF      68.20000                 :Mud Sample Temperature
RMCS .OHMM       1.41600                 :Resistivity of Mud Cake Sample
RMS  .OHMM       1.18000                 :Resistivity of Mud Sample
RW   .OHMM       1.00000                 :Connate Water Resistivity
TDD  .F       7710.00000                 :Driller Total Depth
TDL  .F       7710.00000                 :Logger Total Depth
TLI  .F       1025.00000                 :Top Log Interval
HIDE .        Wildcat                    :Header Identifier
MATR .        SAND                       :Rock Matrix for Neutron Porosity Corrections
FNUM .           1.00000                 :F-Numerator for Formation Factor Formula
FEXP .           2.00000                 :Exponent "m" for Formation Factor Formula
DFT  .        WATER                      :Drilling Fluid Type
DFPH .        -999.25000                 :Drilling Fluid pH
MCSS .        Pressed                    :Mudcake Sample Source
MFSS .                                   :Mud Filtrate Sample Source
FD   .G/C3       1.00000                 :Fluid Density
MSS  .        Active Tank                :Mud Sample Source
OS1  .                                   :Other Services Line 1
OS2  .                                   :Other Services Line 2
OS3  .                                   :Other Services Line 3
OS4  .                                   :Other Services Line 4
OS5  .                                   :Other Services Line 5
R1   .                                   :Remarks Line 1
R2   .                                   :Remarks Line 2
R3   .                                   :Remarks Line 3
R4   .                                   :Remarks Line 4
R5   .                                   :Remarks Line 5
R6   .                                   :Remarks Line 6
R7   .                                   :Remarks Line 7
R8   .        This is the first run in hole. :Remarks Line 8
TCS  .        06 00 00                   :Time Circulation Stopped
TLAB .        15 16 28                   :Time Logger At Bottom
NMT  .        NOBARITE                   :HRDD Mud Type for Nuclear Devices
EPD  .C3         5291.000000             :Elevation of Permanent Datum above Mean Sea Level
APD  .F          12.000000               :Elevation of Depth Reference (LMF) above Permanent Datum
#-----------------------------------------------------------------------------
~CURVE INFORMATION
#MNEM.UNIT   API CODE                                  DESCRIPTION
#---- -----  --------                                  -----------------------
DEPT .F                                                :DEPTH (BOREHOLE) {F12.4}
AT10 .OHMM                                             :Array Induction Two Foot Resistivity A10 {F11.4}
AT30 .OHMM                                             :Array Induction Two Foot Resistivity A30 {F11.4}
AT90 .OHMM                                             :Array Induction Two Foot Resistivity A90 {F11.4}
GR   .GAPI                                             :Gamma Ray {F11.4}
HCAL .IN                                               :HRCC Caliper Calibrated {F11.4}
HDRA .G/C3                                             :Density Standoff Correction {F11.4}
NPHI .CFCF                                             :Thermal Neutron Porosity (original Ratio Method) in Selected Lithology {F11.4}
PEFZ .                                                 :Standard Resolution Formation Photoelectric Factor {F11.4}
RHOZ .G/C3                                             :Standard Resolution Formation Density {F11.4}
SP   .MV                                               :Spontaneous Potential {F11.4}
TNPH .CFCF                                             :Thermal Neutron Porosity (Ratio Method) in Selected Lithology {F11.4}
#-----------------------------------------------------------------------------
# 
#      DEPT        AF10       AF20       AF30       AF60       AF90       AO10       AO20       AO30       AO60       AO90       AT10       AT20       AT30       AT60       AT90     AHFCO60      AHMF      AHORT      AHORX      AHSCA     AHTCO10    AHTCO20    AHTCO30    AHTCO60    AHTCO90     AHTD1      AHTD2      AHTRT      AHTRX       CDF        CFTC       CNTC       CTEM       DCAL       DNPH       DPHZ       DSOZ       ECGR        ED        GDEV        GR      GR_EDTC      GTEM       HCAL       HDRA       HDRB       HGR        HMIN       HMNO       HNPO       HPRA       HTNP        ND        NPHI       NPOR       PEFZ    PXND_HILT     RHOZ       RSOZ     RWA_HILT     RXO8       RXOZ        SP        SPAR       STIT       TENS       TNPH     HTNP_SAN
#
~A  DEPT AT10 AT30 AT90 GR HCAL HDRA NPHI PEFZ RHOZ SP TNPH
# ...
5945.0000 3.0969 2.9486 2.8046 112.5049 8.2892 0.0001 0.2862 2.8686 2.5474 55.6094 0.2830
5945.5000 3.2309 3.0367 2.9093 109.2875 8.2892 -0.0010 0.2932 2.8456 2.5429 55.3571 0.2762
5946.0000 3.3087 3.1408 3.0207 111.5061 8.2892 -0.0016 0.2927 2.8571 2.5412 54.9609 0.2877
5946.5000 3.3447 3.2052 3.0857 110.5060 8.2658 0.0012 0.3072 2.8654 2.5547 54.7143 0.2823
5947.0000 3.2746 3.1609 3.0647 109.4118 8.2892 -0.0037 0.3085 2.8779 2.5596 54.8750 0.2971
5947.5000 3.2329 3.1008 3.0533 113.1609 8.2892 -0.0027 0.3086 2.8440 2.5657 54.9643 0.3097
5948.0000 3.2590 3.1334 3.0726 107.0060 8.2540 -0.0037 0.2942 2.8026 2.5585 54.5938 0.3125
5948.5000 3.3572 3.2427 3.1490 109.0686 8.2423 -0.0001 0.2925 2.7973 2.5424 54.1250 0.2983
5949.0000 3.4981 3.3777 3.2874 99.8201 8.2423 -0.0016 0.2845 2.8112 2.5282 53.8516 0.2863
5949.5000 3.6864 3.5538 3.4031 102.0075 8.2306 -0.0030 0.2814 2.8214 2.5174 53.4375 0.2684
5950.0000 3.9077 3.7391 3.6184 95.7591 8.2423 -0.0030 0.2723 2.8236 2.5178 53.1406 0.2692
5950.5000 3.8381 3.7101 3.5786 98.8213 8.2423 -0.0014 0.2687 2.8088 2.5279 53.1875 0.2654
5951.0000 3.5399 3.4652 3.3604 99.2901 8.2892 -0.0024 0.2621 2.8437 2.5258 53.6161 0.2782
5951.5000 3.3501 3.2451 3.1562 105.8814 8.3127 -0.0035 0.2680 2.8857 2.5196 54.2188 0.2753
5952.0000 3.3518 3.1999 3.1130 108.8186 8.3361 -0.0049 0.2691 2.9037 2.5129 54.6696 0.2750
5952.5000 3.3219 3.2275 3.1331 110.3170 8.3830 -0.0028 0.2686 2.8356 2.5264 54.8125 0.2686
5953.0000 3.2804 3.1963 3.0854 109.0055 8.3947 -0.0032 0.2825 2.7784 2.5347 54.9286 0.2702
5953.5000 3.1536 3.0450 2.9399 102.7566 8.4065 -0.0025 0.2817 2.7720 2.5428 55.3125 0.2826
5954.0000 3.0051 2.8969 2.8003 104.2882 8.4299 -0.0025 0.2943 2.8089 2.5434 55.5179 0.2847
5954.5000 3.0339 2.8847 2.7858 105.2565 8.4299 0.0004 0.2921 2.8227 2.5529 55.6071 0.2924
5955.0000 3.0992 2.9639 2.8463 105.5066 8.4065 -0.0005 0.2915 2.8494 2.5492 55.3281 0.2859
5955.5000 3.1470 3.0223 2.9039 98.9456 8.3830 -0.0003 0.2816 2.8396 2.5541 55.3839 0.2832
5956.0000 3.1319 2.9965 2.8813 96.9462 8.3596 -0.0019 0.2706 2.8440 2.5518 55.6250 0.2768
5956.5000 3.1348 2.9860 2.8732 103.2879 8.3596 -0.0021 0.2630 2.8546 2.5511 55.5000 0.2748
5957.0000 3.1298 2.9995 2.8824 109.8183 8.3596 -0.0048 0.2743 2.9296 2.5301 55.3906 0.2713
5957.5000 3.0961 2.9707 2.8615 114.5668 8.3361 -0.0044 0.2754 2.9670 2.5173 55.4643 0.2759
5958.0000 3.0204 2.9016 2.7950 110.6304 8.3478 -0.0009 0.2960 2.9870 2.5202 55.5156 0.2727
5958.5000 2.9573 2.8358 2.7381 108.3804 8.3361 0.0059 0.3086 2.9814 2.5356 55.7054 0.2879
5959.0000 2.8955 2.7799 2.6792 103.3508 8.3361 0.0077 0.3082 2.9897 2.5359 55.8047 0.3029
5959.5000 2.8316 2.7185 2.6223 105.1942 8.3127 0.0040 0.2908 3.0159 2.5138 55.7143 0.3053
5960.0000 2.7712 2.6603 2.5630 105.1939 8.3009 0.0019 0.2729 2.9784 2.5088 55.8672 0.2953
5960.5000 2.7028 2.5903 2.4936 102.3506 8.3127 0.0035 0.2701 2.9340 2.5215 56.1071 0.2800
5961.0000 2.7479 2.6090 2.5044 99.3509 8.3127 0.0066 0.2843 2.8436 2.5438 56.0179 0.2761
5961.5000 2.8153 2.6974 2.5803 103.6006 8.2775 0.0033 0.2888 2.8064 2.5389 56.0781 0.2847
5962.0000 2.8383 2.7134 2.6081 110.9738 8.3127 -0.0014 0.2922 2.7816 2.5299 56.0357 0.2901
5962.5000 2.8600 2.7141 2.6090 110.7240 8.2775 -0.0057 0.2925 2.8066 2.5211 56.0391 0.2880
5963.0000 3.0008 2.8473 2.7222 107.0060 8.2658 -0.0071 0.2801 2.8491 2.5216 55.7946 0.2790
5963.5000 3.1700 3.0227 2.8944 102.2571 8.2658 -0.0077 0.2766 2.9034 2.5175 55.6016 0.2745
5964.0000 3.1332 3.0319 2.9198 105.4129 8.2658 -0.0057 0.2850 2.9025 2.5178 55.6786 0.2698
5964.5000 3.0768 2.9489 2.8554 103.3821 8.2658 -0.0023 0.2930 2.8881 2.5216 55.5625 0.2819
5965.0000 3.0951 2.9711 2.8622 102.2883 8.2540 0.0022 0.2989 2.8758 2.5352 55.4922 0.2881
5965.5000 3.0888 2.9755 2.8725 95.1337 8.2423 0.0064 0.2764 2.9067 2.5495 55.7143 0.2920
5966.0000 3.0637 2.9572 2.8566 101.3822 8.2423 0.0053 0.2782 2.9099 2.5456 55.8750 0.2800
5966.5000 3.1223 3.0011 2.8951 101.6012 8.2658 0.0033 0.2641 2.8705 2.5380 55.8482 0.2838
5967.0000 3.1417 3.0334 2.9227 109.3502 8.2658 0.0014 0.2857 2.7855 2.5347 55.6172 0.2719
5967.5000 3.1687 3.0452 2.9372 104.0382 8.3009 0.0014 0.2834 2.7092 2.5381 55.4107 0.2809
5968.0000 3.2018 3.0731 2.9484 103.9136 8.2658 -0.0007 0.2920 2.7039 2.5287 55.1641 0.2749
5968.5000 3.2477 3.0830 2.9699 106.9122 8.2423 -0.0032 0.2855 2.7327 2.5154 55.3482 0.2836
5969.0000 3.0888 3.0129 2.8936 110.1930 8.2423 -0.0034 0.2992 2.7968 2.5117 55.5268 0.2869
5969.5000 2.9628 2.8463 2.7523 111.1921 8.2423 -0.0016 0.3170 2.8603 2.5186 56.0781 0.3026
5970.0000 2.8271 2.7205 2.6213 106.6931 8.2189 0.0007 0.3087 2.9184 2.5300 56.3214 0.3200
5970.5000 2.8295 2.7423 2.6446 102.9753 8.1954 -0.0007 0.3093 2.9548 2.5280 56.3047 0.3083
5971.0000 2.9593 2.8151 2.7080 106.7248 8.2658 -0.0013 0.3031 2.9044 2.5350 56.2500 0.3074
5971.5000 3.0482 2.9170 2.7956 108.5056 8.3361 -0.0030 0.3041 2.8259 2.5414 56.1563 0.3025
5972.0000 3.1918 3.0483 2.9213 114.2546 8.2892 -0.0027 0.2920 2.7764 2.5507 56.1786 0.2958
5972.5000 3.1630 3.0500 2.9410 112.2551 8.2892 -0.0003 0.2938 2.7765 2.5584 56.1719 0.2856
5973.0000 3.0397 2.9399 2.8426 111.1616 8.2658 0.0010 0.2899 2.8399 2.5542 56.2143 0.2905
5973.5000 3.0048 2.8642 2.7820 109.4121 8.2658 0.0042 0.2961 2.9029 2.5497 56.4018 0.2996
5974.0000 2.9334 2.8152 2.7429 108.7558 8.1485 0.0065 0.2898 2.9680 2.5398 56.4688 0.3029
5974.5000 2.9215 2.7986 2.7139 105.8190 8.1133 0.0064 0.2955 2.9459 2.5291 56.4375 0.2901
5975.0000 2.9020 2.7991 2.6996 104.3186 8.1954 0.0055 0.3092 2.8934 2.5291 56.4844 0.2858
5975.5000 2.8744 2.7637 2.6643 107.8181 8.2189 0.0025 0.3097 2.8593 2.5227 56.5714 0.2927
5976.0000 2.7259 2.6687 2.5809 113.8165 8.2189 0.0048 0.3075 2.8914 2.5236 56.5446 0.3105
5976.5000 2.6182 2.4933 2.4359 117.4413 8.2189 0.0056 0.3038 2.9487 2.5198 56.6328 0.3134
5977.0000 2.5580 2.4151 2.3381 114.0981 8.2189 0.0035 0.3015 3.0138 2.5342 56.8125 0.3048
5977.5000 2.6491 2.5151 2.4110 113.0984 8.1485 0.0023 0.3232 3.0678 2.5401 56.7054 0.2980
5978.0000 2.6895 2.5652 2.4608 112.2235 8.1016 0.0050 0.3346 3.1121 2.5496 56.9196 0.3135
5978.5000 2.7040 2.5646 2.4763 112.7234 8.1837 0.0074 0.3563 3.0709 2.5412 56.9297 0.3244
5979.0000 2.7797 2.6417 2.5400 109.1307 8.1720 0.0063 0.3468 3.0442 2.5317 57.0536 0.3433
5979.5000 2.8594 2.7092 2.6042 103.6320 8.1954 -0.0012 0.3290 2.9962 2.5245 57.3281 0.3381
5980.0000 2.8559 2.7153 2.6110 106.1315 8.1485 0.0013 0.3096 2.9953 2.5242 57.4018 0.3319
5980.5000 2.8721 2.7300 2.6241 105.2570 8.1485 -0.0009 0.3120 2.9474 2.5419 57.2109 0.3110
5981.0000 2.9227 2.7909 2.6742 108.2564 8.0782 0.0026 0.3093 2.9155 2.5602 57.1071 0.3063
5981.5000 2.9874 2.8544 2.7437 110.1310 8.1016 -0.0019 0.3167 2.9404 2.5684 57.1250 0.3070
5982.0000 2.9039 2.8037 2.6972 114.5984 8.0782 -0.0030 0.3091 3.0168 2.5582 57.0536 0.3158
5982.5000 2.8381 2.7308 2.6344 114.8476 8.1016 -0.0033 0.2874 3.0628 2.5422 56.9554 0.3140
5983.0000 2.7837 2.6741 2.5818 112.2234 8.0782 0.0036 0.2892 3.0820 2.5457 57.0156 0.2951
5983.5000 2.7018 2.6049 2.5174 108.4742 7.9609 0.0089 0.2848 3.0457 2.5481 57.2768 0.2968
5984.0000 2.6484 2.5571 2.4726 105.9126 8.0547 0.0078 0.3044 3.0363 2.5396 57.3125 0.2796
5984.5000 2.7021 2.5755 2.4880 108.4118 8.0430 0.0003 0.3011 3.0192 2.5234 57.0714 0.2925
5985.0000 2.7344 2.6214 2.5304 114.1605 8.0782 -0.0048 0.3096 3.0448 2.5192 56.8750 0.2910
5985.5000 2.7747 2.6480 2.5560 116.1291 8.0899 -0.0063 0.3054 3.0558 2.5256 57.1484 0.3038
5986.0000 2.7107 2.6091 2.5228 120.3779 8.0782 -0.0048 0.2899 3.0015 2.5324 57.2768 0.3024
5986.5000 2.6887 2.5710 2.4849 119.5969 8.0782 -0.0005 0.2857 2.9305 2.5359 57.0469 0.2952
5987.0000 2.6904 2.5709 2.4867 121.9403 8.0782 0.0023 0.2845 2.8486 2.5299 57.0714 0.2942
5987.5000 2.6690 2.5587 2.4772 114.4422 8.0782 0.0012 0.3143 2.8282 2.5184 57.0938 0.2862
5988.0000 2.7253 2.5849 2.5095 113.1302 8.0547 -0.0029 0.3053 2.8163 2.5118 57.0625 0.3026
5988.5000 2.8170 2.6917 2.5963 115.6292 8.0782 -0.0051 0.3084 2.8518 2.5128 56.9531 0.2903
5989.0000 2.8662 2.7126 2.6115 117.3787 8.1016 -0.0053 0.2868 2.9222 2.5072 57.0804 0.2994
