~VERSION INFORMATION
VERS.           1.2   :CWLS Log ASCII Standard - VERSION 1.2
WRAP.           NO    :One Line per depth step
PROD.  Schlumberger   :LAS Producer
PROG.  DLIS to ASCII 17C0-152                          :LAS Program name and version
CREA.        2013/10/06 02:44                          :LAS Creation date {YYYY/MM/DD hh:mm}
DLIS_CREA.  2013-Oct-05 16:22                          :DLIS Creation date and time {YYYY-MMM-DD hh:mm}
SOURCE.     563481d1-2dcb-47d9-a1d9-48f1ce5abb79       :DLIS File Name
#--------------------------------------------------
~WELL INFORMATION
#MNEM.UNIT      DATA             DESCRIPTION
#---- ------ --------------   -----------------------------
STRT .F      1000.5000       :START DEPTH        # original; data subset to 5500-8000
STOP .F      7736.0000       :STOP DEPTH        # original; data subset to 5500-8000
STEP .F       0.5000         :STEP       
NULL .          -999.25      :NULL VALUE
COMP .                 COMPANY:  Bear Oil & Gas, Inc.               
WELL .                    WELL:  Mattson 12-32                      
FLD  .                   FIELD:  Wildcat                            
LOC  .                LOCATION:  SWNW, Sec. 32, T16N, R60W          
CNTY .                  COUNTY:  Laramie                            
STAT .                   STATE:  Wyoming                            
CTRY .                 COUNTRY:                                     
SRVC .         SERVICE COMPANY:  Schlumberger                       
LATI .DEG             LATITUDE:  41.310000 degrees                  
LONG .DEG            LONGITUDE:  -104.15000 degrees                 
API  .              API NUMBER:  49-021-20933-0000                  
DATE .                LOG DATE:  05-Oct-2013
UWI  .          UNIQUE WELL ID:                                     
#-----------------------------------------------------------------------------
~PARAMETER INFORMATION
#MNEM.UNIT    VALUE                      DESCRIPTION
#---- -----   --------------------       ------------------------
CN   .        Bear Oil & Gas  Inc.       :Company Name
WN   .        Mattson 12-32              :Well Name
FN   .        Wildcat                    :Field Name
FL   .        SWNW  Sec. 32  T16N  R60W  :Field Location
FL1  .        SHL  2529' FNL X 605' FWL  :Field Location, Line 1
COUN .        Laramie                    :County or Parish
STAT .        Wyoming                    :State or Province
NATI .                                   :Nation
DATE .        05-Oct-2013                :Tools Above Rotary Table Date
APIN .        49-021-20933-0000          :API Well Number
SECT .        32                         :Section
TOWN .        16N                        :Township
RANG .        60W                        :Range
DMF  .        KB                         :Drilling Measured From (Name of Drilling Elevation Reference)
LMF  .        KB                         :Logging Measured From (Name of Logging Elevation Reference)
PDAT .        GL                         :Permanent Datum
ENGI .        Heather Hoffman            :Engineer s Name
WITN .        Terry Eitteim              :Witness s Name
LATI .        41.310000 degrees          :Latitude
LONG .        -104.15000 degrees         :Longitude
LUL  .        Ft. Morgan  CO             :Logging Unit Location
LUN  .        3022                       :Logging Unit Number
RUN  .        PEX AIT                    :Run Number
SON  .        CQQL-00002                 :Service Order Number
BHT  .DEGF     164.00000                 :Bottom Hole Temperature
BS   .IN         7.87500                 :Bit Size
MDEN .G/C3       2.65000                 :Matrix Density for Density Porosity
DFD  .LB/G       9.00000                 :Drilling Fluid Density
DFV  .S       -999.25000                 :Drilling Fluid Viscosity
DFL  .C3      -999.25000                 :Drilling Fluid Loss
RMFS .OHMM       0.94400                 :Resistivity of Mud Filtrate Sample
EKB  .F       5303.00000                 :Elevation of Kelly Bushing
EGL  .F       5291.00000                 :Elevation of Ground Level
BLI  .F       7708.00000                 :Bottom Log Interval
BSAL .PPM        0.00000                 :Borehole Salinity
FLEV .F          8.00000                 :Depth of Drilling Fluid Level to LMF (Log Measured From)
MCST .DEGF      68.00000                 :Mudcake Sample Temperature
MFST .DEGF      68.20000                 :Mud Filtrate Sample Temperature
MRT  .DEGF     164.00000                 :Maximum Recorded Temperature
MST  .DEGF      68.20000                 :Mud Sample Temperature
RMCS .OHMM       1.41600                 :Resistivity of Mud Cake Sample
RMS  .OHMM       1.18000                 :Resistivity of Mud Sample
RW   .OHMM       1.00000                 :Connate Water Resistivity
TDD  .F       7710.00000                 :Driller Total Depth
TDL  .F       7710.00000                 :Logger Total Depth
TLI  .F       1025.00000                 :Top Log Interval
HIDE .        Wildcat                    :Header Identifier
MATR .        SAND                       :Rock Matrix for Neutron Porosity Corrections
FNUM .           1.00000                 :F-Numerator for Formation Factor Formula
FEXP .           2.00000                 :Exponent "m" for Formation Factor Formula
DFT  .        WATER                      :Drilling Fluid Type
DFPH .        -999.25000                 :Drilling Fluid pH
MCSS .        Pressed                    :Mudcake Sample Source
MFSS .                                   :Mud Filtrate Sample Source
FD   .G/C3       1.00000                 :Fluid Density
MSS  .        Active Tank                :Mud Sample Source
OS1  .                                   :Other Services Line 1
OS2  .                                   :Other Services Line 2
OS3  .                                   :Other Services Line 3
OS4  .                                   :Other Services Line 4
OS5  .                                   :Other Services Line 5
R1   .                                   :Remarks Line 1
R2   .                                   :Remarks Line 2
R3   .                                   :Remarks Line 3
R4   .                                   :Remarks Line 4
R5   .                                   :Remarks Line 5
R6   .                                   :Remarks Line 6
R7   .                                   :Remarks Line 7
R8   .        This is the first run in hole. :Remarks Line 8
TCS  .        06 00 00                   :Time Circulation Stopped
TLAB .        15 16 28                   :Time Logger At Bottom
NMT  .        NOBARITE                   :HRDD Mud Type for Nuclear Devices
EPD  .C3         5291.000000             :Elevation of Permanent Datum above Mean Sea Level
APD  .F          12.000000               :Elevation of Depth Reference (LMF) above Permanent Datum
#-----------------------------------------------------------------------------
~CURVE INFORMATION
#MNEM.UNIT   API CODE                                  DESCRIPTION
#---- -----  --------                                  -----------------------
DEPT .F                                                :DEPTH (BOREHOLE) {F12.4}
AT10 .OHMM                                             :Array Induction Two Foot Resistivity A10 {F11.4}
AT30 .OHMM                                             :Array Induction Two Foot Resistivity A30 {F11.4}
AT90 .OHMM                                             :Array Induction Two Foot Resistivity A90 {F11.4}
GR   .GAPI                                             :Gamma Ray {F11.4}
HCAL .IN                                               :HRCC Caliper Calibrated {F11.4}
HDRA .G/C3                                             :Density Standoff Correction {F11.4}
NPHI .CFCF                                             :Thermal Neutron Porosity (original Ratio Method) in Selected Lithology {F11.4}
PEFZ .                                                 :Standard Resolution Formation Photoelectric Factor {F11.4}
RHOZ .G/C3                                             :Standard Resolution Formation Density {F11.4}
SP   .MV                                               :Spontaneous Potential {F11.4}
TNPH .CFCF                                             :Thermal Neutron Porosity (Ratio Method) in Selected Lithology {F11.4}
#-----------------------------------------------------------------------------
# 
#      DEPT        AF10       AF20       AF30       AF60       AF90       AO10       AO20       AO30       AO60       AO90       AT10       AT20       AT30       AT60       AT90     AHFCO60      AHMF      AHORT      AHORX      AHSCA     AHTCO10    AHTCO20    AHTCO30    AHTCO60    AHTCO90     AHTD1      AHTD2      AHTRT      AHTRX       CDF        CFTC       CNTC       CTEM       DCAL       DNPH       DPHZ       DSOZ       ECGR        ED        GDEV        GR      GR_EDTC      GTEM       HCAL       HDRA       HDRB       HGR        HMIN       HMNO       HNPO       HPRA       HTNP        ND        NPHI       NPOR       PEFZ    PXND_HILT     RHOZ       RSOZ     RWA_HILT     RXO8       RXOZ        SP        SPAR       STIT       TENS       TNPH     HTNP_SAN
#
~A  DEPT AT10 AT30 AT90 GR HCAL HDRA NPHI PEFZ RHOZ SP TNPH
5500.0000 2.3989 2.3059 2.2363 99.3835 7.9140 0.0925 0.3222 3.0889 2.5204 55.2679 0.3256
5500.5000 2.3969 2.3018 2.2303 100.8828 7.9609 0.0979 0.3195 3.1019 2.5282 54.9911 0.3219
5501.0000 2.3812 2.2999 2.2139 96.7271 7.9492 0.1226 0.3195 3.1522 2.5317 54.8661 0.3284
5501.5000 2.3345 2.2601 2.1884 104.7879 7.9609 0.1676 0.3361 3.1980 2.5353 54.9609 0.3308
5502.0000 2.2965 2.2140 2.1501 108.2870 7.9375 0.2075 0.3439 3.2009 2.5231 54.5268 0.3368
5502.5000 2.3175 2.2334 2.1632 114.7853 8.0078 0.2217 0.3544 3.1662 2.5124 54.9643 0.3393
5503.0000 2.3494 2.2675 2.1929 111.2864 8.0078 0.2090 0.3503 3.1164 2.5110 55.5268 0.3427
5503.5000 2.3800 2.2936 2.2156 114.2856 8.1016 0.1805 0.3538 3.0481 2.5176 55.7411 0.3308
5504.0000 2.4046 2.3171 2.2377 112.7862 7.8906 0.1557 0.3560 2.9858 2.5144 55.7321 0.3364
5504.5000 2.4401 2.3554 2.2871 116.7227 8.0078 0.1476 0.3454 2.9565 2.5009 55.6250 0.3378
5505.0000 2.4781 2.3899 2.3216 113.2236 8.0313 0.1613 0.3201 2.9728 2.4941 55.3661 0.3382
5505.5000 2.5159 2.4285 2.3546 112.7235 7.8671 0.1810 0.3008 3.0151 2.4979 55.0268 0.3224
5506.0000 2.5548 2.4807 2.3927 108.1309 7.8906 0.1903 0.2943 3.0668 2.4921 55.1696 0.3063
5506.5000 2.5390 2.4889 2.4125 104.6313 7.7850 0.1854 0.3277 3.1123 2.4866 55.3438 0.2983
5507.0000 2.5262 2.4629 2.3910 102.8818 8.1485 0.1739 0.3372 3.1596 2.4969 55.0000 0.3092
5507.5000 2.5199 2.4362 2.3611 99.3825 7.7499 0.1628 0.3428 3.2173 2.5043 55.3125 0.3122
5508.0000 2.4804 2.4189 2.3315 105.8812 7.8202 0.1691 0.3262 3.2724 2.5067 55.3125 0.3221
5508.5000 2.3993 2.3357 2.2607 109.4740 7.8437 0.1687 0.3328 3.2618 2.4675 55.5391 0.3257
5509.0000 2.3382 2.3020 2.2202 114.8170 7.9609 0.1609 0.3432 3.1716 2.4432 56.0893 0.3402
5509.5000 2.3594 2.3006 2.2178 112.8172 7.8671 0.1448 0.3348 3.0612 2.4377 55.5982 0.3419
5510.0000 2.3660 2.2981 2.2137 112.5988 7.7733 0.1366 0.3481 2.9881 2.4535 55.5804 0.3289
5510.5000 2.3706 2.3013 2.2169 108.0997 7.7968 0.1352 0.3325 2.9523 2.4781 55.6250 0.3385
5511.0000 2.3853 2.3084 2.2250 105.8505 8.0547 0.1181 0.3275 2.9471 2.4942 55.4141 0.3239
5511.5000 2.3766 2.2936 2.2134 109.2242 7.9492 0.0989 0.2929 3.0122 2.4835 54.9018 0.3224
5512.0000 2.3386 2.2833 2.1982 110.7862 7.8202 0.1179 0.3068 3.1495 2.4885 55.2054 0.3047
5512.5000 2.2509 2.2057 2.1481 105.0376 7.9140 0.1570 0.3199 3.2515 2.4783 55.3929 0.3194
5513.0000 2.1800 2.1318 2.0870 101.4448 8.1720 0.2050 0.3418 3.2683 2.4990 55.4821 0.3194
5513.5000 2.1267 2.0864 2.0431 101.8818 8.0313 0.2126 0.3510 3.2178 2.4876 55.5000 0.3333
5514.0000 2.0728 2.0336 1.9978 108.3803 7.7733 0.2096 0.3637 3.1778 2.4846 55.7500 0.3446
5514.5000 2.0174 1.9764 1.9381 103.1320 8.0078 0.1940 0.3866 3.1502 2.4838 56.1607 0.3544
5515.0000 2.0324 1.9473 1.9204 100.1332 8.1251 0.1698 0.3707 3.1075 2.5074 56.1161 0.3589
5515.5000 2.2269 2.1360 2.0937 99.6333 7.8671 0.1303 0.3591 3.0518 2.5184 55.6406 0.3408
5516.0000 2.4139 2.3373 2.2708 103.3510 7.7968 0.0992 0.3244 3.0370 2.5282 55.3750 0.3334
5516.5000 2.4499 2.3919 2.3315 107.1001 7.8202 0.0871 0.3348 3.0784 2.5119 55.2321 0.3201
5517.0000 2.4431 2.3986 2.3523 107.1001 7.8437 0.1130 0.3370 3.1643 2.5339 55.0804 0.3335
5517.5000 2.4429 2.3809 2.3274 110.1619 8.0899 0.1320 0.3231 3.2108 2.5387 55.2679 0.3327
5518.0000 2.4536 2.3721 2.3155 106.9118 7.8437 0.1523 0.3146 3.2304 2.5532 55.0547 0.3234
5518.5000 2.4602 2.3814 2.3249 108.1618 7.8906 0.1580 0.3147 3.2138 2.5412 54.9286 0.3130
5519.0000 2.4388 2.3561 2.3029 107.0688 8.0313 0.1619 0.3459 3.1692 2.5312 55.2679 0.3145
5519.5000 2.4078 2.3295 2.2750 111.0683 8.0078 0.1489 0.3483 3.0754 2.5230 55.5781 0.3416
5520.0000 2.3799 2.2950 2.2540 106.0691 7.9140 0.1251 0.3442 2.9894 2.5116 55.2232 0.3383
5520.5000 2.3711 2.2733 2.2340 110.4742 7.8554 0.1101 0.3221 2.9531 2.5005 55.4554 0.3340
5521.0000 2.3771 2.2901 2.2383 102.8513 8.1720 0.1283 0.3264 2.9889 2.4971 55.5089 0.3191
5521.5000 2.3702 2.2967 2.2434 100.3521 7.9609 0.1685 0.3397 3.0429 2.5004 55.3839 0.3282
5522.0000 2.3545 2.2753 2.2235 95.1025 7.9609 0.2019 0.3621 3.0850 2.5030 55.3571 0.3308
5522.5000 2.3578 2.2715 2.2183 102.5382 7.9375 0.2159 0.3553 3.1135 2.5128 55.1250 0.3368
5523.0000 2.4133 2.3241 2.2640 109.7863 8.1954 0.2018 0.3248 3.1413 2.5278 54.7946 0.3300
5523.5000 2.4630 2.3669 2.3047 111.9419 7.8906 0.1786 0.3019 3.2019 2.5489 55.2946 0.3285
5524.0000 2.4644 2.3773 2.3133 108.8799 8.0547 0.1549 0.2937 3.2997 2.5488 55.3929 0.3062
5524.5000 2.4833 2.3903 2.3307 108.6304 8.0547 0.1511 0.3191 3.3945 2.5368 55.7946 0.2930
5525.0000 2.4924 2.4081 2.3555 101.1953 7.8906 0.1527 0.3406 3.3925 2.5129 55.3984 0.3121
5525.5000 2.4965 2.4274 2.3761 105.9441 8.0313 0.1421 0.3340 3.2686 2.4950 55.2321 0.3239
5526.0000 2.5155 2.4235 2.3761 103.9440 8.0078 0.1186 0.3251 3.0820 2.4951 55.1964 0.3197
5526.5000 2.5083 2.4121 2.3671 110.7242 7.9140 0.1019 0.3123 2.9469 2.5113 55.2109 0.3197
5527.0000 2.4594 2.3754 2.3252 101.9763 7.8437 0.1000 0.3430 2.9177 2.5185 55.2500 0.3195
5527.5000 2.4182 2.3339 2.2888 106.2249 8.1016 0.1075 0.3361 2.9630 2.5045 55.3214 0.3415
5528.0000 2.3877 2.3080 2.2635 103.3813 8.1251 0.1277 0.3279 3.0253 2.5046 54.8750 0.3373
5528.5000 2.3514 2.2744 2.2266 102.6316 8.1251 0.1434 0.3139 3.0591 2.5057 55.0446 0.3261
5529.0000 2.3152 2.2392 2.1833 94.6344 8.0547 0.1568 0.3207 3.0933 2.4990 55.2411 0.3110
5529.5000 2.2984 2.2160 2.1621 94.4155 7.9023 0.1698 0.3409 3.1457 2.4837 55.4609 0.3202
5530.0000 2.3208 2.2464 2.1751 99.1640 8.1251 0.1798 0.3299 3.2011 2.4888 56.0179 0.3255
5530.5000 2.3225 2.2577 2.1898 104.9128 8.0313 0.1685 0.3646 3.2288 2.5022 55.6071 0.3242
5531.0000 2.3002 2.2133 2.1573 108.4119 7.8671 0.1552 0.3719 3.2605 2.5195 55.2578 0.3504
5531.5000 2.2898 2.1979 2.1434 111.9115 8.0078 0.1497 0.4035 3.2830 2.5154 55.4018 0.3537
5532.0000 2.3329 2.2451 2.1892 106.6626 7.9140 0.1594 0.3631 3.2782 2.5092 55.3359 0.3760
5532.5000 2.3941 2.2992 2.2446 102.5076 7.9257 0.1519 0.3506 3.2183 2.5107 55.4732 0.3526
5533.0000 2.4737 2.3647 2.3080 96.5090 7.8906 0.1208 0.3276 3.1455 2.4970 55.4107 0.3439
5533.5000 2.4779 2.4123 2.3673 101.5074 7.9140 0.1036 0.3275 3.1184 2.5081 55.2656 0.3269
5534.0000 2.4043 2.3446 2.2965 102.9757 7.8906 0.0923 0.3244 3.0991 2.5046 55.5536 0.3284
5534.5000 2.3928 2.3011 2.2483 110.0681 7.8202 0.1022 0.3307 3.0927 2.5206 55.6339 0.3203
5535.0000 2.4035 2.3383 2.2885 103.5697 7.8671 0.1002 0.3208 3.0695 2.5147 55.7734 0.3298
5535.5000 2.3652 2.3274 2.2699 104.0697 8.0430 0.1049 0.3168 3.0447 2.5153 55.4464 0.3124
5536.0000 2.3344 2.2735 2.2255 105.9751 7.9609 0.1103 0.2947 3.0276 2.5068 55.4732 0.3081
5536.5000 2.3118 2.2363 2.1818 113.2233 8.3127 0.1197 0.2886 3.0579 2.4983 55.3828 0.2917
5537.0000 2.2773 2.2197 2.1601 110.3801 8.1954 0.1374 0.2936 3.1303 2.4846 55.1429 0.2944
5537.5000 2.2410 2.1882 2.1356 106.8813 7.8437 0.1669 0.3258 3.1914 2.4916 55.1429 0.2954
5538.0000 2.1978 2.1405 2.0885 104.6320 7.8906 0.1780 0.3497 3.1751 2.4896 55.3516 0.3176
5538.5000 2.1567 2.0962 2.0485 109.0059 7.8671 0.1684 0.3567 3.1061 2.4970 55.0982 0.3336
5539.0000 2.1611 2.0954 2.0472 107.7558 8.0547 0.1435 0.3328 3.0281 2.4967 55.0446 0.3367
5539.5000 2.1816 2.1108 2.0664 106.7559 7.9140 0.1367 0.3568 2.9880 2.5171 55.3281 0.3250
5540.0000 2.1918 2.1179 2.0729 108.7240 8.1016 0.1356 0.3444 2.9818 2.5138 56.0000 0.3409
5540.5000 2.2204 2.1510 2.0901 103.9749 7.9609 0.1484 0.3546 2.9982 2.5212 55.5781 0.3382
5541.0000 2.2387 2.1638 2.1054 109.7243 7.8437 0.1670 0.3207 3.0279 2.5244 55.5804 0.3412
5541.5000 2.2163 2.1519 2.0995 104.9130 7.8085 0.1853 0.3427 3.0497 2.5216 55.4732 0.3245
5542.0000 2.2082 2.1376 2.0838 112.1612 8.1720 0.1925 0.3252 3.0572 2.5102 55.5089 0.3408
5542.5000 2.1903 2.1169 2.0648 103.4131 8.0782 0.1974 0.3423 3.0410 2.5051 55.3750 0.3253
5543.0000 2.1599 2.0881 2.0361 101.0075 7.8554 0.2003 0.3487 3.0519 2.5060 55.4643 0.3394
5543.5000 2.1169 2.0470 1.9932 100.0082 7.8906 0.1903 0.3777 3.0695 2.4993 55.2422 0.3376
5544.0000 2.0742 2.0012 1.9493 103.0073 7.8437 0.1685 0.3825 3.0994 2.4788 55.6786 0.3640
