~VERSION INFORMATION
VERS.           1.2   :CWLS Log ASCII Standard - VERSION 1.2
WRAP.           NO    :One Line per depth step
PROD.  Schlumberger   :LAS Producer
PROG.  DLIS to ASCII 17C0-152                          :LAS Program name and version
CREA.        2013/10/06 02:44                          :LAS Creation date {YYYY/MM/DD hh:mm}
DLIS_CREA.  2013-Oct-05 16:22                          :DLIS Creation date and time {YYYY-MMM-DD hh:mm}
SOURCE.     563481d1-2dcb-47d9-a1d9-48f1ce5abb79       :DLIS File Name
#--------------------------------------------------
~WELL INFORMATION
#MNEM.UNIT      DATA             DESCRIPTION
#---- ------ --------------   -----------------------------
STRT .F      1000.5000       :START DEPTH        # original; data subset to 5500-8000
STOP .F      7736.0000       :STOP DEPTH        # original; data subset to 5500-8000
STEP .F       0.5000         :STEP       
NULL .          -999.25      :NULL VALUE
COMP .                 COMPANY:  Bear Oil & Gas, Inc.               
WELL .                    WELL:  Mattson 12-32                      
FLD  .                   FIELD:  Wildcat                            
LOC  .                LOCATION:  SWNW, Sec. 32, T16N, R60W          
CNTY .                  COUNTY:  Laramie                            
STAT .                   STATE:  Wyoming                            
CTRY .                 COUNTRY:                                     
SRVC .         SERVICE COMPANY:  Schlumberger                       
LATI .DEG             LATITUDE:  41.310000 degrees                  
LONG .DEG            LONGITUDE:  -104.15000 degrees                 
API  .              API NUMBER:  49-021-20933-0000                  
DATE .                LOG DATE:  05-Oct-2013
UWI  .          UNIQUE WELL ID:                                     
#-----------------------------------------------------------------------------
~PARAMETER INFORMATION
#MNEM.UNIT    VALUE                      DESCRIPTION
#---- -----   --------------------       ------------------------
CN   .        Bear Oil & Gas  Inc.       :Company Name
WN   .        Mattson 12-32              :Well Name
FN   .        Wildcat                    :Field Name
FL   .        SWNW  Sec. 32  T16N  R60W  :Field Location
FL1  .        SHL  2529' FNL X 605' FWL  :Field Location, Line 1
COUN .        Laramie                    :County or Parish
STAT .        Wyoming                    :State or Province
NATI .                                   :Nation
DATE .        05-Oct-2013                :Tools Above Rotary Table Date
APIN .        49-021-20933-0000          :API Well Number
SECT .        32                         :Section
TOWN .        16N                        :Township
RANG .        60W                        :Range
DMF  .        KB                         :Drilling Measured From (Name of Drilling Elevation Reference)
LMF  .        KB                         :Logging Measured From (Name of Logging Elevation Reference)
PDAT .        GL                         :Permanent Datum
ENGI .        Heather Hoffman            :Engineer s Name
WITN .        Terry Eitteim              :Witness s Name
LATI .        41.310000 degrees          :Latitude
LONG .        -104.15000 degrees         :Longitude
LUL  .        Ft. Morgan  CO             :Logging Unit Location
LUN  .        3022                       :Logging Unit Number
RUN  .        PEX AIT                    :Run Number
SON  .        CQQL-00002                 :Service Order Number
BHT  .DEGF     164.00000                 :Bottom Hole Temperature
BS   .IN         7.87500                 :Bit Size
MDEN .G/C3       2.65000                 :Matrix Density for Density Porosity
DFD  .LB/G       9.00000                 :Drilling Fluid Density
DFV  .S       -999.25000                 :Drilling Fluid Viscosity
DFL  .C3      -999.25000                 :Drilling Fluid Loss
RMFS .OHMM       0.94400                 :Resistivity of Mud Filtrate Sample
EKB  .F       5303.00000                 :Elevation of Kelly Bushing
EGL  .F       5291.00000                 :Elevation of Ground Level
BLI  .F       7708.00000                 :Bottom Log Interval
BSAL .PPM        0.00000                 :Borehole Salinity
FLEV .F          8.00000                 :Depth of Drilling Fluid Level to LMF (Log Measured From)
MCST .DEGF      68.00000                 :Mudcake Sample Temperature
MFST .DEGF      68.20000                 :Mud Filtrate Sample Temperature
MRT  .DEGF     164.00000                 :Maximum Recorded Temperature
MST  .DEGF      68.20000                 :Mud Sample Temperature
RMCS .OHMM       1.41600                 :Resistivity of Mud Cake Sample
RMS  .OHMM       1.18000                 :Resistivity of Mud Sample
RW   .OHMM       1.00000                 :Connate Water Resistivity
TDD  .F       7710.00000                 :Driller Total Depth
TDL  .F       7710.00000                 :Logger Total Depth
TLI  .F       1025.00000                 :Top Log Interval
HIDE .        Wildcat                    :Header Identifier
MATR .        SAND                       :Rock Matrix for Neutron Porosity Corrections
FNUM .           1.00000                 :F-Numerator for Formation Factor Formula
FEXP .           2.00000                 :Exponent "m" for Formation Factor Formula
DFT  .        WATER                      :Drilling Fluid Type
DFPH .        -999.25000                 :Drilling Fluid pH
MCSS .        Pressed                    :Mudcake Sample Source
MFSS .                                   :Mud Filtrate Sample Source
FD   .G/C3       1.00000                 :Fluid Density
MSS  .        Active Tank                :Mud Sample Source
OS1  .                                   :Other Services Line 1
OS2  .                                   :Other Services Line 2
OS3  .                                   :Other Services Line 3
OS4  .                                   :Other Services Line 4
OS5  .                                   :Other Services Line 5
R1   .                                   :Remarks Line 1
R2   .                                   :Remarks Line 2
R3   .                                   :Remarks Line 3
R4   .                                   :Remarks Line 4
R5   .                                   :Remarks Line 5
R6   .                                   :Remarks Line 6
R7   .                                   :Remarks Line 7
R8   .        This is the first run in hole. :Remarks Line 8
TCS  .        06 00 00                   :Time Circulation Stopped
TLAB .        15 16 28                   :Time Logger At Bottom
NMT  .        NOBARITE                   :HRDD Mud Type for Nuclear Devices
EPD  .C3         5291.000000             :Elevation of Permanent Datum above Mean Sea Level
APD  .F          12.000000               :Elevation of Depth Reference (LMF) above Permanent Datum
#-----------------------------------------------------------------------------
~CURVE INFORMATION
#MNEM.UNIT   API CODE                                  DESCRIPTION
#---- -----  --------                                  -----------------------
DEPT .F                                                :DEPTH (BOREHOLE) {F12.4}
AT10 .OHMM                                             :Array Induction Two Foot Resistivity A10 {F11.4}
AT30 .OHMM                                             :Array Induction Two Foot Resistivity A30 {F11.4}
AT90 .OHMM                                             :Array Induction Two Foot Resistivity A90 {F11.4}
GR   .GAPI                                             :Gamma Ray {F11.4}
HCAL .IN                                               :HRCC Caliper Calibrated {F11.4}
HDRA .G/C3                                             :Density Standoff Correction {F11.4}
NPHI .CFCF                                             :Thermal Neutron Porosity (original Ratio Method) in Selected Lithology {F11.4}
PEFZ .                                                 :Standard Resolution Formation Photoelectric Factor {F11.4}
RHOZ .G/C3                                             :Standard Resolution Formation Density {F11.4}
SP   .MV                                               :Spontaneous Potential {F11.4}
TNPH .CFCF                                             :Thermal Neutron Porosity (Ratio Method) in Selected Lithology {F11.4}
#-----------------------------------------------------------------------------
# 
#      DEPT        AF10       AF20       AF30       AF60       AF90       AO10       AO20       AO30       AO60       AO90       AT10       AT20       AT30       AT60       AT90     AHFCO60      AHMF      AHORT      AHORX      AHSCA     AHTCO10    AHTCO20    AHTCO30    AHTCO60    AHTCO90     AHTD1      AHTD2      AHTRT      AHTRX       CDF        CFTC       CNTC       CTEM       DCAL       DNPH       DPHZ       DSOZ       ECGR        ED        GDEV        GR      GR_EDTC      GTEM       HCAL       HDRA       HDRB       HGR        HMIN       HMNO       HNPO       HPRA       HTNP        ND        NPHI       NPOR       PEFZ    PXND_HILT     RHOZ       RSOZ     RWA_HILT     RXO8       RXOZ        SP        SPAR       STIT       TENS       TNPH     HTNP_SAN
#
~A  DEPT AT10 AT30 AT90 GR HCAL HDRA NPHI PEFZ RHOZ SP TNPH
# ...
5811.5000 1.9415 1.8729 1.8214 116.9101 8.5823 0.1399 0.3169 3.1188 2.5038 56.3571 0.3200
5812.0000 1.9225 1.8359 1.7981 115.4106 8.6175 0.1330 0.3328 3.0790 2.4984 57.0313 0.3219
5812.5000 1.9036 1.8356 1.7959 114.9731 8.7348 0.1256 0.3222 3.0554 2.4860 57.4643 0.3239
5813.0000 1.9185 1.8320 1.7956 112.5367 8.7348 0.1225 0.3435 3.0582 2.4805 56.8359 0.3110
5813.5000 1.9224 1.8488 1.8159 108.6619 8.5706 0.1326 0.3523 3.0928 2.4803 56.5804 0.3368
5814.0000 1.9267 1.8417 1.8061 108.5994 8.6293 0.1515 0.3662 3.1397 2.4890 56.4375 0.3425
5814.5000 1.8362 1.7746 1.7420 110.5981 8.6175 0.1658 0.3638 3.1661 2.4875 56.7232 0.3682
5815.0000 1.7939 1.7239 1.6926 110.4739 8.6410 0.1709 0.3678 3.1757 2.4876 56.9531 0.3718
5815.5000 1.7574 1.6840 1.6477 106.2254 8.7817 0.1638 0.3547 3.1573 2.4812 56.9643 0.3707
5816.0000 1.7374 1.6707 1.6268 103.1639 8.8520 0.1549 0.3468 3.1430 2.4786 57.0391 0.3510
5816.5000 1.7425 1.6715 1.6212 103.9136 8.8051 0.1458 0.3620 3.1100 2.4809 56.9911 0.3372
5817.0000 1.7916 1.7101 1.6524 111.9424 8.5706 0.1395 0.3553 3.0724 2.4884 56.9286 0.3477
5817.5000 1.8299 1.7433 1.6763 111.0052 8.6293 0.1272 0.3490 3.0295 2.4963 57.0313 0.3337
5818.0000 1.8617 1.7726 1.7002 109.2554 8.6879 0.1211 0.3197 3.0510 2.4998 57.0804 0.3335
5818.5000 1.8903 1.8079 1.7282 102.4759 8.6644 0.1309 0.3361 3.1358 2.4944 56.8125 0.3231
5819.0000 1.8806 1.7953 1.7215 100.9760 8.6293 0.1600 0.3422 3.2047 2.4957 56.7768 0.3439
5819.5000 1.8368 1.7550 1.6900 99.4765 8.6410 0.1895 0.3593 3.1629 2.4953 56.7679 0.3543
5820.0000 1.8216 1.7495 1.6832 95.9773 8.6175 0.2158 0.3524 3.0765 2.4956 56.7656 0.3558
5820.5000 1.8129 1.7434 1.6765 98.8519 8.7113 0.2338 0.3574 3.0132 2.4996 56.8672 0.3484
5821.0000 1.7946 1.7258 1.6583 98.8520 8.6996 0.2387 0.3630 3.0087 2.5078 57.1250 0.3539
5821.5000 1.7770 1.7201 1.6540 103.6007 8.7113 0.2139 0.3591 2.9827 2.5066 57.1250 0.3509
5822.0000 1.8078 1.7341 1.6651 106.0065 8.8520 0.1856 0.3581 2.9774 2.4934 57.1172 0.3483
5822.5000 1.8563 1.7728 1.6972 111.0052 8.7113 0.1698 0.3740 2.9849 2.4779 57.0357 0.3593
5823.0000 1.8855 1.8019 1.7206 111.9430 8.7348 0.1731 0.3679 3.0043 2.4633 57.1719 0.3712
5823.5000 1.8027 1.7374 1.6645 106.6628 8.7465 0.1767 0.3485 2.9987 2.4615 57.2500 0.3614
5824.0000 1.7514 1.6710 1.5960 101.4139 8.9224 0.1734 0.3456 3.0072 2.4687 57.2589 0.3405
5824.5000 1.7384 1.6532 1.5835 98.1330 8.7113 0.1728 0.3585 3.0537 2.4846 57.1406 0.3440
5825.0000 1.7373 1.6565 1.5873 99.6328 8.7113 0.1789 0.3694 3.1061 2.4889 56.9643 0.3478
5825.5000 1.7240 1.6421 1.5728 103.8195 8.6644 0.1888 0.3281 3.0937 2.4992 56.9063 0.3459
5826.0000 1.7000 1.6165 1.5487 106.1629 8.6175 0.1839 0.3230 3.0246 2.5010 57.4643 0.3213
5826.5000 1.6823 1.5920 1.5262 105.7877 8.6410 0.1565 0.3371 2.9510 2.4864 57.7734 0.3293
5827.0000 1.6605 1.5747 1.5121 108.5993 8.6293 0.1177 0.3684 2.9006 2.4620 57.8036 0.3429
5827.5000 1.6987 1.6132 1.5494 109.5371 8.6175 0.0937 0.3642 2.8858 2.4553 58.0313 0.3484
5828.0000 1.7452 1.6401 1.5750 106.9126 8.7113 0.0920 0.3228 2.9241 2.4815 57.4643 0.3436
5828.5000 1.8000 1.7045 1.6369 104.4138 8.5706 0.1087 0.3286 3.0279 2.4901 57.0547 0.3252
5829.0000 1.8318 1.7073 1.6434 103.3198 8.5472 0.1461 0.3232 3.1267 2.5046 56.7321 0.3354
5829.5000 1.7512 1.6601 1.6100 109.0688 8.5706 0.1735 0.3558 3.1332 2.4863 57.0078 0.3311
5830.0000 1.7208 1.6295 1.5815 106.7876 8.7817 0.1952 0.3707 3.0961 2.4858 57.1518 0.3541
5830.5000 1.6894 1.6133 1.5614 110.9424 8.7817 0.1825 0.3783 3.0802 2.4666 57.0357 0.3502
5831.0000 1.7035 1.6260 1.5732 112.6293 8.7582 0.1705 0.3869 3.1251 2.4731 56.7500 0.3511
5831.5000 1.7337 1.6540 1.5983 112.1604 8.5941 0.1449 0.3773 3.1614 2.4764 57.2679 0.3530
5832.0000 1.7720 1.6858 1.6297 111.4109 8.7348 0.1305 0.3739 3.1637 2.4846 57.4297 0.3580
5832.5000 1.8030 1.7008 1.6406 107.9120 8.6175 0.1230 0.3546 3.1331 2.4925 57.7232 0.3691
5833.0000 1.7940 1.6859 1.6298 104.9126 8.5941 0.1201 0.3311 3.0848 2.4974 57.4844 0.3505
5833.5000 1.7354 1.6578 1.6053 105.4439 8.7113 0.1172 0.3560 3.0301 2.4978 57.2143 0.3333
5834.0000 1.6963 1.6187 1.5691 109.0051 8.6527 0.1100 0.3713 3.0225 2.4867 57.2422 0.3519
5834.5000 1.7093 1.6298 1.5812 113.5047 8.6644 0.0992 0.3703 3.0908 2.4820 57.2679 0.3645
5835.0000 1.7189 1.6491 1.5934 112.4113 8.5472 0.0976 0.3424 3.1953 2.4876 56.8661 0.3710
5835.5000 1.6919 1.6190 1.5719 108.6623 8.5941 0.1259 0.3454 3.2422 2.5100 56.5625 0.3484
5836.0000 1.6703 1.5871 1.5590 107.6310 8.9224 0.1612 0.3506 3.1724 2.5041 56.4554 0.3449
5836.5000 1.6429 1.5644 1.5231 99.4454 8.6175 0.1865 0.3832 3.0737 2.4899 56.8906 0.3489
5837.0000 1.6613 1.5685 1.5262 97.1963 8.6879 0.1809 0.3637 3.0080 2.4667 56.8929 0.3672
5837.5000 1.6642 1.5783 1.5365 99.6016 8.7817 0.1771 0.3364 3.0244 2.4655 57.4219 0.3563
5838.0000 1.6821 1.6095 1.5656 106.6002 8.7817 0.1738 0.3327 3.0568 2.4661 57.4286 0.3379
5838.5000 1.7285 1.6298 1.5860 110.3488 8.8520 0.1812 0.3451 3.1090 2.4742 57.0391 0.3264
5839.0000 1.7812 1.6723 1.6262 112.7240 8.5237 0.1894 0.3813 3.1518 2.4853 56.9643 0.3380
5839.5000 1.8103 1.6827 1.6374 116.5348 8.5472 0.1977 0.3745 3.1918 2.4883 56.9219 0.3609
5840.0000 1.7647 1.6622 1.6162 119.2848 8.6644 0.1941 0.3656 3.1805 2.4932 56.9018 0.3709
5840.5000 1.7098 1.6100 1.5720 115.2852 8.8051 0.1775 0.3740 3.1412 2.4867 56.7679 0.3638
5841.0000 1.6656 1.5838 1.5415 112.2235 8.7231 0.1545 0.3681 3.0997 2.4897 57.1406 0.3563
5841.5000 1.7475 1.6418 1.5902 111.9735 8.5706 0.1368 0.3626 3.0982 2.4771 57.1429 0.3559
5842.0000 1.8016 1.6993 1.6423 112.5046 8.6175 0.1333 0.3402 3.1060 2.4848 57.1172 0.3502
5842.5000 1.8082 1.7038 1.6444 113.2551 8.5706 0.1291 0.3588 3.0863 2.4902 57.5714 0.3384
5843.0000 1.8337 1.7171 1.6627 111.1931 8.6644 0.1170 0.3753 3.0587 2.4923 58.0313 0.3446
5843.5000 1.8540 1.7492 1.6896 105.4131 8.7113 0.1088 0.3675 3.0844 2.4976 57.5536 0.3533
5844.0000 1.9250 1.8043 1.7182 103.4135 8.4065 0.1112 0.3288 3.1547 2.4974 57.4219 0.3558
5844.5000 2.0240 1.8740 1.8088 99.4767 8.5003 0.1380 0.3168 3.2118 2.5285 57.1786 0.3275
5845.0000 1.9534 1.8650 1.8045 106.7253 8.6175 0.1578 0.3368 3.1979 2.5322 57.0625 0.3181
5845.5000 1.9631 1.8465 1.8048 106.9746 8.6410 0.1667 0.3562 3.1647 2.5285 56.9732 0.3327
5846.0000 1.9666 1.8400 1.7900 113.3170 8.7348 0.1436 0.3512 3.1358 2.4973 56.7054 0.3394
5846.5000 2.0406 1.9224 1.8783 114.5665 8.5472 0.1158 0.3286 3.1310 2.4948 57.1094 0.3362
5847.0000 2.1409 2.0171 1.9659 117.5355 8.6175 0.0910 0.3296 3.1341 2.5092 57.2411 0.3254
5847.5000 2.1089 2.0073 1.9606 116.9415 8.5706 0.0766 0.3287 3.1342 2.5398 57.5938 0.3292
5848.0000 2.0867 1.9731 1.9424 112.4741 8.6175 0.0738 0.3311 3.1511 2.5527 57.7143 0.3281
5848.5000 2.0845 1.9688 1.9352 108.5057 8.6175 0.0773 0.3103 3.1687 2.5586 57.4375 0.3291
5849.0000 2.0859 1.9841 1.9473 104.2568 8.6175 0.0959 0.3233 3.1920 2.5590 57.2109 0.3128
5849.5000 2.0952 1.9957 1.9603 106.4433 8.5941 0.1118 0.3193 3.1916 2.5500 56.8359 0.3210
5850.0000 2.0403 1.9606 1.9206 103.6939 8.4768 0.1280 0.3317 3.1736 2.5420 56.6786 0.3276
5850.5000 2.0084 1.9141 1.8791 110.2863 8.5706 0.1366 0.3134 3.1504 2.5306 56.8281 0.3315
5851.0000 1.9763 1.8844 1.8413 106.8188 8.5706 0.1530 0.3396 3.1477 2.5402 56.9286 0.3129
5851.5000 1.9927 1.8975 1.8503 116.0664 8.4768 0.1683 0.3603 3.1837 2.5379 56.9375 0.3328
5852.0000 1.9933 1.9057 1.8554 112.3485 8.5941 0.1811 0.3926 3.2257 2.5367 57.4063 0.3438
5852.5000 2.0014 1.9059 1.8494 113.3483 8.5706 0.1791 0.3594 3.2514 2.5343 57.6429 0.3744
5853.0000 2.0148 1.9208 1.8645 111.9107 8.3947 0.1632 0.3506 3.2451 2.5273 57.1797 0.3493
5853.5000 2.0165 1.9303 1.8719 112.0360 8.4299 0.1584 0.3191 3.2811 2.5452 56.8839 0.3425
5854.0000 1.9913 1.8798 1.8246 114.5353 8.3947 0.1531 0.3147 3.3394 2.5348 56.8359 0.3253
5854.5000 1.9121 1.8226 1.7675 108.4123 8.4534 0.1642 0.3164 3.3676 2.5528 56.8661 0.3190
5855.0000 1.8396 1.7594 1.7072 113.6609 8.5941 0.1587 0.3333 3.3226 2.5237 56.8984 0.3200
5855.5000 1.7464 1.6780 1.6270 119.3158 8.6058 0.1524 0.3581 3.2408 2.5129 56.7768 0.3427
