~VERSION INFORMATION
VERS.           1.2   :CWLS Log ASCII Standard - VERSION 1.2
WRAP.           NO    :One Line per depth step
PROD.  Schlumberger   :LAS Producer
PROG.  DLIS to ASCII 17C0-152                          :LAS Program name and version
CREA.        2013/10/06 02:44                          :LAS Creation date {YYYY/MM/DD hh:mm}
DLIS_CREA.  2013-Oct-05 16:22                          :DLIS Creation date and time {YYYY-MMM-DD hh:mm}
SOURCE.     563481d1-2dcb-47d9-a1d9-48f1ce5abb79       :DLIS File Name
#--------------------------------------------------
~WELL INFORMATION
#MNEM.UNIT      DATA             DESCRIPTION
#---- ------ --------------   -----------------------------
STRT .F      1000.5000       :START DEPTH        # original; data subset to 5500-8000
STOP .F      7736.0000       :STOP DEPTH        # original; data subset to 5500-8000
STEP .F       0.5000         :STEP       
NULL .          -999.25      :NULL VALUE
COMP .                 COMPANY:  Bear Oil & Gas, Inc.               
WELL .                    WELL:  Mattson 12-32                      
FLD  .                   FIELD:  Wildcat                            
LOC  .                LOCATION:  SWNW, Sec. 32, T16N, R60W          
CNTY .                  COUNTY:  Laramie                            
STAT .                   STATE:  Wyoming                            
CTRY .                 COUNTRY:                                     
SRVC .         SERVICE COMPANY:  Schlumberger                       
LATI .DEG             LATITUDE:  41.310000 degrees                  
LONG .DEG            LONGITUDE:  -104.15000 degrees                 
API  .              API NUMBER:  49-021-20933-0000                  
DATE .                LOG DATE:  05-Oct-2013
UWI  .          UNIQUE WELL ID:                                     
#-----------------------------------------------------------------------------
~PARAMETER INFORMATION
#MNEM.UNIT    VALUE                      DESCRIPTION
#---- -----   --------------------       ------------------------
CN   .        Bear Oil & Gas  Inc.       :Company Name
WN   .        Mattson 12-32              :Well Name
FN   .        Wildcat                    :Field Name
FL   .        SWNW  Sec. 32  T16N  R60W  :Field Location
FL1  .        SHL  2529' FNL X 605' FWL  :Field Location, Line 1
COUN .        Laramie                    :County or Parish
STAT .        Wyoming                    :State or Province
NATI .                                   :Nation
DATE .        05-Oct-2013                :Tools Above Rotary Table Date
APIN .        49-021-20933-0000          :API Well Number
SECT .        32                         :Section
TOWN .        16N                        :Township
RANG .        60W                        :Range
DMF  .        KB                         :Drilling Measured From (Name of Drilling Elevation Reference)
LMF  .        KB                         :Logging Measured From (Name of Logging Elevation Reference)
PDAT .        GL                         :Permanent Datum
ENGI .        Heather Hoffman            :Engineer s Name
WITN .        Terry Eitteim              :Witness s Name
LATI .        41.310000 degrees          :Latitude
LONG .        -104.15000 degrees         :Longitude
LUL  .        Ft. Morgan  CO             :Logging Unit Location
LUN  .        3022                       :Logging Unit Number
RUN  .        PEX AIT                    :Run Number
SON  .        CQQL-00002                 :Service Order Number
BHT  .DEGF     164.00000                 :Bottom Hole Temperature
BS   .IN         7.87500                 :Bit Size
MDEN .G/C3       2.65000                 :Matrix Density for Density Porosity
DFD  .LB/G       9.00000                 :Drilling Fluid Density
DFV  .S       -999.25000                 :Drilling Fluid Viscosity
DFL  .C3      -999.25000                 :Drilling Fluid Loss
RMFS .OHMM       0.94400                 :Resistivity of Mud Filtrate Sample
EKB  .F       5303.00000                 :Elevation of Kelly Bushing
EGL  .F       5291.00000                 :Elevation of Ground Level
BLI  .F       7708.00000                 :Bottom Log Interval
BSAL .PPM        0.00000                 :Borehole Salinity
FLEV .F          8.00000                 :Depth of Drilling Fluid Level to LMF (Log Measured From)
MCST .DEGF      68.00000                 :Mudcake Sample Temperature
MFST .DEGF      68.20000                 :Mud Filtrate Sample Temperature
MRT  .DEGF     164.00000                 :Maximum Recorded Temperature
MST  .DEGF      68.20000                 :Mud Sample Temperature
RMCS .OHMM       1.41600                 :Resistivity of Mud Cake Sample
RMS  .OHMM       1.18000                 :Resistivity of Mud Sample
RW   .OHMM       1.00000                 :Connate Water Resistivity
TDD  .F       7710.00000                 :Driller Total Depth
TDL  .F       7710.00000                 :Logger Total Depth
TLI  .F       1025.00000                 :Top Log Interval
HIDE .        Wildcat                    :Header Identifier
MATR .        SAND                       :Rock Matrix for Neutron Porosity Corrections
FNUM .           1.00000                 :F-Numerator for Formation Factor Formula
FEXP .           2.00000                 :Exponent "m" for Formation Factor Formula
DFT  .        WATER                      :Drilling Fluid Type
DFPH .        -999.25000                 :Drilling Fluid pH
MCSS .        Pressed                    :Mudcake Sample Source
MFSS .                                   :Mud Filtrate Sample Source
FD   .G/C3       1.00000                 :Fluid Density
MSS  .        Active Tank                :Mud Sample Source
OS1  .                                   :Other Services Line 1
OS2  .                                   :Other Services Line 2
OS3  .                                   :Other Services Line 3
OS4  .                                   :Other Services Line 4
OS5  .                                   :Other Services Line 5
R1   .                                   :Remarks Line 1
R2   .                                   :Remarks Line 2
R3   .                                   :Remarks Line 3
R4   .                                   :Remarks Line 4
R5   .                                   :Remarks Line 5
R6   .                                   :Remarks Line 6
R7   .                                   :Remarks Line 7
R8   .        This is the first run in hole. :Remarks Line 8
TCS  .        06 00 00                   :Time Circulation Stopped
TLAB .        15 16 28                   :Time Logger At Bottom
NMT  .        NOBARITE                   :HRDD Mud Type for Nuclear Devices
EPD  .C3         5291.000000             :Elevation of Permanent Datum above Mean Sea Level
APD  .F          12.000000               :Elevation of Depth Reference (LMF) above Permanent Datum
#-----------------------------------------------------------------------------
~CURVE INFORMATION
#MNEM.UNIT   API CODE                                  DESCRIPTION
#---- -----  --------                                  -----------------------
DEPT .F                                                :DEPTH (BOREHOLE) {F12.4}
AT10 .OHMM                                             :Array Induction Two Foot Resistivity A10 {F11.4}
AT30 .OHMM                                             :Array Induction Two Foot Resistivity A30 {F11.4}
AT90 .OHMM                                             :Array Induction Two Foot Resistivity A90 {F11.4}
GR   .GAPI                                             :Gamma Ray {F11.4}
HCAL .IN                                               :HRCC Caliper Calibrated {F11.4}
HDRA .G/C3                                             :Density Standoff Correction {F11.4}
NPHI .CFCF                                             :Thermal Neutron Porosity (original Ratio Method) in Selected Lithology {F11.4}
PEFZ .                                                 :Standard Resolution Formation Photoelectric Factor {F11.4}
RHOZ .G/C3                                             :Standard Resolution Formation Density {F11.4}
SP   .MV                                               :Spontaneous Potential {F11.4}
TNPH .CFCF                                             :Thermal Neutron Porosity (Ratio Method) in Selected Lithology {F11.4}
#-----------------------------------------------------------------------------
# 
#      DEPT        AF10       AF20       AF30       AF60       AF90       AO10       AO20       AO30       AO60       AO90       AT10       AT20       AT30       AT60       AT90     AHFCO60      AHMF      AHORT      AHORX      AHSCA     AHTCO10    AHTCO20    AHTCO30    AHTCO60    AHTCO90     AHTD1      AHTD2      AHTRT      AHTRX       CDF        CFTC       CNTC       CTEM       DCAL       DNPH       DPHZ       DSOZ       ECGR        ED        GDEV        GR      GR_EDTC      GTEM       HCAL       HDRA       HDRB       HGR        HMIN       HMNO       HNPO       HPRA       HTNP        ND        NPHI       NPOR       PEFZ    PXND_HILT     RHOZ       RSOZ     RWA_HILT     RXO8       RXOZ        SP        SPAR       STIT       TENS       TNPH     HTNP_SAN
#
~A  DEPT AT10 AT30 AT90 GR HCAL HDRA NPHI PEFZ RHOZ SP TNPH
# ...
6212.0000 3.0138 2.8791 2.7489 102.9446 7.7616 0.0026 0.2860 3.0020 2.5557 59.1953 0.2685
6212.5000 2.9578 2.8293 2.7059 99.2270 7.7264 0.0050 0.2944 3.0683 2.5646 59.0804 0.2783
6213.0000 2.9069 2.7677 2.6600 102.1631 7.7264 0.0107 0.2866 3.1152 2.5735 59.1953 0.2847
6213.5000 2.9069 2.7612 2.6513 103.3197 7.7499 0.0081 0.2941 3.1131 2.5785 58.9297 0.2837
6214.0000 2.9665 2.7978 2.6862 106.5996 7.7499 0.0030 0.2814 3.0534 2.5704 58.8516 0.2875
6214.5000 3.0008 2.8538 2.7352 110.2238 7.7381 -0.0023 0.2798 3.0053 2.5467 59.4821 0.2771
6215.0000 3.0203 2.8837 2.7673 111.0673 7.7264 -0.0015 0.2783 2.9792 2.5287 59.4688 0.2704
6215.5000 3.0537 2.9022 2.7862 112.3796 7.7264 -0.0023 0.2808 2.9196 2.5211 60.1484 0.2676
6216.0000 3.0820 2.9232 2.8020 111.2863 7.7499 -0.0038 0.2868 2.8747 2.5298 59.6250 0.2736
6216.5000 3.0997 2.9504 2.8265 112.7862 7.7499 -0.0051 0.2863 2.8856 2.5334 59.3438 0.2828
6217.0000 3.0587 2.9256 2.8010 109.9428 7.7147 -0.0069 0.2889 2.9489 2.5237 59.1875 0.2855
6217.5000 3.0182 2.8741 2.7580 115.9105 7.7499 -0.0073 0.3023 3.0114 2.5079 59.3203 0.2854
6218.0000 2.9728 2.8350 2.7206 112.6920 7.7499 -0.0069 0.2954 3.0497 2.4948 59.3828 0.2945
6218.5000 3.0098 2.8613 2.7431 117.0663 7.7733 -0.0065 0.2917 3.0705 2.4887 58.5446 0.2804
6219.0000 3.0552 2.9142 2.7828 108.5684 7.7733 -0.0029 0.2746 3.0688 2.4919 59.2031 0.2753
6219.5000 3.0940 2.9471 2.8174 109.2244 7.7499 0.0143 0.2698 3.1050 2.5049 59.2109 0.2737
6220.0000 3.1206 2.9642 2.8369 106.4121 7.6326 0.0353 0.2592 3.1597 2.5183 59.4375 0.2710
6220.5000 3.1230 2.9598 2.8354 108.5054 7.6092 0.0514 0.2553 3.2114 2.5381 60.5234 0.2593
6221.0000 3.0902 2.9549 2.8305 107.4123 7.6795 0.0531 0.2722 3.1743 2.5603 59.6172 0.2505
6221.5000 3.0242 2.8875 2.7697 113.6611 7.7030 0.0433 0.2878 3.0897 2.5721 59.6250 0.2645
6222.0000 2.9714 2.8325 2.7249 110.1618 7.7499 0.0285 0.2941 3.0047 2.5686 59.6406 0.2827
6222.5000 2.9801 2.8479 2.7293 112.3174 7.7499 0.0146 0.2805 2.9408 2.5609 59.5357 0.2848
6223.0000 2.9687 2.8321 2.7185 112.1616 7.7499 0.0084 0.2759 2.9191 2.5591 59.4531 0.2744
6223.5000 2.9519 2.8073 2.6978 116.5360 7.7733 0.0076 0.2809 2.9253 2.5538 59.2422 0.2695
6224.0000 3.0085 2.8528 2.7345 116.7864 7.7499 0.0061 0.2797 2.9581 2.5424 59.3125 0.2707
6224.5000 3.0283 2.8754 2.7484 113.5054 7.7030 0.0055 0.2938 3.0000 2.5374 59.7969 0.2708
6225.0000 3.0690 2.9132 2.7879 109.7871 7.7147 0.0058 0.2982 3.0335 2.5423 59.3661 0.2843
6225.5000 3.1013 2.9328 2.8066 107.2869 7.7030 0.0041 0.3056 3.0239 2.5402 59.4219 0.2926
6226.0000 3.0323 2.9095 2.7842 98.3203 7.7264 0.0006 0.3007 2.9975 2.5304 59.6250 0.3041
6226.5000 2.9764 2.8349 2.7271 98.3204 7.7733 -0.0028 0.3019 2.9529 2.5188 59.7344 0.3004
6227.0000 2.9452 2.8075 2.6997 101.0392 7.7733 -0.0015 0.3122 2.9139 2.5237 59.7768 0.3008
6227.5000 2.9511 2.8170 2.6933 108.0375 7.7499 0.0016 0.3220 2.8893 2.5308 59.6328 0.2989
6228.0000 2.9530 2.8334 2.7156 111.2866 7.7499 0.0033 0.3112 2.8775 2.5341 59.2589 0.3097
6228.5000 3.0382 2.8569 2.7310 111.0676 7.7264 0.0055 0.3002 2.9354 2.5451 59.1563 0.2994
6229.0000 3.1377 2.9860 2.8554 104.7256 7.7499 0.0045 0.2911 2.9688 2.5472 59.6953 0.2934
6229.5000 3.1198 2.9955 2.8669 102.9757 7.7499 0.0060 0.2869 3.0263 2.5478 59.7143 0.2937
6230.0000 3.0170 2.8813 2.7763 97.9458 7.7499 0.0053 0.2897 3.0185 2.5282 60.6563 0.2873
6230.5000 2.9544 2.8170 2.7150 103.9445 7.7499 0.0154 0.2890 3.0282 2.5306 60.0156 0.2853
6231.0000 2.9438 2.8006 2.7043 103.3196 7.7264 0.0212 0.3001 3.0256 2.5375 59.8750 0.2835
6231.5000 2.9315 2.7980 2.6943 109.2243 7.7499 0.0214 0.3006 3.0283 2.5449 59.7109 0.2953
6232.0000 2.9065 2.7856 2.6907 106.2249 7.7499 0.0117 0.2924 3.0168 2.5327 59.8438 0.2928
6232.5000 2.8435 2.7223 2.6319 110.5989 7.7499 0.0040 0.2812 2.9895 2.5151 59.7500 0.2839
6233.0000 2.8206 2.6849 2.5975 104.9131 7.7499 0.0024 0.2844 2.9566 2.5121 59.2188 0.2745
6233.5000 2.8761 2.7623 2.6616 109.6617 7.7733 0.0029 0.2977 2.9011 2.5237 59.5893 0.2821
6234.0000 2.9959 2.8562 2.7431 106.6005 7.7499 0.0014 0.3009 2.8656 2.5323 59.8203 0.2995
6234.5000 3.1358 2.9616 2.8359 110.4117 7.7733 -0.0013 0.2858 2.8435 2.5318 60.0313 0.2929
6235.0000 3.2423 3.0697 2.9350 111.1928 7.7733 -0.0025 0.2769 2.8310 2.5282 60.5625 0.2700
6235.5000 3.2573 3.0833 2.9445 109.2243 7.7733 -0.0012 0.2853 2.8275 2.5325 59.9141 0.2651
6236.0000 3.2914 3.1086 2.9740 107.4745 7.7499 -0.0003 0.2935 2.8589 2.5440 59.5859 0.2817
6236.5000 3.3163 3.1706 3.0300 105.9433 7.7499 -0.0007 0.2974 2.9176 2.5548 59.6607 0.2904
6237.0000 3.2689 3.1309 3.0039 111.4735 7.7733 -0.0007 0.2868 2.9444 2.5588 59.8516 0.2982
6237.5000 3.1944 3.0642 2.9514 114.2231 7.7733 0.0002 0.2819 2.8877 2.5529 59.9286 0.2836
6238.0000 3.1044 3.0042 2.9019 113.1296 7.7499 0.0007 0.2747 2.8062 2.5439 59.9063 0.2743
6238.5000 3.0888 2.9373 2.8417 107.3811 7.7733 0.0020 0.2772 2.7470 2.5478 59.9063 0.2675
6239.0000 3.1522 3.0024 2.8978 103.0071 7.7499 -0.0008 0.2828 2.7783 2.5401 59.8571 0.2744
6239.5000 3.2017 3.0567 2.9506 101.3514 7.7733 -0.0030 0.2877 2.8319 2.5320 59.9141 0.2762
6240.0000 3.1580 3.0274 2.9206 110.9736 7.7499 -0.0031 0.3083 2.8729 2.5217 60.1563 0.2827
6240.5000 3.1438 3.0101 2.9052 112.7235 7.7499 0.0063 0.3175 2.9089 2.5349 60.2031 0.2962
6241.0000 3.1316 2.9895 2.8853 112.4736 7.7733 0.0129 0.3184 2.9320 2.5398 59.8482 0.3006
6241.5000 3.1761 3.0330 2.9277 108.3183 7.7733 0.0114 0.2956 2.9494 2.5325 59.7969 0.3092
6242.0000 3.2103 3.0650 2.9477 108.9746 7.7733 0.0045 0.2937 2.9137 2.5241 59.9821 0.2948
6242.5000 3.2015 3.0623 2.9446 112.9738 7.7499 0.0007 0.2816 2.8972 2.5291 59.9688 0.2933
6243.0000 3.2153 3.0725 2.9509 111.8807 7.7733 0.0035 0.2929 2.9251 2.5511 59.7344 0.2768
6243.5000 3.2353 3.1045 2.9780 112.0992 7.7499 0.0056 0.2982 2.9903 2.5622 59.5268 0.2842
6244.0000 3.2340 3.0926 2.9727 111.0997 7.7733 0.0060 0.3048 3.0330 2.5674 59.4688 0.2981
6244.5000 3.1741 3.0716 2.9542 109.5683 7.7968 0.0084 0.3004 3.0174 2.5681 59.8750 0.3005
6245.0000 3.1380 3.0095 2.9037 104.5692 7.7968 0.0157 0.2859 2.9909 2.5813 60.5893 0.2955
6245.5000 3.1142 2.9840 2.8779 100.8508 7.7733 0.0177 0.2882 2.9638 2.5813 60.1563 0.2844
6246.0000 3.1408 3.0144 2.9044 101.2886 7.7030 0.0150 0.2992 2.9498 2.5750 60.0089 0.2767
6246.5000 3.1414 3.0094 2.9099 104.5378 7.7499 0.0058 0.2944 2.9419 2.5566 60.0547 0.2890
6247.0000 3.1523 3.0173 2.9181 105.8505 7.7968 0.0028 0.3108 2.9738 2.5555 59.8516 0.2896
6247.5000 3.1840 3.0505 2.9498 102.8198 7.7968 0.0024 0.3083 3.0297 2.5584 59.0804 0.3055
6248.0000 3.2100 3.0732 2.9675 102.6014 7.7968 0.0034 0.3039 3.0246 2.5578 59.1875 0.3041
6248.5000 3.2281 3.0859 2.9833 98.6644 7.7616 0.0046 0.2897 2.9750 2.5557 59.3906 0.2980
6249.0000 3.2048 3.0695 2.9613 101.1638 7.7733 0.0049 0.2857 2.9313 2.5587 59.8214 0.2891
6249.5000 3.1198 2.9860 2.8846 103.1321 7.7733 0.0053 0.3004 2.9309 2.5610 59.7109 0.2926
6250.0000 3.0524 2.9293 2.8258 106.2255 7.7733 0.0034 0.2988 2.9277 2.5531 60.1875 0.2985
6250.5000 3.0259 2.9212 2.8136 108.2877 7.7499 0.0012 0.2987 2.9025 2.5440 60.9643 0.2877
6251.0000 3.0684 2.9180 2.8050 102.1640 7.7968 -0.0019 0.2934 2.9177 2.5385 60.1328 0.2887
6251.5000 3.1346 2.9669 2.8458 105.1624 7.7499 -0.0004 0.3018 2.9628 2.5464 59.8516 0.2897
6252.0000 3.0162 2.8932 2.7701 101.8818 7.7264 0.0148 0.2999 3.0291 2.5616 59.6016 0.2999
6252.5000 2.9029 2.7539 2.6415 107.3492 7.7499 0.0179 0.3111 3.0069 2.5544 59.7232 0.2957
6253.0000 2.9232 2.7364 2.6346 107.1001 7.7733 0.0170 0.3059 2.9367 2.5449 60.0859 0.3035
6253.5000 2.9330 2.7898 2.6716 104.6944 7.7733 0.0013 0.3127 2.8666 2.5237 60.1429 0.3013
6254.0000 2.9466 2.8068 2.6807 103.1638 7.7616 -0.0035 0.2982 2.8941 2.5201 60.1016 0.3129
6254.5000 2.9416 2.7825 2.6620 102.6634 7.7499 -0.0065 0.2960 2.9791 2.5186 60.7500 0.3004
6255.0000 2.8937 2.7615 2.6386 105.5070 7.7733 -0.0075 0.2973 3.0619 2.5160 60.5982 0.2959
6255.5000 2.7507 2.6282 2.5175 100.1953 7.7733 -0.0048 0.3038 3.0683 2.5198 60.5391 0.3001
6256.0000 2.6162 2.4865 2.3893 100.1023 7.7499 -0.0013 0.2967 3.0197 2.5178 60.3594 0.3010
