~VERSION INFORMATION
VERS.           1.2   :CWLS Log ASCII Standard - VERSION 1.2
WRAP.           NO    :One Line per depth step
PROD.  Schlumberger   :LAS Producer
PROG.  DLIS to ASCII 17C0-152                          :LAS Program name and version
CREA.        2013/10/06 02:44                          :LAS Creation date {YYYY/MM/DD hh:mm}
DLIS_CREA.  2013-Oct-05 16:22                          :DLIS Creation date and time {YYYY-MMM-DD hh:mm}
SOURCE.     563481d1-2dcb-47d9-a1d9-48f1ce5abb79       :DLIS File Name
#--------------------------------------------------
~WELL INFORMATION
#MNEM.UNIT      DATA             DESCRIPTION
#---- ------ --------------   -----------------------------
STRT .F      1000.5000       :START DEPTH        # original; data subset to 5500-8000
STOP .F      7736.0000       :STOP DEPTH        # original; data subset to 5500-8000
STEP .F       0.5000         :STEP       
NULL .          -999.25      :NULL VALUE
COMP .                 COMPANY:  Bear Oil & Gas, Inc.               
WELL .                    WELL:  Mattson 12-32                      
FLD  .                   FIELD:  Wildcat                            
LOC  .                LOCATION:  SWNW, Sec. 32, T16N, R60W          
CNTY .                  COUNTY:  Laramie                            
STAT .                   STATE:  Wyoming                            
CTRY .                 COUNTRY:                                     
SRVC .         SERVICE COMPANY:  Schlumberger                       
LATI .DEG             LATITUDE:  41.310000 degrees                  
LONG .DEG            LONGITUDE:  -104.15000 degrees                 
API  .              API NUMBER:  49-021-20933-0000                  
DATE .                LOG DATE:  05-Oct-2013
UWI  .          UNIQUE WELL ID:                                     
#-----------------------------------------------------------------------------
~PARAMETER INFORMATION
#MNEM.UNIT    VALUE                      DESCRIPTION
#---- -----   --------------------       ------------------------
CN   .        Bear Oil & Gas  Inc.       :Company Name
WN   .        Mattson 12-32              :Well Name
FN   .        Wildcat                    :Field Name
FL   .        SWNW  Sec. 32  T16N  R60W  :Field Location
FL1  .        SHL  2529' FNL X 605' FWL  :Field Location, Line 1
COUN .        Laramie                    :County or Parish
STAT .        Wyoming                    :State or Province
NATI .                                   :Nation
DATE .        05-Oct-2013                :Tools Above Rotary Table Date
APIN .        49-021-20933-0000          :API Well Number
SECT .        32                         :Section
TOWN .        16N                        :Township
RANG .        60W                        :Range
DMF  .        KB                         :Drilling Measured From (Name of Drilling Elevation Reference)
LMF  .        KB                         :Logging Measured From (Name of Logging Elevation Reference)
PDAT .        GL                         :Permanent Datum
ENGI .        Heather Hoffman            :Engineer s Name
WITN .        Terry Eitteim              :Witness s Name
LATI .        41.310000 degrees          :Latitude
LONG .        -104.15000 degrees         :Longitude
LUL  .        Ft. Morgan  CO             :Logging Unit Location
LUN  .        3022                       :Logging Unit Number
RUN  .        PEX AIT                    :Run Number
SON  .        CQQL-00002                 :Service Order Number
BHT  .DEGF     164.00000                 :Bottom Hole Temperature
BS   .IN         7.87500                 :Bit Size
MDEN .G/C3       2.65000                 :Matrix Density for Density Porosity
DFD  .LB/G       9.00000                 :Drilling Fluid Density
DFV  .S       -999.25000                 :Drilling Fluid Viscosity
DFL  .C3      -999.25000                 :Drilling Fluid Loss
RMFS .OHMM       0.94400                 :Resistivity of Mud Filtrate Sample
EKB  .F       5303.00000                 :Elevation of Kelly Bushing
EGL  .F       5291.00000                 :Elevation of Ground Level
BLI  .F       7708.00000                 :Bottom Log Interval
BSAL .PPM        0.00000                 :Borehole Salinity
FLEV .F          8.00000                 :Depth of Drilling Fluid Level to LMF (Log Measured From)
MCST .DEGF      68.00000                 :Mudcake Sample Temperature
MFST .DEGF      68.20000                 :Mud Filtrate Sample Temperature
MRT  .DEGF     164.00000                 :Maximum Recorded Temperature
MST  .DEGF      68.20000                 :Mud Sample Temperature
RMCS .OHMM       1.41600                 :Resistivity of Mud Cake Sample
RMS  .OHMM       1.18000                 :Resistivity of Mud Sample
RW   .OHMM       1.00000                 :Connate Water Resistivity
TDD  .F       7710.00000                 :Driller Total Depth
TDL  .F       7710.00000                 :Logger Total Depth
TLI  .F       1025.00000                 :Top Log Interval
HIDE .        Wildcat                    :Header Identifier
MATR .        SAND                       :Rock Matrix for Neutron Porosity Corrections
FNUM .           1.00000                 :F-Numerator for Formation Factor Formula
FEXP .           2.00000                 :Exponent "m" for Formation Factor Formula
DFT  .        WATER                      :Drilling Fluid Type
DFPH .        -999.25000                 :Drilling Fluid pH
MCSS .        Pressed                    :Mudcake Sample Source
MFSS .                                   :Mud Filtrate Sample Source
FD   .G/C3       1.00000                 :Fluid Density
MSS  .        Active Tank                :Mud Sample Source
OS1  .                                   :Other Services Line 1
OS2  .                                   :Other Services Line 2
OS3  .                                   :Other Services Line 3
OS4  .                                   :Other Services Line 4
OS5  .                                   :Other Services Line 5
R1   .                                   :Remarks Line 1
R2   .                                   :Remarks Line 2
R3   .                                   :Remarks Line 3
R4   .                                   :Remarks Line 4
R5   .                                   :Remarks Line 5
R6   .                                   :Remarks Line 6
R7   .                                   :Remarks Line 7
R8   .        This is the first run in hole. :Remarks Line 8
TCS  .        06 00 00                   :Time Circulation Stopped
TLAB .        15 16 28                   :Time Logger At Bottom
NMT  .        NOBARITE                   :HRDD Mud Type for Nuclear Devices
EPD  .C3         5291.000000             :Elevation of Permanent Datum above Mean Sea Level
APD  .F          12.000000               :Elevation of Depth Reference (LMF) above Permanent Datum
#-----------------------------------------------------------------------------
~CURVE INFORMATION
#MNEM.UNIT   API CODE                                  DESCRIPTION
#---- -----  --------                                  -----------------------
DEPT .F                                                :DEPTH (BOREHOLE) {F12.4}
AT10 .OHMM                                             :Array Induction Two Foot Resistivity A10 {F11.4}
AT30 .OHMM                                             :Array Induction Two Foot Resistivity A30 {F11.4}
AT90 .OHMM                                             :Array Induction Two Foot Resistivity A90 {F11.4}
GR   .GAPI                                             :Gamma Ray {F11.4}
HCAL .IN                                               :HRCC Caliper Calibrated {F11.4}
HDRA .G/C3                                             :Density Standoff Correction {F11.4}
NPHI .CFCF                                             :Thermal Neutron Porosity (original Ratio Method) in Selected Lithology {F11.4}
PEFZ .                                                 :Standard Resolution Formation Photoelectric Factor {F11.4}
RHOZ .G/C3                                             :Standard Resolution Formation Density {F11.4}
SP   .MV                                               :Spontaneous Potential {F11.4}
TNPH .CFCF                                             :Thermal Neutron Porosity (Ratio Method) in Selected Lithology {F11.4}
#-----------------------------------------------------------------------------
# 
#      DEPT        AF10       AF20       AF30       AF60       AF90       AO10       AO20       AO30       AO60       AO90       AT10       AT20       AT30       AT60       AT90     AHFCO60      AHMF      AHORT      AHORX      AHSCA     AHTCO10    AHTCO20    AHTCO30    AHTCO60    AHTCO90     AHTD1      AHTD2      AHTRT      AHTRX       CDF        CFTC       CNTC       CTEM       DCAL       DNPH       DPHZ       DSOZ       ECGR        ED        GDEV        GR      GR_EDTC      GTEM       HCAL       HDRA       HDRB       HGR        HMIN       HMNO       HNPO       HPRA       HTNP        ND        NPHI       NPOR       PEFZ    PXND_HILT     RHOZ       RSOZ     RWA_HILT     RXO8       RXOZ        SP        SPAR       STIT       TENS       TNPH     HTNP_SAN
#
~A  DEPT AT10 AT30 AT90 GR HCAL HDRA NPHI PEFZ RHOZ SP TNPH
# ...
7545.0000 29.5240 23.9164 15.2838 49.0194 7.7499 0.0024 0.1260 2.5711 2.4944 49.7266 0.1249
7545.5000 37.9360 25.7865 18.3053 44.5519 7.6561 -0.0002 0.1065 2.3856 2.5016 45.7679 0.1010
7546.0000 48.2851 32.3624 22.6419 39.0536 7.6561 0.0112 0.1066 2.2370 2.5321 42.6641 0.0987
7546.5000 47.3014 38.8396 27.1454 36.7414 7.6443 0.0286 0.1159 2.1664 2.5520 40.3929 0.1061
7547.0000 40.2339 40.1666 31.0059 33.9922 7.6092 0.0315 0.1241 2.0779 2.5380 38.0703 0.1182
7547.5000 37.6995 42.3629 35.8529 32.4922 7.6561 0.0351 0.1187 1.9701 2.5216 35.4297 0.1220
7548.0000 35.1066 42.0941 39.9899 28.6807 7.6795 0.0236 0.1136 1.8890 2.4985 34.1161 0.1150
7548.5000 34.4987 44.7873 44.4717 28.2431 7.6561 0.0200 0.1087 1.8565 2.4946 33.2344 0.1136
7549.0000 28.5630 39.0584 39.1450 28.9931 7.6326 0.0078 0.1193 1.8219 2.4780 31.7891 0.1197
7549.5000 26.0433 34.0469 34.4750 35.9916 7.6561 0.0023 0.1295 1.8343 2.4613 30.9464 0.1328
7550.0000 25.1157 30.0007 28.7113 40.9281 7.7030 0.0089 0.1441 1.8623 2.4667 30.6719 0.1363
7550.5000 22.1771 27.5427 24.8285 43.2088 7.6561 0.0104 0.1486 1.8871 2.4616 30.7946 0.1435
7551.0000 20.9312 24.6812 19.5508 42.1152 7.6443 0.0092 0.1441 1.8741 2.4576 31.4219 0.1466
7551.5000 20.2696 21.3421 16.4910 37.6161 7.6561 0.0042 0.1425 1.8418 2.4527 33.6250 0.1433
7552.0000 19.2059 18.8086 14.5470 34.5542 7.6561 0.0021 0.1449 1.8557 2.4434 35.2734 0.1452
7552.5000 16.4891 17.6454 12.4155 34.7104 7.6326 0.0009 0.1532 1.8893 2.4270 37.8393 0.1517
7553.0000 14.9993 16.2548 11.7239 39.5218 7.6326 -0.0007 0.1556 1.9173 2.4063 41.3594 0.1620
7553.5000 11.5415 13.9133 10.1596 44.3020 7.6092 0.0013 0.1760 1.9271 2.4079 46.5391 0.1629
7554.0000 9.8749 11.8284 9.2877 55.7367 7.6092 0.0055 0.2092 1.9633 2.4224 50.0804 0.1828
7554.5000 10.4094 12.5887 9.6613 60.4229 7.7264 0.0173 0.2114 2.0275 2.4515 50.2891 0.2021
7555.0000 11.5238 13.5903 10.5123 63.5162 7.7264 0.0308 0.1904 2.0704 2.4782 53.3661 0.1901
7555.5000 12.1005 15.4244 11.9256 57.3300 7.7499 0.0304 0.1653 2.0393 2.4821 54.9766 0.1734
7556.0000 12.2007 16.9319 13.3668 52.8625 7.7733 0.0183 0.1652 1.9779 2.4655 55.6641 0.1640
7556.5000 15.3498 18.8121 15.7813 47.3950 7.7733 0.0027 0.1750 1.9288 2.4419 57.4464 0.1665
7557.0000 13.3207 16.6826 12.8573 45.8955 7.6561 0.0111 0.1633 1.9551 2.4193 58.2578 0.1774
7557.5000 12.0401 16.0321 11.6650 52.0190 7.6561 0.0500 0.1655 2.0268 2.3743 60.9609 0.1877
7558.0000 9.5995 11.6892 11.0214 75.8882 7.6443 0.1428 0.2068 2.1064 2.3560 65.0268 0.2280
7558.5000 4.1783 4.7217 4.5114 110.2552 8.1251 0.2286 0.2878 2.1711 2.3317 70.3047 0.2895
7559.0000 2.5610 2.6083 2.6807 137.0928 8.9576 0.3025 0.3474 2.2172 2.3790 73.1696 0.3636
7559.5000 2.1022 2.2127 2.2137 153.9010 9.2038 0.3258 0.3563 2.2838 2.4189 73.8516 0.3616
7560.0000 2.1021 2.2331 2.2115 147.5586 8.9458 0.3356 0.3222 2.3287 2.4689 74.1250 0.3348
7560.5000 2.3401 2.3499 2.3049 144.5595 9.1334 0.3271 0.3130 2.3431 2.4539 74.5089 0.3068
7561.0000 2.5631 2.4468 2.3618 137.7799 8.8520 0.3334 0.3073 2.2939 2.4168 74.4141 0.3070
7561.5000 2.5734 2.3546 2.2507 136.7496 8.9927 0.3652 0.3144 2.1932 2.4016 74.2054 0.3036
7562.0000 2.3342 2.2413 2.1187 133.6870 7.8202 0.3962 0.3357 2.0793 2.4131 74.2188 0.3348
7562.5000 2.2786 2.1264 1.9952 135.6556 8.4416 0.3903 0.3481 2.0149 2.4298 73.5000 0.3384
7563.0000 2.1032 2.0765 1.9469 135.5927 9.0396 0.3550 0.3429 2.0526 2.4372 73.1953 0.3374
7563.5000 2.2105 2.2574 2.0909 132.4060 9.0983 0.3115 0.3165 2.1336 2.4349 72.7891 0.3207
7564.0000 2.6096 2.6474 2.4005 122.1273 8.7348 0.2784 0.3304 2.2398 2.4469 72.9018 0.2886
7564.5000 3.0487 3.0531 2.7706 114.2539 8.1720 0.2560 0.3191 2.3401 2.4749 72.8047 0.2858
7565.0000 3.8148 3.5668 3.2494 105.7565 7.8437 0.2585 0.2950 2.4588 2.5074 72.0536 0.2610
7565.5000 4.6501 4.1509 3.7052 91.9781 8.0313 0.2857 0.2309 2.5045 2.5319 71.3984 0.2292
7566.0000 5.7739 5.5049 4.7545 73.6696 8.2423 0.3131 0.2042 2.4736 2.5375 71.0859 0.1981
7566.5000 7.3265 7.0912 6.7965 65.6715 8.5472 0.2914 0.2004 2.3920 2.5382 70.1607 0.1979
7567.0000 8.3754 9.1043 9.4451 71.2331 7.8554 0.2231 0.2177 2.3630 2.5308 70.0000 0.2157
7567.5000 8.3017 10.9807 11.2741 92.8221 8.1720 0.1398 0.2241 2.3744 2.5469 69.5982 0.2261
7568.0000 9.1878 11.8415 11.0010 116.5666 8.1016 0.0942 0.2260 2.4400 2.5573 69.2266 0.2291
7568.5000 10.3896 11.9279 10.7127 125.6576 7.6326 0.0911 0.2156 2.4773 2.5857 68.1875 0.2191
7569.0000 11.1227 13.0752 10.2233 108.5991 7.6092 0.1040 0.2013 2.4633 2.5938 65.9297 0.1982
7569.5000 12.0749 11.4716 9.4739 95.6020 7.7264 0.0907 0.1927 2.3906 2.5750 63.7188 0.1878
7570.0000 16.3241 15.5789 13.4929 78.9812 7.6561 0.0538 0.1892 2.3292 2.5237 61.1161 0.1790
7570.5000 24.2068 30.0288 25.3039 60.4544 7.5974 0.0187 0.1653 2.3042 2.4635 56.6094 0.1670
7571.0000 47.7008 61.2300 37.6663 26.9623 7.4685 0.0090 0.1449 2.2806 2.4290 50.9732 0.1456
7571.5000 50.6265 60.5347 55.2423 3.9991 7.4919 0.0177 0.1421 2.2244 2.4166 46.1172 0.1408
7572.0000 55.0755 76.5796 79.4416 0.0000 7.5623 0.0269 0.1467 2.1262 2.4184 43.3393 0.1435
7572.5000 53.1254 87.6574 123.2848 0.0000 7.5388 0.0306 0.1479 2.0101 2.4252 41.6563 0.1435
7573.0000 50.0408 83.2890 142.3851 0.0000 7.5388 0.0208 0.1431 1.9158 2.4188 39.5625 0.1382
7573.5000 50.8286 86.8733 144.9972 0.0000 7.5154 0.0108 0.1383 1.8750 2.4175 38.6250 0.1343
7574.0000 56.7758 98.8065 162.0339 0.0000 7.5036 0.0101 0.1355 1.8760 2.4214 37.5078 0.1327
7574.5000 66.7008 117.8275 170.5874 0.0000 7.4685 0.0219 0.1356 1.8792 2.4391 36.7891 0.1317
7575.0000 79.4291 145.4944 181.4803 0.0000 7.4802 0.0358 0.1320 1.8788 2.4463 34.5357 0.1313
7575.5000 70.7006 107.0289 123.5751 0.0000 7.3981 0.0360 0.1240 1.8744 2.4507 31.8516 0.1226
7576.0000 68.9176 85.0596 84.4079 0.0000 7.3747 0.0314 0.1176 1.8764 2.4543 30.6875 0.1133
7576.5000 70.9060 82.7969 80.2218 0.0000 7.3747 0.0255 0.1174 1.8637 2.4576 30.0313 0.1120
7577.0000 69.9451 83.2589 77.1589 0.0000 7.3747 0.0246 0.1201 1.8474 2.4537 29.1250 0.1138
7577.5000 71.5965 79.2475 71.7992 0.0000 7.3512 0.0195 0.1074 1.8367 2.4307 27.9141 0.1140
7578.0000 63.3458 69.4312 65.0215 0.0000 7.3512 0.0275 0.1061 1.8520 2.4232 26.7969 0.1050
7578.5000 57.5638 63.8299 60.4438 0.0000 7.3747 0.0472 0.1086 1.8693 2.4349 25.7321 0.1064
7579.0000 57.8774 60.0505 57.3773 0.0000 7.3747 0.0679 0.1181 1.8621 2.4640 24.4375 0.1102
7579.5000 57.5202 57.3604 55.1721 0.0000 7.3160 0.0664 0.1173 1.8321 2.4756 24.3929 0.1175
7580.0000 57.1293 56.1972 55.7358 0.0000 7.3747 0.0564 0.1146 1.8214 2.4762 24.3281 0.1140
7580.5000 57.3994 56.3001 56.5797 0.0000 7.3981 0.0459 0.1156 1.8442 2.4650 24.5469 0.1129
7581.0000 59.5223 53.5230 54.8509 0.0000 7.3512 0.0424 0.1212 1.8645 2.4554 24.5446 0.1140
7581.5000 61.0078 50.9078 52.0590 0.0000 7.3278 0.0390 0.1227 1.8503 2.4448 24.7891 0.1151
7582.0000 54.2004 47.5123 48.0373 0.0000 7.3747 0.0390 0.1174 1.8087 2.4484 24.8125 0.1143
7582.5000 49.5986 39.8671 39.8789 0.0000 7.3747 0.0470 0.1091 1.7766 2.4600 24.6563 0.1103
7583.0000 43.8270 36.8968 36.0880 0.0000 7.3864 0.0495 0.1075 1.7486 2.4707 25.2266 0.1059
7583.5000 39.1411 33.6957 31.6532 0.0000 7.3747 0.0426 0.1094 1.7188 2.4679 24.8482 0.1093
7584.0000 35.8070 30.2270 27.9719 0.0000 7.4098 0.0292 0.1168 1.7026 2.4562 25.3750 0.1126
7584.5000 32.3899 26.9101 24.4639 0.0000 7.4216 0.0204 0.1203 1.7019 2.4549 25.5982 0.1201
7585.0000 33.4267 26.3543 23.4498 0.0000 7.3981 0.0213 0.1306 1.7214 2.4558 25.6094 0.1228
7585.5000 33.7807 27.1369 23.1966 0.0000 7.4216 0.0227 0.1288 1.7308 2.4543 25.1875 0.1277
7586.0000 34.4989 27.1348 23.0107 0.0000 7.4450 0.0347 0.1223 1.7499 2.4542 25.0982 0.1216
7586.5000 33.9252 26.7479 22.4505 0.0000 7.4216 0.0456 0.1146 1.7699 2.4494 25.2813 0.1150
7587.0000 32.9861 26.3678 21.9976 0.0000 7.3747 0.0686 0.1128 1.7999 2.4599 25.9107 0.1111
7587.5000 32.2035 26.0684 21.7021 0.0000 7.3395 0.0748 0.1159 1.8117 2.4549 24.6641 0.1128
7588.0000 31.8184 26.4066 21.8697 0.0000 7.3278 0.0828 0.1162 1.8210 2.4600 24.5156 0.1138
7588.5000 33.9696 27.5763 22.7309 0.0000 7.3278 0.0753 0.1188 1.8147 2.4605 24.0179 0.1124
