~VERSION INFORMATION
VERS.           1.2   :CWLS Log ASCII Standard - VERSION 1.2
WRAP.           NO    :One Line per depth step
PROD.  Schlumberger   :LAS Producer
PROG.  DLIS to ASCII 17C0-152                          :LAS Program name and version
CREA.        2013/10/06 02:44                          :LAS Creation date {YYYY/MM/DD hh:mm}
DLIS_CREA.  2013-Oct-05 16:22                          :DLIS Creation date and time {YYYY-MMM-DD hh:mm}
SOURCE.     563481d1-2dcb-47d9-a1d9-48f1ce5abb79       :DLIS File Name
#--------------------------------------------------
~WELL INFORMATION
#MNEM.UNIT      DATA             DESCRIPTION
#---- ------ --------------   -----------------------------
STRT .F      1000.5000       :START DEPTH        # original; data subset to 5500-8000
STOP .F      7736.0000       :STOP DEPTH        # original; data subset to 5500-8000
STEP .F       0.5000         :STEP       
NULL .          -999.25      :NULL VALUE
COMP .                 COMPANY:  Bear Oil & Gas, Inc.               
WELL .                    WELL:  Mattson 12-32                      
FLD  .                   FIELD:  Wildcat                            
LOC  .                LOCATION:  SWNW, Sec. 32, T16N, R60W          
CNTY .                  COUNTY:  Laramie                            
STAT .                   STATE:  Wyoming                            
CTRY .                 COUNTRY:                                     
SRVC .         SERVICE COMPANY:  Schlumberger                       
LATI .DEG             LATITUDE:  41.310000 degrees                  
LONG .DEG            LONGITUDE:  -104.15000 degrees                 
API  .              API NUMBER:  49-021-20933-0000                  
DATE .                LOG DATE:  05-Oct-2013
UWI  .          UNIQUE WELL ID:                                     
#-----------------------------------------------------------------------------
~PARAMETER INFORMATION
#MNEM.UNIT    VALUE                      DESCRIPTION
#---- -----   --------------------       ------------------------
CN   .        Bear Oil & Gas  Inc.       :Company Name
WN   .        Mattson 12-32              :Well Name
FN   .        Wildcat                    :Field Name
FL   .        SWNW  Sec. 32  T16N  R60W  :Field Location
FL1  .        SHL  2529' FNL X 605' FWL  :Field Location, Line 1
COUN .        Laramie                    :County or Parish
STAT .        Wyoming                    :State or Province
NATI .                                   :Nation
DATE .        05-Oct-2013                :Tools Above Rotary Table Date
APIN .        49-021-20933-0000          :API Well Number
SECT .        32                         :Section
TOWN .        16N                        :Township
RANG .        60W                        :Range
DMF  .        KB                         :Drilling Measured From (Name of Drilling Elevation Reference)
LMF  .        KB                         :Logging Measured From (Name of Logging Elevation Reference)
PDAT .        GL                         :Permanent Datum
ENGI .        Heather Hoffman            :Engineer s Name
WITN .        Terry Eitteim              :Witness s Name
LATI .        41.310000 degrees          :Latitude
LONG .        -104.15000 degrees         :Longitude
LUL  .        Ft. Morgan  CO             :Logging Unit Location
LUN  .        3022                       :Logging Unit Number
RUN  .        PEX AIT                    :Run Number
SON  .        CQQL-00002                 :Service Order Number
BHT  .DEGF     164.00000                 :Bottom Hole Temperature
BS   .IN         7.87500                 :Bit Size
MDEN .G/C3       2.65000                 :Matrix Density for Density Porosity
DFD  .LB/G       9.00000                 :Drilling Fluid Density
DFV  .S       -999.25000                 :Drilling Fluid Viscosity
DFL  .C3      -999.25000                 :Drilling Fluid Loss
RMFS .OHMM       0.94400                 :Resistivity of Mud Filtrate Sample
EKB  .F       5303.00000                 :Elevation of Kelly Bushing
EGL  .F       5291.00000                 :Elevation of Ground Level
BLI  .F       7708.00000                 :Bottom Log Interval
BSAL .PPM        0.00000                 :Borehole Salinity
FLEV .F          8.00000                 :Depth of Drilling Fluid Level to LMF (Log Measured From)
MCST .DEGF      68.00000                 :Mudcake Sample Temperature
MFST .DEGF      68.20000                 :Mud Filtrate Sample Temperature
MRT  .DEGF     164.00000                 :Maximum Recorded Temperature
MST  .DEGF      68.20000                 :Mud Sample Temperature
RMCS .OHMM       1.41600                 :Resistivity of Mud Cake Sample
RMS  .OHMM       1.18000                 :Resistivity of Mud Sample
RW   .OHMM       1.00000                 :Connate Water Resistivity
TDD  .F       7710.00000                 :Driller Total Depth
TDL  .F       7710.00000                 :Logger Total Depth
TLI  .F       1025.00000                 :Top Log Interval
HIDE .        Wildcat                    :Header Identifier
MATR .        SAND                       :Rock Matrix for Neutron Porosity Corrections
FNUM .           1.00000                 :F-Numerator for Formation Factor Formula
FEXP .           2.00000                 :Exponent "m" for Formation Factor Formula
DFT  .        WATER                      :Drilling Fluid Type
DFPH .        -999.25000                 :Drilling Fluid pH
MCSS .        Pressed                    :Mudcake Sample Source
MFSS .                                   :Mud Filtrate Sample Source
FD   .G/C3       1.00000                 :Fluid Density
MSS  .        Active Tank                :Mud Sample Source
OS1  .                                   :Other Services Line 1
OS2  .                                   :Other Services Line 2
OS3  .                                   :Other Services Line 3
OS4  .                                   :Other Services Line 4
OS5  .                                   :Other Services Line 5
R1   .                                   :Remarks Line 1
R2   .                                   :Remarks Line 2
R3   .                                   :Remarks Line 3
R4   .                                   :Remarks Line 4
R5   .                                   :Remarks Line 5
R6   .                                   :Remarks Line 6
R7   .                                   :Remarks Line 7
R8   .        This is the first run in hole. :Remarks Line 8
TCS  .        06 00 00                   :Time Circulation Stopped
TLAB .        15 16 28                   :Time Logger At Bottom
NMT  .        NOBARITE                   :HRDD Mud Type for Nuclear Devices
EPD  .C3         5291.000000             :Elevation of Permanent Datum above Mean Sea Level
APD  .F          12.000000               :Elevation of Depth Reference (LMF) above Permanent Datum
#-----------------------------------------------------------------------------
~CURVE INFORMATION
#MNEM.UNIT   API CODE                                  DESCRIPTION
#---- -----  --------                                  -----------------------
DEPT .F                                                :DEPTH (BOREHOLE) {F12.4}
AT10 .OHMM                                             :Array Induction Two Foot Resistivity A10 {F11.4}
AT30 .OHMM                                             :Array Induction Two Foot Resistivity A30 {F11.4}
AT90 .OHMM                                             :Array Induction Two Foot Resistivity A90 {F11.4}
GR   .GAPI                                             :Gamma Ray {F11.4}
HCAL .IN                                               :HRCC Caliper Calibrated {F11.4}
HDRA .G/C3                                             :Density Standoff Correction {F11.4}
NPHI .CFCF                                             :Thermal Neutron Porosity (original Ratio Method) in Selected Lithology {F11.4}
PEFZ .                                                 :Standard Resolution Formation Photoelectric Factor {F11.4}
RHOZ .G/C3                                             :Standard Resolution Formation Density {F11.4}
SP   .MV                                               :Spontaneous Potential {F11.4}
TNPH .CFCF                                             :Thermal Neutron Porosity (Ratio Method) in Selected Lithology {F11.4}
#-----------------------------------------------------------------------------
# 
#      DEPT        AF10       AF20       AF30       AF60       AF90       AO10       AO20       AO30       AO60       AO90       AT10       AT20       AT30       AT60       AT90     AHFCO60      AHMF      AHORT      AHORX      AHSCA     AHTCO10    AHTCO20    AHTCO30    AHTCO60    AHTCO90     AHTD1      AHTD2      AHTRT      AHTRX       CDF        CFTC       CNTC       CTEM       DCAL       DNPH       DPHZ       DSOZ       ECGR        ED        GDEV        GR      GR_EDTC      GTEM       HCAL       HDRA       HDRB       HGR        HMIN       HMNO       HNPO       HPRA       HTNP        ND        NPHI       NPOR       PEFZ    PXND_HILT     RHOZ       RSOZ     RWA_HILT     RXO8       RXOZ        SP        SPAR       STIT       TENS       TNPH     HTNP_SAN
#
~A  DEPT AT10 AT30 AT90 GR HCAL HDRA NPHI PEFZ RHOZ SP TNPH
# ...
7233.5000 5.1098 4.9447 4.3443 126.5330 7.8906 -0.0062 0.2328 3.5474 2.4792 70.6161 0.2315
7234.0000 4.1503 4.2311 3.8787 132.5313 7.8554 -0.0071 0.2521 3.6479 2.4769 70.7578 0.2367
7234.5000 3.9294 3.7683 3.4690 139.0926 7.8671 -0.0078 0.2828 3.5822 2.4634 70.6964 0.2620
7235.0000 4.0466 3.7652 3.4931 140.4989 7.8671 -0.0065 0.2935 3.4995 2.4610 71.0469 0.2811
7235.5000 4.3770 4.0995 3.8170 135.7500 7.8671 -0.0067 0.2996 3.5213 2.4610 71.0357 0.2850
7236.0000 4.7165 4.4219 4.1013 128.8766 7.8437 -0.0058 0.2795 3.6069 2.4559 70.9286 0.2798
7236.5000 4.7777 4.5470 4.2338 128.8761 7.8437 -0.0061 0.2639 3.6394 2.4536 70.9375 0.2596
7237.0000 4.5659 4.3879 4.1301 132.8746 7.8437 -0.0039 0.2477 3.5578 2.4624 71.1429 0.2510
7237.5000 4.4113 4.1675 3.9313 145.8711 7.8437 -0.0047 0.2663 3.4590 2.4705 71.3036 0.2474
7238.0000 4.4159 4.1514 3.9145 146.9646 7.8319 -0.0050 0.2885 3.4096 2.4756 71.1797 0.2579
7238.5000 4.6595 4.3769 4.1137 151.2143 7.8437 -0.0079 0.3009 3.4429 2.4707 70.9464 0.2780
7239.0000 4.8434 4.5663 4.2793 138.3112 7.8437 -0.0096 0.2899 3.4880 2.4661 70.8750 0.2851
7239.5000 5.0320 4.7096 4.4023 133.0622 7.8437 -0.0116 0.2648 3.5249 2.4578 70.9643 0.2675
7240.0000 5.2050 4.8678 4.5276 123.5643 7.8202 -0.0115 0.2743 3.5486 2.4556 70.7857 0.2382
7240.5000 5.3659 4.9456 4.6086 124.8765 7.8319 -0.0085 0.2671 3.5687 2.4645 70.5781 0.2511
7241.0000 5.2588 4.9345 4.5876 119.8778 7.8671 -0.0059 0.2741 3.6334 2.4659 70.5446 0.2556
7241.5000 5.0771 4.7842 4.4721 121.1272 7.8671 -0.0034 0.2719 3.6565 2.4647 70.7232 0.2689
7242.0000 4.8697 4.5921 4.3131 123.5328 7.8671 -0.0035 0.2756 3.6742 2.4510 70.5078 0.2706
7242.5000 4.9963 4.6788 4.3702 130.7812 7.8671 -0.0051 0.2949 3.6962 2.4354 70.4018 0.2735
7243.0000 5.1041 4.8088 4.4966 136.3115 7.8671 -0.0049 0.2990 3.6710 2.4394 70.2656 0.2815
7243.5000 5.2284 4.9325 4.5742 138.4985 7.8671 -0.0063 0.3104 3.6868 2.4464 70.4018 0.2794
7244.0000 5.3228 5.0485 4.6599 141.9977 7.8671 -0.0050 0.3066 3.6685 2.4659 70.2500 0.2826
7244.5000 5.1393 4.9331 4.5958 139.8105 7.8671 -0.0046 0.2810 3.6724 2.4734 70.0536 0.2887
7245.0000 4.8937 4.6403 4.3647 143.5600 7.8671 -0.0027 0.2847 3.6250 2.4820 70.0893 0.2766
7245.5000 4.5545 4.3156 4.0736 142.4042 7.8788 -0.0019 0.2810 3.5459 2.4926 70.1797 0.2786
7246.0000 4.6764 4.3581 4.1286 142.3107 7.8906 -0.0051 0.2923 3.5784 2.4870 70.1429 0.2709
7246.5000 4.9154 4.6028 4.3522 141.3106 7.8906 -0.0068 0.2742 3.6286 2.4876 69.8594 0.2790
7247.0000 5.0862 4.7700 4.4898 145.9030 7.8906 -0.0072 0.2502 3.7064 2.4865 69.9732 0.2615
7247.5000 5.1487 4.8552 4.5648 148.4022 7.8906 -0.0048 0.2621 3.7218 2.4944 70.2500 0.2334
7248.0000 5.1398 4.8410 4.5787 138.4048 7.8906 -0.0042 0.2537 3.7312 2.4932 70.1875 0.2450
7248.5000 5.1736 4.8326 4.5850 130.7503 7.8906 -0.0035 0.2774 3.7066 2.4937 70.1518 0.2326
7249.0000 5.2775 4.9185 4.6587 120.5032 7.8906 -0.0041 0.2578 3.6949 2.4900 69.8281 0.2642
7249.5000 5.0794 4.8771 4.6456 126.2207 7.9023 -0.0051 0.2771 3.6880 2.4805 70.0714 0.2574
7250.0000 4.7118 4.5208 4.3257 131.6880 7.8906 -0.0080 0.2724 3.7095 2.4576 69.9554 0.2782
7250.5000 4.5976 4.3430 4.1820 138.2177 7.8906 -0.0080 0.2882 3.6694 2.4501 70.1016 0.2645
7251.0000 4.9132 4.6021 4.4088 140.4981 7.8906 -0.0050 0.2830 3.6186 2.4651 70.3571 0.2663
7251.5000 5.3238 4.9630 4.7248 132.8442 7.8906 -0.0022 0.2740 3.5962 2.4892 70.5703 0.2546
7252.0000 5.1903 4.9015 4.7124 129.0633 7.8906 -0.0019 0.2513 3.6014 2.5011 70.7946 0.2455
7252.5000 4.7269 4.4476 4.2803 124.8147 7.8906 -0.0061 0.2469 3.6466 2.4845 71.0357 0.2364
7253.0000 4.3945 4.1135 3.9517 126.7825 7.8906 -0.0086 0.2435 3.6368 2.4686 71.2344 0.2446
7253.5000 4.1429 3.9218 3.7757 132.5305 7.9140 -0.0084 0.2667 3.6003 2.4596 71.3482 0.2416
7254.0000 3.9193 3.7380 3.5884 132.3118 7.9140 -0.0053 0.2791 3.5073 2.4642 71.0938 0.2594
7254.5000 3.7814 3.6071 3.4830 129.7502 7.9375 -0.0051 0.2793 3.4869 2.4571 70.7857 0.2737
7255.0000 3.7986 3.6247 3.4771 124.0024 7.9609 -0.0052 0.2624 3.4691 2.4567 70.9297 0.2686
7255.5000 3.8039 3.6092 3.4671 128.5947 7.9140 -0.0047 0.2700 3.4890 2.4642 71.2411 0.2467
7256.0000 3.8539 3.6472 3.4916 129.5945 7.9140 -0.0039 0.2813 3.5287 2.4755 71.0714 0.2527
7256.5000 4.0566 3.8532 3.6913 124.5956 7.9140 -0.0030 0.2765 3.5807 2.4842 70.9141 0.2617
7257.0000 4.2673 4.0403 3.8739 115.8477 7.9140 -0.0026 0.2490 3.6326 2.4887 71.1429 0.2478
7257.5000 4.5342 4.2814 4.0859 116.0972 7.8906 -0.0004 0.2317 3.6478 2.5014 71.3125 0.2275
7258.0000 4.8309 4.5525 4.3132 113.5041 7.9375 0.0001 0.2319 3.7077 2.5028 71.3672 0.2120
7258.5000 4.7729 4.6566 4.3882 117.6285 7.9140 -0.0008 0.2341 3.7270 2.4955 71.1339 0.2195
7259.0000 4.5119 4.3840 4.1297 117.1288 7.8906 -0.0023 0.2335 3.6723 2.4817 71.2266 0.2263
7259.5000 4.4469 4.1933 3.9630 128.7198 7.8906 -0.0030 0.2409 3.5386 2.4762 71.2946 0.2251
7260.0000 4.4967 4.2432 4.0320 128.2195 7.8671 -0.0024 0.2341 3.4045 2.4829 70.9766 0.2206
7260.5000 4.4424 4.1759 3.8067 134.4057 7.8671 -0.0026 0.2296 3.3837 2.4877 70.6161 0.2084
7261.0000 4.4687 3.8593 3.6628 129.6567 7.8437 0.0037 0.1964 3.4209 2.4822 70.6339 0.2062
7261.5000 3.8102 3.1264 2.9561 146.1523 7.8437 0.0352 0.1844 3.4728 2.4715 70.1172 0.1959
7262.0000 1.9648 2.1238 2.0441 179.8323 7.8437 0.0808 0.2513 3.3766 2.4643 69.2768 0.2125
7262.5000 1.3435 1.3029 1.2715 215.0734 7.9140 0.0977 0.3421 3.2031 2.4408 68.9531 0.2685
7263.0000 1.4565 1.4138 1.3906 209.8252 8.4299 0.0666 0.3450 3.0277 2.4189 69.3839 0.3208
7263.5000 2.5328 2.4350 2.2966 171.9592 7.8906 0.0194 0.2917 3.0899 2.4162 70.2188 0.2713
7264.0000 4.2486 3.5347 3.2244 144.4662 7.8437 -0.0062 0.2409 3.2828 2.4349 70.5536 0.2412
7264.5000 3.5696 3.2711 3.0927 146.4344 7.8437 -0.0078 0.2616 3.5158 2.4425 70.5179 0.2445
7265.0000 3.4831 3.1879 3.0733 152.9323 7.8671 -0.0063 0.2619 3.6113 2.4299 70.3672 0.2693
7265.5000 3.6782 3.3294 3.1703 150.1518 7.8437 -0.0057 0.2737 3.6356 2.4229 70.3661 0.2571
7266.0000 3.7666 3.4691 3.2814 140.4352 7.8671 -0.0051 0.2786 3.5905 2.4385 70.3203 0.2622
7266.5000 3.6717 3.4273 3.2746 132.9376 7.8671 -0.0029 0.2863 3.5300 2.4631 70.3036 0.2699
7267.0000 3.6378 3.3959 3.2567 135.5620 7.8906 0.0004 0.2867 3.4561 2.4771 70.3571 0.2793
7267.5000 3.5167 3.3628 3.1962 140.0609 7.8671 0.0013 0.3157 3.4025 2.4702 70.3281 0.2840
7268.0000 3.3616 3.2523 3.1421 141.7479 7.8202 -0.0027 0.3325 3.3915 2.4421 70.2143 0.3115
7268.5000 3.5158 3.3502 3.2288 136.1551 7.8671 -0.0057 0.3250 3.3995 2.4309 70.0781 0.3150
7269.0000 3.8104 3.6244 3.4847 130.6567 7.8906 -0.0064 0.2932 3.4087 2.4414 70.0625 0.2888
7269.5000 4.0987 3.9459 3.8041 133.0621 7.8906 -0.0053 0.2920 3.4308 2.4584 70.0179 0.2686
7270.0000 4.2153 4.1446 3.9076 138.8119 7.8906 -0.0050 0.3364 3.5008 2.4531 69.9141 0.3285
7270.5000 4.0579 4.0392 3.7689 138.8116 7.8906 -0.0059 0.3469 3.6155 2.4303 69.8571 0.3361
7271.0000 4.1722 4.0368 3.6583 136.4054 7.9375 -0.0047 0.3389 3.7048 2.4189 69.8203 0.3401
7271.5000 4.1676 3.9414 3.5221 125.6576 7.9609 -0.0027 0.3404 3.7703 2.4253 70.0446 0.3265
7272.0000 4.0511 3.9181 3.4118 115.6595 7.9609 -0.0017 0.3185 3.7730 2.4534 70.1429 0.3223
7272.5000 3.9193 3.8502 3.3452 104.5064 7.9844 -0.0011 0.3068 3.7310 2.4823 69.7500 0.3066
7273.0000 3.7496 3.9390 3.3714 100.7569 8.0078 -0.0006 0.3017 3.6318 2.5026 69.5714 0.3075
7273.5000 3.5730 3.8238 3.2898 116.8785 8.0078 -0.0002 0.3172 3.5473 2.4973 69.8047 0.3164
7274.0000 3.4011 3.7728 3.3072 123.5956 8.0313 -0.0008 0.3145 3.4845 2.4826 69.8214 0.3223
7274.5000 3.4893 3.9058 3.4773 124.8453 8.0547 -0.0023 0.3072 3.4647 2.4722 69.6719 0.3060
7275.0000 3.4991 4.1202 3.7201 115.0045 8.0547 -0.0052 0.2909 3.4954 2.4648 69.5089 0.3000
7275.5000 3.6879 4.2805 3.8922 114.0045 8.0782 -0.0074 0.3043 3.5285 2.4618 69.5714 0.2919
7276.0000 3.6827 4.2966 3.8768 120.7534 8.1016 -0.0089 0.3147 3.5635 2.4506 69.8125 0.3056
7276.5000 3.3726 3.3664 3.1356 128.4694 8.1251 -0.0063 0.3191 3.5037 2.4434 69.5446 0.3170
7277.0000 2.7145 2.7164 2.4570 141.7168 8.1251 0.0014 0.3044 3.3987 2.4305 69.7969 0.3273
7277.5000 2.2760 2.1378 2.0565 160.0871 8.1954 0.0280 0.3022 3.2480 2.4370 70.0536 0.3146
