~VERSION INFORMATION
VERS.           1.2   :CWLS Log ASCII Standard - VERSION 1.2
WRAP.           NO    :One Line per depth step
PROD.  Schlumberger   :LAS Producer
PROG.  DLIS to ASCII 17C0-152                          :LAS Program name and version
CREA.        2013/10/06 02:44                          :LAS Creation date {YYYY/MM/DD hh:mm}
DLIS_CREA.  2013-Oct-05 16:22                          :DLIS Creation date and time {YYYY-MMM-DD hh:mm}
SOURCE.     563481d1-2dcb-47d9-a1d9-48f1ce5abb79       :DLIS File Name
#--------------------------------------------------
~WELL INFORMATION
#MNEM.UNIT      DATA             DESCRIPTION
#---- ------ --------------   -----------------------------
STRT .F      1000.5000       :START DEPTH        # original; data subset to 5500-8000
STOP .F      7736.0000       :STOP DEPTH        # original; data subset to 5500-8000
STEP .F       0.5000         :STEP       
NULL .          -999.25      :NULL VALUE
COMP .                 COMPANY:  Bear Oil & Gas, Inc.               
WELL .                    WELL:  Mattson 12-32                      
FLD  .                   FIELD:  Wildcat                            
LOC  .                LOCATION:  SWNW, Sec. 32, T16N, R60W          
CNTY .                  COUNTY:  Laramie                            
STAT .                   STATE:  Wyoming                            
CTRY .                 COUNTRY:                                     
SRVC .         SERVICE COMPANY:  Schlumberger                       
LATI .DEG             LATITUDE:  41.310000 degrees                  
LONG .DEG            LONGITUDE:  -104.15000 degrees                 
API  .              API NUMBER:  49-021-20933-0000                  
DATE .                LOG DATE:  05-Oct-2013
UWI  .          UNIQUE WELL ID:                                     
#-----------------------------------------------------------------------------
~PARAMETER INFORMATION
#MNEM.UNIT    VALUE                      DESCRIPTION
#---- -----   --------------------       ------------------------
CN   .        Bear Oil & Gas  Inc.       :Company Name
WN   .        Mattson 12-32              :Well Name
FN   .        Wildcat                    :Field Name
FL   .        SWNW  Sec. 32  T16N  R60W  :Field Location
FL1  .        SHL  2529' FNL X 605' FWL  :Field Location, Line 1
COUN .        Laramie                    :County or Parish
STAT .        Wyoming                    :State or Province
NATI .                                   :Nation
DATE .        05-Oct-2013                :Tools Above Rotary Table Date
APIN .        49-021-20933-0000          :API Well Number
SECT .        32                         :Section
TOWN .        16N                        :Township
RANG .        60W                        :Range
DMF  .        KB                         :Drilling Measured From (Name of Drilling Elevation Reference)
LMF  .        KB                         :Logging Measured From (Name of Logging Elevation Reference)
PDAT .        GL                         :Permanent Datum
ENGI .        Heather Hoffman            :Engineer s Name
WITN .        Terry Eitteim              :Witness s Name
LATI .        41.310000 degrees          :Latitude
LONG .        -104.15000 degrees         :Longitude
LUL  .        Ft. Morgan  CO             :Logging Unit Location
LUN  .        3022                       :Logging Unit Number
RUN  .        PEX AIT                    :Run Number
SON  .        CQQL-00002                 :Service Order Number
BHT  .DEGF     164.00000                 :Bottom Hole Temperature
BS   .IN         7.87500                 :Bit Size
MDEN .G/C3       2.65000                 :Matrix Density for Density Porosity
DFD  .LB/G       9.00000                 :Drilling Fluid Density
DFV  .S       -999.25000                 :Drilling Fluid Viscosity
DFL  .C3      -999.25000                 :Drilling Fluid Loss
RMFS .OHMM       0.94400                 :Resistivity of Mud Filtrate Sample
EKB  .F       5303.00000                 :Elevation of Kelly Bushing
EGL  .F       5291.00000                 :Elevation of Ground Level
BLI  .F       7708.00000                 :Bottom Log Interval
BSAL .PPM        0.00000                 :Borehole Salinity
FLEV .F          8.00000                 :Depth of Drilling Fluid Level to LMF (Log Measured From)
MCST .DEGF      68.00000                 :Mudcake Sample Temperature
MFST .DEGF      68.20000                 :Mud Filtrate Sample Temperature
MRT  .DEGF     164.00000                 :Maximum Recorded Temperature
MST  .DEGF      68.20000                 :Mud Sample Temperature
RMCS .OHMM       1.41600                 :Resistivity of Mud Cake Sample
RMS  .OHMM       1.18000                 :Resistivity of Mud Sample
RW   .OHMM       1.00000                 :Connate Water Resistivity
TDD  .F       7710.00000                 :Driller Total Depth
TDL  .F       7710.00000                 :Logger Total Depth
TLI  .F       1025.00000                 :Top Log Interval
HIDE .        Wildcat                    :Header Identifier
MATR .        SAND                       :Rock Matrix for Neutron Porosity Corrections
FNUM .           1.00000                 :F-Numerator for Formation Factor Formula
FEXP .           2.00000                 :Exponent "m" for Formation Factor Formula
DFT  .        WATER                      :Drilling Fluid Type
DFPH .        -999.25000                 :Drilling Fluid pH
MCSS .        Pressed                    :Mudcake Sample Source
MFSS .                                   :Mud Filtrate Sample Source
FD   .G/C3       1.00000                 :Fluid Density
MSS  .        Active Tank                :Mud Sample Source
OS1  .                                   :Other Services Line 1
OS2  .                                   :Other Services Line 2
OS3  .                                   :Other Services Line 3
OS4  .                                   :Other Services Line 4
OS5  .                                   :Other Services Line 5
R1   .                                   :Remarks Line 1
R2   .                                   :Remarks Line 2
R3   .                                   :Remarks Line 3
R4   .                                   :Remarks Line 4
R5   .                                   :Remarks Line 5
R6   .                                   :Remarks Line 6
R7   .                                   :Remarks Line 7
R8   .        This is the first run in hole. :Remarks Line 8
TCS  .        06 00 00                   :Time Circulation Stopped
TLAB .        15 16 28                   :Time Logger At Bottom
NMT  .        NOBARITE                   :HRDD Mud Type for Nuclear Devices
EPD  .C3         5291.000000             :Elevation of Permanent Datum above Mean Sea Level
APD  .F          12.000000               :Elevation of Depth Reference (LMF) above Permanent Datum
#-----------------------------------------------------------------------------
~CURVE INFORMATION
#MNEM.UNIT   API CODE                                  DESCRIPTION
#---- -----  --------                                  -----------------------
DEPT .F                                                :DEPTH (BOREHOLE) {F12.4}
AT10 .OHMM                                             :Array Induction Two Foot Resistivity A10 {F11.4}
AT30 .OHMM                                             :Array Induction Two Foot Resistivity A30 {F11.4}
AT90 .OHMM                                             :Array Induction Two Foot Resistivity A90 {F11.4}
GR   .GAPI                                             :Gamma Ray {F11.4}
HCAL .IN                                               :HRCC Caliper Calibrated {F11.4}
HDRA .G/C3                                             :Density Standoff Correction {F11.4}
NPHI .CFCF                                             :Thermal Neutron Porosity (original Ratio Method) in Selected Lithology {F11.4}
PEFZ .                                                 :Standard Resolution Formation Photoelectric Factor {F11.4}
RHOZ .G/C3                                             :Standard Resolution Formation Density {F11.4}
SP   .MV                                               :Spontaneous Potential {F11.4}
TNPH .CFCF                                             :Thermal Neutron Porosity (Ratio Method) in Selected Lithology {F11.4}
#-----------------------------------------------------------------------------
# 
#      DEPT        AF10       AF20       AF30       AF60       AF90       AO10       AO20       AO30       AO60       AO90       AT10       AT20       AT30       AT60       AT90     AHFCO60      AHMF      AHORT      AHORX      AHSCA     AHTCO10    AHTCO20    AHTCO30    AHTCO60    AHTCO90     AHTD1      AHTD2      AHTRT      AHTRX       CDF        CFTC       CNTC       CTEM       DCAL       DNPH       DPHZ       DSOZ       ECGR        ED        GDEV        GR      GR_EDTC      GTEM       HCAL       HDRA       HDRB       HGR        HMIN       HMNO       HNPO       HPRA       HTNP        ND        NPHI       NPOR       PEFZ    PXND_HILT     RHOZ       RSOZ     RWA_HILT     RXO8       RXOZ        SP        SPAR       STIT       TENS       TNPH     HTNP_SAN
#
~A  DEPT AT10 AT30 AT90 GR HCAL HDRA NPHI PEFZ RHOZ SP TNPH
# ...
7367.0000 3.3417 3.1804 3.0048 203.7968 7.9609 0.1590 0.4035 2.7226 2.4665 75.8203 0.4112
7367.5000 3.1846 3.0374 2.8637 201.4532 7.9375 0.1751 0.3911 2.7336 2.4638 75.5357 0.3913
7368.0000 3.0608 2.8586 2.6930 201.6083 8.0782 0.1961 0.3656 2.7299 2.4580 75.5781 0.3698
7368.5000 3.0102 2.7809 2.6226 191.3600 8.2892 0.2188 0.3742 2.7191 2.4571 75.5893 0.3491
7369.0000 2.9369 2.7428 2.5713 196.3905 8.3127 0.2325 0.4004 2.7245 2.4755 75.4821 0.3632
7369.5000 2.8459 2.6541 2.4862 197.6405 8.1016 0.2289 0.3997 2.7904 2.4882 75.2891 0.3749
7370.0000 2.5807 2.4330 2.2833 192.3298 8.3127 0.2201 0.3796 2.8950 2.5098 75.4643 0.3638
7370.5000 2.4049 2.2438 2.1208 187.1436 8.6879 0.2208 0.3471 2.9843 2.5269 75.5078 0.3579
7371.0000 2.2882 2.1459 2.0125 184.1440 8.2892 0.2498 0.3545 3.0326 2.5509 75.4464 0.3464
7371.5000 2.2115 2.0946 1.9733 182.3943 8.3830 0.2823 0.3560 3.0282 2.5564 75.3672 0.3544
7372.0000 2.1973 2.1051 1.9751 178.3958 8.0547 0.2977 0.3505 2.9900 2.5452 75.5179 0.3512
7372.5000 2.3830 2.1811 2.0462 181.5190 8.4416 0.2892 0.3432 2.9571 2.5300 75.5313 0.3259
7373.0000 2.5772 2.3981 2.2226 177.5830 8.0078 0.2841 0.3314 2.9507 2.5430 75.4018 0.3297
7373.5000 2.7689 2.4859 2.3208 179.1131 8.2189 0.2914 0.3383 2.9917 2.5715 75.3516 0.3208
7374.0000 2.6996 2.4828 2.3309 165.4924 8.3127 0.2903 0.3378 3.0202 2.5899 75.2946 0.3344
7374.5000 2.6171 2.4345 2.3011 161.5549 8.3127 0.2757 0.3662 3.0226 2.5910 75.1641 0.3386
7375.0000 2.5754 2.4135 2.3018 164.2741 8.2658 0.2476 0.3531 3.0006 2.5652 75.0000 0.3591
7375.5000 2.6113 2.4495 2.3403 170.0226 8.1251 0.2261 0.3254 2.9627 2.5382 74.7734 0.3414
7376.0000 2.6667 2.5023 2.3715 173.3031 8.2658 0.2049 0.2990 2.9103 2.5097 74.9375 0.3150
7376.5000 2.6759 2.5155 2.3751 173.5524 8.3361 0.1950 0.3043 2.8397 2.5042 75.0703 0.3092
7377.0000 2.6600 2.4963 2.3629 171.8035 8.3361 0.1980 0.3151 2.7829 2.5101 74.8036 0.3130
7377.5000 2.6480 2.4967 2.3586 177.4896 8.5003 0.2189 0.3295 2.7647 2.5202 74.8214 0.3072
7378.0000 2.6797 2.5016 2.3638 167.7420 8.4534 0.2480 0.3321 2.7791 2.5347 75.0234 0.3192
7378.5000 2.6966 2.5268 2.3870 173.2088 8.4065 0.2711 0.3398 2.7967 2.5366 74.9643 0.3317
7379.0000 2.6958 2.5499 2.4115 168.1791 8.3361 0.2836 0.3271 2.8014 2.5347 74.9922 0.3424
7379.5000 2.6964 2.5245 2.3986 175.3959 8.6410 0.2855 0.3188 2.7741 2.5458 74.9375 0.3211
7380.0000 2.7086 2.5375 2.4079 173.1774 8.6175 0.2772 0.3446 2.7501 2.5560 74.9063 0.3199
7380.5000 2.7234 2.5683 2.4362 173.4278 8.3830 0.2646 0.3553 2.7375 2.5567 74.8661 0.3396
7381.0000 2.7153 2.5566 2.4333 162.2741 8.5237 0.2502 0.3613 2.7451 2.5392 74.8594 0.3451
7381.5000 2.7032 2.5441 2.4258 165.2737 8.3830 0.2437 0.3406 2.7608 2.5325 74.8750 0.3508
7382.0000 2.6841 2.5392 2.4239 165.8986 8.4651 0.2374 0.3395 2.7688 2.5269 74.8906 0.3428
7382.5000 2.6520 2.5170 2.4042 178.3330 8.5003 0.2340 0.3348 2.7753 2.5044 74.8929 0.3411
7383.0000 2.6358 2.4859 2.3806 182.3321 8.4299 0.2388 0.3305 2.7651 2.4865 74.7266 0.3277
7383.5000 2.6080 2.4563 2.3539 189.1117 8.5472 0.2513 0.3096 2.8023 2.4945 74.6964 0.3238
7384.0000 2.5789 2.4238 2.3232 189.6116 8.4768 0.2618 0.3486 2.9310 2.5145 74.8393 0.3186
7384.5000 2.5746 2.4137 2.3345 179.3642 8.3244 0.2854 0.3589 3.0751 2.5456 75.0547 0.3524
7385.0000 2.6070 2.4350 2.3568 176.9579 8.1485 0.3186 0.4017 3.1006 2.5683 74.8672 0.3529
7385.5000 2.6185 2.4516 2.3719 181.4568 8.7817 0.3369 0.3574 2.9732 2.5771 74.6964 0.3632
7386.0000 2.6361 2.4626 2.3759 184.7377 8.4534 0.3244 0.3624 2.8448 2.5585 74.8661 0.3463
7386.5000 2.6516 2.4844 2.3747 184.7377 8.6175 0.2839 0.3419 2.7819 2.5176 74.9063 0.3473
7387.0000 2.6394 2.4811 2.3816 179.3333 8.4065 0.2460 0.3567 2.7693 2.4818 74.8929 0.3334
7387.5000 2.5945 2.4206 2.3282 180.3021 8.3361 0.2141 0.3592 2.7470 2.4653 74.6641 0.3561
7388.0000 2.5659 2.4024 2.2997 177.0207 8.3830 0.1976 0.3662 2.7521 2.4727 74.7768 0.3561
7388.5000 2.6187 2.4377 2.3295 175.9272 8.5706 0.1900 0.3494 2.7877 2.4853 74.7891 0.3582
7389.0000 2.6344 2.4658 2.3456 172.4272 8.2423 0.1982 0.3281 2.8269 2.4982 74.8393 0.3405
7389.5000 2.6611 2.4889 2.3734 171.9914 8.5003 0.2090 0.3099 2.8375 2.5004 74.7578 0.3220
7390.0000 2.6610 2.4848 2.3701 169.4911 8.4768 0.2313 0.2917 2.8205 2.5165 74.7143 0.3151
7390.5000 2.6343 2.4658 2.3552 168.0852 8.4534 0.2336 0.3098 2.7937 2.5081 74.7813 0.2996
7391.0000 2.6044 2.4428 2.3366 172.8016 8.2189 0.2260 0.3163 2.7592 2.4897 74.7143 0.3108
7391.5000 2.6004 2.4464 2.3437 173.3022 8.5237 0.2167 0.3441 2.7416 2.4654 74.4911 0.3044
7392.0000 2.5964 2.4459 2.3464 181.6133 8.6175 0.2191 0.3274 2.7319 2.4694 74.4375 0.3322
7392.5000 2.5960 2.4589 2.3676 181.1144 8.7817 0.2291 0.3303 2.7437 2.4862 74.7411 0.3317
7393.0000 2.5787 2.4482 2.3561 178.5210 8.4065 0.2318 0.3202 2.7649 2.4937 74.9375 0.3399
7393.5000 2.5395 2.3926 2.3112 176.8645 8.4534 0.2304 0.3210 2.7890 2.4909 74.9821 0.3293
7394.0000 2.5095 2.3487 2.2814 178.9885 8.2423 0.2341 0.3337 2.8184 2.4939 74.9688 0.3200
7394.5000 2.4828 2.3106 2.2385 184.3318 8.5941 0.2291 0.3299 2.8367 2.5004 75.0089 0.3181
7395.0000 2.4529 2.3078 2.2326 178.0831 8.5941 0.2194 0.3411 2.8524 2.5087 75.1339 0.3215
7395.5000 2.4322 2.2924 2.2184 176.3334 8.5472 0.2110 0.3330 2.8688 2.5130 75.1250 0.3391
7396.0000 2.4204 2.2944 2.2172 168.8351 8.7348 0.2161 0.3333 2.8862 2.5166 75.2321 0.3336
7396.5000 2.4100 2.2703 2.1861 168.0851 8.4768 0.2300 0.3417 2.9044 2.5203 75.2031 0.3379
7397.0000 2.3687 2.2161 2.1293 166.7732 8.6879 0.2365 0.3364 2.9005 2.5278 75.1607 0.3393
7397.5000 2.3339 2.1837 2.0819 169.2721 8.5706 0.2364 0.3482 2.8916 2.5260 75.1719 0.3381
7398.0000 2.2988 2.1456 2.0503 174.4275 8.6879 0.2272 0.3692 2.8784 2.4953 75.3214 0.3392
7398.5000 2.2722 2.1177 2.0192 170.8652 8.8520 0.2180 0.3685 2.8469 2.4604 75.3516 0.3491
7399.0000 2.2952 2.1276 2.0226 172.9279 8.3830 0.2076 0.3726 2.8451 2.4558 75.2321 0.3562
7399.5000 2.3436 2.1715 2.0636 170.7724 8.4299 0.2164 0.3248 2.8964 2.5078 75.0938 0.3547
7400.0000 2.4089 2.2503 2.1173 171.2724 8.3127 0.2371 0.3087 2.9777 2.5448 74.7946 0.3217
7400.5000 2.4205 2.2995 2.1705 174.9902 8.0078 0.2506 0.3142 2.9413 2.5338 74.8393 0.3136
7401.0000 2.3944 2.2677 2.1598 171.2410 8.4768 0.2612 0.3269 2.8102 2.5116 74.9219 0.3105
7401.5000 2.3591 2.2165 2.1195 172.2405 8.2189 0.2534 0.3614 2.7132 2.4841 74.8661 0.3315
7402.0000 2.2659 2.1395 2.0513 170.4902 8.5237 0.2613 0.3632 2.7327 2.4847 74.7813 0.3513
7402.5000 2.1590 2.0414 1.9820 175.2392 8.4768 0.2565 0.3650 2.8035 2.4601 74.8393 0.3604
7403.0000 2.1700 2.0220 1.9868 174.0211 8.6644 0.2612 0.3451 2.8428 2.4619 75.1172 0.3578
7403.5000 2.2361 2.0945 2.0521 180.2385 8.7113 0.2534 0.3246 2.8351 2.4748 75.1518 0.3392
7404.0000 2.2845 2.1440 2.0922 178.5513 8.7817 0.2419 0.3208 2.8211 2.4969 75.1875 0.3228
7404.5000 2.2583 2.1339 2.0787 185.5190 8.7582 0.2194 0.3390 2.7999 2.5047 75.1484 0.3124
7405.0000 2.2892 2.1361 2.0751 178.5203 8.5824 0.2086 0.3639 2.8000 2.4914 75.0446 0.3248
7405.5000 2.2977 2.1480 2.0817 177.6455 8.7582 0.2045 0.3727 2.7980 2.4678 75.0078 0.3496
7406.0000 2.3063 2.1596 2.0821 165.6472 8.7113 0.2068 0.3457 2.7838 2.4588 75.1250 0.3571
7406.5000 2.3221 2.1754 2.0859 160.0870 8.6175 0.2133 0.3340 2.7770 2.4759 74.9107 0.3399
7407.0000 2.3405 2.1724 2.0851 160.1495 8.6879 0.2230 0.3257 2.7749 2.5036 75.0000 0.3461
7407.5000 2.3500 2.2067 2.0880 164.0871 8.8051 0.2285 0.3251 2.7939 2.5096 74.8984 0.3385
7408.0000 2.3362 2.2227 2.1075 164.6490 8.7348 0.2238 0.3177 2.8049 2.4990 75.1071 0.3245
7408.5000 2.3292 2.2049 2.0877 159.4001 8.8755 0.2164 0.3055 2.8262 2.4811 75.2321 0.3106
7409.0000 2.2919 2.1502 2.0427 164.4299 8.5472 0.2150 0.3151 2.8502 2.4711 75.3125 0.3117
7409.5000 2.2354 2.0894 1.9877 170.9285 8.9458 0.2152 0.3258 2.8683 2.4660 75.1161 0.3116
7410.0000 2.1846 2.0509 1.9518 181.1756 8.6527 0.2276 0.3588 2.8855 2.4892 75.2500 0.3245
7410.5000 2.1359 1.9865 1.9183 170.4596 8.8989 0.2264 0.3565 2.8973 2.5026 75.3036 0.3421
7411.0000 2.1295 1.9819 1.8784 163.9605 8.9458 0.2257 0.3391 2.9002 2.5099 75.3750 0.3493
