~VERSION INFORMATION
VERS.           1.2   :CWLS Log ASCII Standard - VERSION 1.2
WRAP.           NO    :One Line per depth step
PROD.  Schlumberger   :LAS Producer
PROG.  DLIS to ASCII 17C0-152                          :LAS Program name and version
CREA.        2013/10/06 02:44                          :LAS Creation date {YYYY/MM/DD hh:mm}
DLIS_CREA.  2013-Oct-05 16:22                          :DLIS Creation date and time {YYYY-MMM-DD hh:mm}
SOURCE.     563481d1-2dcb-47d9-a1d9-48f1ce5abb79       :DLIS File Name
#--------------------------------------------------
~WELL INFORMATION
#MNEM.UNIT      DATA             DESCRIPTION
#---- ------ --------------   -----------------------------
STRT .F      1000.5000       :START DEPTH        # original; data subset to 5500-8000
STOP .F      7736.0000       :STOP DEPTH        # original; data subset to 5500-8000
STEP .F       0.5000         :STEP       
NULL .          -999.25      :NULL VALUE
COMP .                 COMPANY:  Bear Oil & Gas, Inc.               
WELL .                    WELL:  Mattson 12-32                      
FLD  .                   FIELD:  Wildcat                            
LOC  .                LOCATION:  SWNW, Sec. 32, T16N, R60W          
CNTY .                  COUNTY:  Laramie                            
STAT .                   STATE:  Wyoming                            
CTRY .                 COUNTRY:                                     
SRVC .         SERVICE COMPANY:  Schlumberger                       
LATI .DEG             LATITUDE:  41.310000 degrees                  
LONG .DEG            LONGITUDE:  -104.15000 degrees                 
API  .              API NUMBER:  49-021-20933-0000                  
DATE .                LOG DATE:  05-Oct-2013
UWI  .          UNIQUE WELL ID:                                     
#-----------------------------------------------------------------------------
~PARAMETER INFORMATION
#MNEM.UNIT    VALUE                      DESCRIPTION
#---- -----   --------------------       ------------------------
CN   .        Bear Oil & Gas  Inc.       :Company Name
WN   .        Mattson 12-32              :Well Name
FN   .        Wildcat                    :Field Name
FL   .        SWNW  Sec. 32  T16N  R60W  :Field Location
FL1  .        SHL  2529' FNL X 605' FWL  :Field Location, Line 1
COUN .        Laramie                    :County or Parish
STAT .        Wyoming                    :State or Province
NATI .                                   :Nation
DATE .        05-Oct-2013                :Tools Above Rotary Table Date
APIN .        49-021-20933-0000          :API Well Number
SECT .        32                         :Section
TOWN .        16N                        :Township
RANG .        60W                        :Range
DMF  .        KB                         :Drilling Measured From (Name of Drilling Elevation Reference)
LMF  .        KB                         :Logging Measured From (Name of Logging Elevation Reference)
PDAT .        GL                         :Permanent Datum
ENGI .        Heather Hoffman            :Engineer s Name
WITN .        Terry Eitteim              :Witness s Name
LATI .        41.310000 degrees          :Latitude
LONG .        -104.15000 degrees         :Longitude
LUL  .        Ft. Morgan  CO             :Logging Unit Location
LUN  .        3022                       :Logging Unit Number
RUN  .        PEX AIT                    :Run Number
SON  .        CQQL-00002                 :Service Order Number
BHT  .DEGF     164.00000                 :Bottom Hole Temperature
BS   .IN         7.87500                 :Bit Size
MDEN .G/C3       2.65000                 :Matrix Density for Density Porosity
DFD  .LB/G       9.00000                 :Drilling Fluid Density
DFV  .S       -999.25000                 :Drilling Fluid Viscosity
DFL  .C3      -999.25000                 :Drilling Fluid Loss
RMFS .OHMM       0.94400                 :Resistivity of Mud Filtrate Sample
EKB  .F       5303.00000                 :Elevation of Kelly Bushing
EGL  .F       5291.00000                 :Elevation of Ground Level
BLI  .F       7708.00000                 :Bottom Log Interval
BSAL .PPM        0.00000                 :Borehole Salinity
FLEV .F          8.00000                 :Depth of Drilling Fluid Level to LMF (Log Measured From)
MCST .DEGF      68.00000                 :Mudcake Sample Temperature
MFST .DEGF      68.20000                 :Mud Filtrate Sample Temperature
MRT  .DEGF     164.00000                 :Maximum Recorded Temperature
MST  .DEGF      68.20000                 :Mud Sample Temperature
RMCS .OHMM       1.41600                 :Resistivity of Mud Cake Sample
RMS  .OHMM       1.18000                 :Resistivity of Mud Sample
RW   .OHMM       1.00000                 :Connate Water Resistivity
TDD  .F       7710.00000                 :Driller Total Depth
TDL  .F       7710.00000                 :Logger Total Depth
TLI  .F       1025.00000                 :Top Log Interval
HIDE .        Wildcat                    :Header Identifier
MATR .        SAND                       :Rock Matrix for Neutron Porosity Corrections
FNUM .           1.00000                 :F-Numerator for Formation Factor Formula
FEXP .           2.00000                 :Exponent "m" for Formation Factor Formula
DFT  .        WATER                      :Drilling Fluid Type
DFPH .        -999.25000                 :Drilling Fluid pH
MCSS .        Pressed                    :Mudcake Sample Source
MFSS .                                   :Mud Filtrate Sample Source
FD   .G/C3       1.00000                 :Fluid Density
MSS  .        Active Tank                :Mud Sample Source
OS1  .                                   :Other Services Line 1
OS2  .                                   :Other Services Line 2
OS3  .                                   :Other Services Line 3
OS4  .                                   :Other Services Line 4
OS5  .                                   :Other Services Line 5
R1   .                                   :Remarks Line 1
R2   .                                   :Remarks Line 2
R3   .                                   :Remarks Line 3
R4   .                                   :Remarks Line 4
R5   .                                   :Remarks Line 5
R6   .                                   :Remarks Line 6
R7   .                                   :Remarks Line 7
R8   .        This is the first run in hole. :Remarks Line 8
TCS  .        06 00 00                   :Time Circulation Stopped
TLAB .        15 16 28                   :Time Logger At Bottom
NMT  .        NOBARITE                   :HRDD Mud Type for Nuclear Devices
EPD  .C3         5291.000000             :Elevation of Permanent Datum above Mean Sea Level
APD  .F          12.000000               :Elevation of Depth Reference (LMF) above Permanent Datum
#-----------------------------------------------------------------------------
~CURVE INFORMATION
#MNEM.UNIT   API CODE                                  DESCRIPTION
#---- -----  --------                                  -----------------------
DEPT .F                                                :DEPTH (BOREHOLE) {F12.4}
AT10 .OHMM                                             :Array Induction Two Foot Resistivity A10 {F11.4}
AT30 .OHMM                                             :Array Induction Two Foot Resistivity A30 {F11.4}
AT90 .OHMM                                             :Array Induction Two Foot Resistivity A90 {F11.4}
GR   .GAPI                                             :Gamma Ray {F11.4}
HCAL .IN                                               :HRCC Caliper Calibrated {F11.4}
HDRA .G/C3                                             :Density Standoff Correction {F11.4}
NPHI .CFCF                                             :Thermal Neutron Porosity (original Ratio Method) in Selected Lithology {F11.4}
PEFZ .                                                 :Standard Resolution Formation Photoelectric Factor {F11.4}
RHOZ .G/C3                                             :Standard Resolution Formation Density {F11.4}
SP   .MV                                               :Spontaneous Potential {F11.4}
TNPH .CFCF                                             :Thermal Neutron Porosity (Ratio Method) in Selected Lithology {F11.4}
#-----------------------------------------------------------------------------
# 
#      DEPT        AF10       AF20       AF30       AF60       AF90       AO10       AO20       AO30       AO60       AO90       AT10       AT20       AT30       AT60       AT90     AHFCO60      AHMF      AHORT      AHORX      AHSCA     AHTCO10    AHTCO20    AHTCO30    AHTCO60    AHTCO90     AHTD1      AHTD2      AHTRT      AHTRX       CDF        CFTC       CNTC       CTEM       DCAL       DNPH       DPHZ       DSOZ       ECGR        ED        GDEV        GR      GR_EDTC      GTEM       HCAL       HDRA       HDRB       HGR        HMIN       HMNO       HNPO       HPRA       HTNP        ND        NPHI       NPOR       PEFZ    PXND_HILT     RHOZ       RSOZ     RWA_HILT     RXO8       RXOZ        SP        SPAR       STIT       TENS       TNPH     HTNP_SAN
#
~A  DEPT AT10 AT30 AT90 GR HCAL HDRA NPHI PEFZ RHOZ SP TNPH
# ...
6788.5000 8.8516 9.2523 8.4109 105.5380 7.7264 -0.0009 0.1643 4.4151 2.5492 58.3359 0.1574
6789.0000 7.4177 7.0994 6.5967 124.2837 7.7264 -0.0000 0.1909 4.3230 2.5458 58.9732 0.1753
6789.5000 6.5545 6.2645 5.8400 138.4672 7.7264 -0.0030 0.2219 4.2831 2.5250 58.9063 0.1997
6790.0000 8.9418 7.8995 7.2958 134.3744 7.7264 -0.0063 0.2201 4.3401 2.4951 57.8929 0.2063
6790.5000 10.4457 10.1024 9.0642 122.3773 7.7030 -0.0075 0.1993 4.5285 2.4768 56.5469 0.1806
6791.0000 11.7065 11.1712 9.9863 105.6320 7.7264 -0.0027 0.1687 4.6855 2.4802 55.7734 0.1572
6791.5000 11.1509 10.7997 9.8160 91.7283 7.7264 -0.0012 0.1570 4.7617 2.4992 55.1607 0.1450
6792.0000 10.3491 10.2876 9.3915 88.2911 7.7264 0.0037 0.1517 4.7447 2.5337 54.7500 0.1450
6792.5000 9.5000 9.3447 8.7172 94.0398 7.7499 0.0037 0.1711 4.6846 2.5497 55.2411 0.1497
6793.0000 9.3555 9.1758 8.6619 112.2858 7.7499 0.0050 0.1801 4.6478 2.5446 55.6953 0.1722
6793.5000 9.8069 9.6237 9.0315 115.5670 7.7147 0.0037 0.1913 4.6044 2.5321 55.3281 0.1728
6794.0000 9.9297 9.7010 9.0780 118.0660 7.7264 0.0023 0.1797 4.5858 2.5269 54.6071 0.1727
6794.5000 10.1736 9.8441 9.1485 117.8158 7.7264 -0.0011 0.1951 4.6780 2.5144 53.6953 0.1591
6795.0000 10.4235 9.9684 9.1778 108.7238 7.7264 -0.0022 0.1810 4.7004 2.5116 51.7969 0.1671
6795.5000 10.6151 10.1813 9.4420 94.7275 7.7030 -0.0029 0.1624 4.7723 2.5023 49.9018 0.1540
6796.0000 10.8653 10.5725 9.7188 81.9808 7.7264 -0.0017 0.1589 4.8027 2.4983 50.5625 0.1486
6796.5000 10.7289 10.4847 9.6849 88.6670 7.7030 -0.0041 0.1676 4.9419 2.4796 51.6641 0.1571
6797.0000 9.2463 9.0585 8.4133 84.4174 7.7264 -0.0038 0.1726 5.0162 2.4792 51.2679 0.1631
6797.5000 8.3444 8.0482 7.4919 89.4163 7.7264 -0.0038 0.1690 4.9615 2.4943 51.6094 0.1602
6798.0000 7.4240 7.3994 6.9292 97.2271 7.7499 0.0005 0.1783 4.7867 2.5237 53.4844 0.1649
6798.5000 7.5385 7.2133 6.7071 106.2877 7.7264 0.0017 0.1956 4.5751 2.5385 54.2857 0.1797
6799.0000 8.3152 7.6348 7.1065 101.5393 7.7030 0.0036 0.1847 4.4544 2.5392 53.7422 0.1832
6799.5000 8.5864 8.3220 7.5445 106.2881 7.7264 0.0005 0.2049 4.4366 2.5182 53.8571 0.1788
6800.0000 8.7859 8.7530 8.0052 115.9104 7.7264 -0.0012 0.2281 4.4704 2.5105 53.7422 0.1973
6800.5000 8.6248 8.3233 7.7099 113.4113 7.7264 -0.0037 0.2253 4.5438 2.5154 51.5000 0.1981
6801.0000 8.2319 7.8928 7.4193 88.6666 7.7381 -0.0047 0.1915 4.6412 2.5341 48.4286 0.1777
6801.5000 8.8631 8.2184 7.6580 74.9828 7.7264 -0.0047 0.1529 4.7353 2.5432 46.1406 0.1539
6802.0000 10.2102 9.8679 9.1620 74.5134 7.7499 -0.0025 0.1513 4.7804 2.5393 44.8281 0.1427
6802.5000 12.4019 11.9307 11.1710 86.5109 7.7499 -0.0014 0.1546 4.7965 2.5191 44.0893 0.1496
6803.0000 12.5168 12.1145 11.3625 92.0096 7.7030 -0.0011 0.1653 4.8054 2.4956 43.3594 0.1555
6803.5000 11.9377 11.4340 10.8613 101.8511 7.7147 -0.0016 0.1758 4.8242 2.4770 43.3828 0.1627
6804.0000 11.0711 10.7197 10.1760 108.5991 7.7030 -0.0004 0.1854 4.7932 2.4762 44.0156 0.1680
6804.5000 10.2312 9.8841 9.5419 106.3499 7.7147 -0.0003 0.1891 4.7717 2.4754 43.5391 0.1775
6805.0000 9.5092 9.3315 8.9405 107.2245 7.7030 -0.0021 0.2036 4.7706 2.4679 43.8958 0.1818
6805.5000 8.9303 8.7554 8.2395 106.5689 7.6795 -0.0052 0.1962 4.8176 2.4567 43.6484 0.1895
6806.0000 8.2692 7.9502 7.5187 104.0695 7.7264 -0.0072 0.1885 4.8790 2.4612 42.8594 0.1708
6806.5000 8.0304 7.8392 7.3791 94.8219 7.7264 -0.0073 0.1713 4.9501 2.4791 43.0156 0.1560
6807.0000 8.3785 8.1841 7.6401 81.0433 7.7264 -0.0072 0.1612 5.0310 2.4994 42.9583 0.1463
6807.5000 9.5631 8.6635 8.0561 66.5466 7.7264 -0.0064 0.1552 5.0867 2.5142 41.3516 0.1388
6808.0000 10.5560 10.0400 8.9890 57.2988 7.7264 -0.0043 0.1419 5.0889 2.5208 39.4792 0.1387
6808.5000 11.9716 11.2035 10.2154 63.2349 7.7264 -0.0032 0.1587 5.0706 2.5114 39.1875 0.1405
6809.0000 11.5642 11.0663 10.2062 84.1048 7.7264 -0.0033 0.1700 5.0563 2.4947 39.9583 0.1613
6809.5000 10.8446 10.6037 9.8606 90.6031 7.7264 -0.0045 0.1793 5.0459 2.4864 40.2639 0.1669
6810.0000 10.3266 10.0354 9.4827 83.8549 7.7264 -0.0036 0.1730 4.9775 2.5011 39.6042 0.1591
6810.5000 10.2296 9.5775 9.0006 68.1089 7.7264 -0.0011 0.1500 4.9046 2.5288 37.7708 0.1411
6811.0000 10.4567 10.1018 9.4329 57.6117 7.7264 0.0008 0.1253 4.8290 2.5510 36.8750 0.1217
6811.5000 10.5726 10.6349 9.8284 52.1129 7.7264 0.0003 0.1115 4.8134 2.5523 38.1071 0.1139
6812.0000 10.4404 10.2153 9.4583 68.2963 7.7499 -0.0032 0.1375 4.8426 2.5343 40.7232 0.1166
6812.5000 10.9115 10.1669 9.4197 79.5436 7.7030 -0.0062 0.1684 4.8975 2.5167 42.4018 0.1408
6813.0000 11.8936 11.6270 10.4708 90.2911 7.7264 -0.0075 0.1647 4.9378 2.5033 42.6161 0.1636
6813.5000 13.5763 13.0900 11.9454 105.2252 7.7264 -0.0053 0.1703 4.8669 2.4920 44.2969 0.1612
6814.0000 12.6269 13.0703 12.1514 137.6866 7.7264 -0.0037 0.1951 4.7743 2.4684 46.3393 0.1801
6814.5000 11.6671 11.3414 10.5969 153.9973 7.7147 -0.0052 0.2432 4.7295 2.4434 46.3839 0.2063
6815.0000 10.7748 10.6033 10.0935 142.9191 7.7264 -0.0066 0.2310 4.7426 2.4415 44.7500 0.2249
6815.5000 11.6943 11.1895 10.6163 114.2692 7.7264 -0.0082 0.1891 4.8451 2.4545 43.0625 0.1802
6816.0000 12.0945 12.0439 11.3307 93.2101 7.7381 -0.0085 0.1599 4.9543 2.4737 42.0982 0.1485
6816.5000 11.8858 11.9911 11.2950 83.2930 7.7264 -0.0101 0.1617 5.0426 2.4817 42.0781 0.1442
6817.0000 11.5609 11.5815 11.0188 83.7303 7.7030 -0.0106 0.1717 5.0674 2.4801 42.2589 0.1557
6817.5000 11.2396 11.3683 10.8448 95.4773 7.7264 -0.0075 0.1670 5.0050 2.4815 42.0089 0.1604
6818.0000 10.9939 11.1121 10.6292 101.9756 7.7147 -0.0053 0.1647 5.0023 2.4747 42.9464 0.1575
6818.5000 10.3571 10.4346 9.9850 112.9733 7.7030 -0.0025 0.1614 4.9637 2.4842 44.0714 0.1557
6819.0000 9.7785 9.7965 9.4007 114.8791 7.7264 -0.0016 0.1616 4.9365 2.4961 44.3036 0.1512
6819.5000 11.1370 10.8349 10.2856 115.1288 7.7030 -0.0024 0.1755 4.9242 2.5020 43.9688 0.1521
6820.0000 12.8760 13.2599 12.2249 113.3792 7.7264 -0.0045 0.1849 4.9693 2.4940 43.7946 0.1629
6820.5000 14.1460 14.5325 12.9484 103.5377 7.7030 -0.0062 0.1716 4.9803 2.4997 43.7500 0.1583
6821.0000 13.3355 13.8433 12.7976 93.0410 7.7030 -0.0047 0.1467 4.9629 2.5207 44.0804 0.1414
6821.5000 13.2285 13.6433 12.7523 86.5422 7.7264 -0.0029 0.1339 4.9567 2.5318 44.6875 0.1371
6822.0000 12.8096 13.4866 12.8599 106.2251 7.7264 -0.0036 0.1651 5.0404 2.5052 46.2589 0.1421
6822.5000 12.2314 13.0384 12.5957 133.3120 7.7264 -0.0055 0.1852 5.0825 2.4713 48.0625 0.1652
6823.0000 11.6242 12.6807 11.8983 136.5614 7.7030 -0.0049 0.1887 5.0050 2.4669 48.9286 0.1731
6823.5000 11.1401 11.5807 11.2965 136.3428 7.7264 -0.0013 0.1828 4.9124 2.4899 50.7679 0.1709
6824.0000 10.8848 10.7797 11.1489 137.2494 7.7264 0.0015 0.1826 4.8523 2.5104 53.0000 0.1738
6824.5000 11.8328 11.3911 11.9857 156.7451 7.7030 0.0001 0.1897 4.8844 2.5098 54.5268 0.1793
6825.0000 12.7047 13.0878 12.3587 157.9637 7.7264 -0.0043 0.1825 4.9442 2.4957 55.5804 0.1794
6825.5000 12.3274 12.7199 11.6151 165.1496 7.7264 -0.0072 0.1673 5.0201 2.4883 56.2679 0.1685
6826.0000 11.1770 10.0609 9.3759 189.3929 7.7264 -0.0081 0.1712 5.0880 2.4778 56.9375 0.1665
6826.5000 6.7721 6.8485 6.3585 234.6312 7.7030 -0.0042 0.1948 4.9836 2.4798 58.5089 0.1807
6827.0000 4.5929 4.4297 4.2661 248.1900 7.7264 0.0011 0.2275 4.7946 2.4964 60.3393 0.2015
6827.5000 3.5239 3.8568 3.6422 212.6989 7.7030 0.0075 0.2399 4.5223 2.5444 61.8203 0.2115
6828.0000 4.6123 4.4034 4.1162 153.9636 7.7499 0.0064 0.2051 4.3805 2.5781 61.7857 0.1850
6828.5000 6.0003 5.7791 5.2437 96.2274 7.7499 0.0032 0.1587 4.4172 2.5974 59.8929 0.1416
6829.0000 10.0709 8.4362 7.2607 61.2047 7.7499 -0.0021 0.1148 4.6419 2.5873 59.2422 0.1137
6829.5000 10.3649 9.7587 8.3551 43.7086 7.7264 -0.0039 0.0961 4.8608 2.5813 59.8482 0.0982
6830.0000 8.0232 7.8519 7.0133 50.9570 7.7499 -0.0044 0.1065 4.8803 2.5775 61.5625 0.1003
6830.5000 6.5169 6.0350 5.6436 66.0469 7.7499 -0.0026 0.1174 4.7294 2.5830 63.5313 0.1168
6831.0000 5.8338 5.8223 5.6352 68.2966 7.7264 0.0105 0.1330 4.6285 2.6091 63.8750 0.1290
6831.5000 5.2500 5.3208 5.1298 71.7955 7.7381 0.0198 0.1422 4.5827 2.6191 64.8036 0.1350
6832.0000 4.7413 4.7941 4.5382 80.2314 7.7499 0.0253 0.1734 4.5510 2.6271 65.1172 0.1405
