~VERSION INFORMATION
VERS.           1.2   :CWLS Log ASCII Standard - VERSION 1.2
WRAP.           NO    :One Line per depth step
PROD.  Schlumberger   :LAS Producer
PROG.  DLIS to ASCII 17C0-152                          :LAS Program name and version
CREA.        2013/10/06 02:44                          :LAS Creation date {YYYY/MM/DD hh:mm}
DLIS_CREA.  2013-Oct-05 16:22                          :DLIS Creation date and time {YYYY-MMM-DD hh:mm}
SOURCE.     563481d1-2dcb-47d9-a1d9-48f1ce5abb79       :DLIS File Name
#--------------------------------------------------
~WELL INFORMATION
#MNEM.UNIT      DATA             DESCRIPTION
#---- ------ --------------   -----------------------------
STRT .F      1000.5000       :START DEPTH        # original; data subset to 5500-8000
STOP .F      7736.0000       :STOP DEPTH        # original; data subset to 5500-8000
STEP .F       0.5000         :STEP       
NULL .          -999.25      :NULL VALUE
COMP .                 COMPANY:  Bear Oil & Gas, Inc.               
WELL .                    WELL:  Mattson 12-32                      
FLD  .                   FIELD:  Wildcat                            
LOC  .                LOCATION:  SWNW, Sec. 32, T16N, R60W          
CNTY .                  COUNTY:  Laramie                            
STAT .                   STATE:  Wyoming                            
CTRY .                 COUNTRY:                                     
SRVC .         SERVICE COMPANY:  Schlumberger                       
LATI .DEG             LATITUDE:  41.310000 degrees                  
LONG .DEG            LONGITUDE:  -104.15000 degrees                 
API  .              API NUMBER:  49-021-20933-0000                  
DATE .                LOG DATE:  05-Oct-2013
UWI  .          UNIQUE WELL ID:                                     
#-----------------------------------------------------------------------------
~PARAMETER INFORMATION
#MNEM.UNIT    VALUE                      DESCRIPTION
#---- -----   --------------------       ------------------------
CN   .        Bear Oil & Gas  Inc.       :Company Name
WN   .        Mattson 12-32              :Well Name
FN   .        Wildcat                    :Field Name
FL   .        SWNW  Sec. 32  T16N  R60W  :Field Location
FL1  .        SHL  2529' FNL X 605' FWL  :Field Location, Line 1
COUN .        Laramie                    :County or Parish
STAT .        Wyoming                    :State or Province
NATI .                                   :Nation
DATE .        05-Oct-2013                :Tools Above Rotary Table Date
APIN .        49-021-20933-0000          :API Well Number
SECT .        32                         :Section
TOWN .        16N                        :Township
RANG .        60W                        :Range
DMF  .        KB                         :Drilling Measured From (Name of Drilling Elevation Reference)
LMF  .        KB                         :Logging Measured From (Name of Logging Elevation Reference)
PDAT .        GL                         :Permanent Datum
ENGI .        Heather Hoffman            :Engineer s Name
WITN .        Terry Eitteim              :Witness s Name
LATI .        41.310000 degrees          :Latitude
LONG .        -104.15000 degrees         :Longitude
LUL  .        Ft. Morgan  CO             :Logging Unit Location
LUN  .        3022                       :Logging Unit Number
RUN  .        PEX AIT                    :Run Number
SON  .        CQQL-00002                 :Service Order Number
BHT  .DEGF     164.00000                 :Bottom Hole Temperature
BS   .IN         7.87500                 :Bit Size
MDEN .G/C3       2.65000                 :Matrix Density for Density Porosity
DFD  .LB/G       9.00000                 :Drilling Fluid Density
DFV  .S       -999.25000                 :Drilling Fluid Viscosity
DFL  .C3      -999.25000                 :Drilling Fluid Loss
RMFS .OHMM       0.94400                 :Resistivity of Mud Filtrate Sample
EKB  .F       5303.00000                 :Elevation of Kelly Bushing
EGL  .F       5291.00000                 :Elevation of Ground Level
BLI  .F       7708.00000                 :Bottom Log Interval
BSAL .PPM        0.00000                 :Borehole Salinity
FLEV .F          8.00000                 :Depth of Drilling Fluid Level to LMF (Log Measured From)
MCST .DEGF      68.00000                 :Mudcake Sample Temperature
MFST .DEGF      68.20000                 :Mud Filtrate Sample Temperature
MRT  .DEGF     164.00000                 :Maximum Recorded Temperature
MST  .DEGF      68.20000                 :Mud Sample Temperature
RMCS .OHMM       1.41600                 :Resistivity of Mud Cake Sample
RMS  .OHMM       1.18000                 :Resistivity of Mud Sample
RW   .OHMM       1.00000                 :Connate Water Resistivity
TDD  .F       7710.00000                 :Driller Total Depth
TDL  .F       7710.00000                 :Logger Total Depth
TLI  .F       1025.00000                 :Top Log Interval
HIDE .        Wildcat                    :Header Identifier
MATR .        SAND                       :Rock Matrix for Neutron Porosity Corrections
FNUM .           1.00000                 :F-Numerator for Formation Factor Formula
FEXP .           2.00000                 :Exponent "m" for Formation Factor Formula
DFT  .        WATER                      :Drilling Fluid Type
DFPH .        -999.25000                 :Drilling Fluid pH
MCSS .        Pressed                    :Mudcake Sample Source
MFSS .                                   :Mud Filtrate Sample Source
FD   .G/C3       1.00000                 :Fluid Density
MSS  .        Active Tank                :Mud Sample Source
OS1  .                                   :Other Services Line 1
OS2  .                                   :Other Services Line 2
OS3  .                                   :Other Services Line 3
OS4  .                                   :Other Services Line 4
OS5  .                                   :Other Services Line 5
R1   .                                   :Remarks Line 1
R2   .                                   :Remarks Line 2
R3   .                                   :Remarks Line 3
R4   .                                   :Remarks Line 4
R5   .                                   :Remarks Line 5
R6   .                                   :Remarks Line 6
R7   .                                   :Remarks Line 7
R8   .        This is the first run in hole. :Remarks Line 8
TCS  .        06 00 00                   :Time Circulation Stopped
TLAB .        15 16 28                   :Time Logger At Bottom
NMT  .        NOBARITE                   :HRDD Mud Type for Nuclear Devices
EPD  .C3         5291.000000             :Elevation of Permanent Datum above Mean Sea Level
APD  .F          12.000000               :Elevation of Depth Reference (LMF) above Permanent Datum
#-----------------------------------------------------------------------------
~CURVE INFORMATION
#MNEM.UNIT   API CODE                                  DESCRIPTION
#---- -----  --------                                  -----------------------
DEPT .F                                                :DEPTH (BOREHOLE) {F12.4}
AT10 .OHMM                                             :Array Induction Two Foot Resistivity A10 {F11.4}
AT30 .OHMM                                             :Array Induction Two Foot Resistivity A30 {F11.4}
AT90 .OHMM                                             :Array Induction Two Foot Resistivity A90 {F11.4}
GR   .GAPI                                             :Gamma Ray {F11.4}
HCAL .IN                                               :HRCC Caliper Calibrated {F11.4}
HDRA .G/C3                                             :Density Standoff Correction {F11.4}
NPHI .CFCF                                             :Thermal Neutron Porosity (original Ratio Method) in Selected Lithology {F11.4}
PEFZ .                                                 :Standard Resolution Formation Photoelectric Factor {F11.4}
RHOZ .G/C3                                             :Standard Resolution Formation Density {F11.4}
SP   .MV                                               :Spontaneous Potential {F11.4}
TNPH .CFCF                                             :Thermal Neutron Porosity (Ratio Method) in Selected Lithology {F11.4}
#-----------------------------------------------------------------------------
# 
#      DEPT        AF10       AF20       AF30       AF60       AF90       AO10       AO20       AO30       AO60       AO90       AT10       AT20       AT30       AT60       AT90     AHFCO60      AHMF      AHORT      AHORX      AHSCA     AHTCO10    AHTCO20    AHTCO30    AHTCO60    AHTCO90     AHTD1      AHTD2      AHTRT      AHTRX       CDF        CFTC       CNTC       CTEM       DCAL       DNPH       DPHZ       DSOZ       ECGR        ED        GDEV        GR      GR_EDTC      GTEM       HCAL       HDRA       HDRB       HGR        HMIN       HMNO       HNPO       HPRA       HTNP        ND        NPHI       NPOR       PEFZ    PXND_HILT     RHOZ       RSOZ     RWA_HILT     RXO8       RXOZ        SP        SPAR       STIT       TENS       TNPH     HTNP_SAN
#
~A  DEPT AT10 AT30 AT90 GR HCAL HDRA NPHI PEFZ RHOZ SP TNPH
# ...
6390.0000 2.1956 2.0916 2.0230 121.1586 7.8671 0.0053 0.3487 3.1273 2.5156 62.4063 0.3494
6390.5000 2.1806 2.0747 2.0066 127.4077 7.7968 0.0030 0.3388 3.1154 2.5057 62.7109 0.3418
6391.0000 2.2256 2.0950 2.0193 126.3145 7.9140 0.0042 0.3521 3.0536 2.5101 62.7679 0.3294
6391.5000 2.2519 2.1165 2.0375 128.9389 7.9140 0.0048 0.3367 2.9898 2.5074 62.6719 0.3415
6392.0000 2.2997 2.1510 2.0666 128.3761 7.9375 0.0026 0.3661 2.9583 2.5105 62.4844 0.3299
6392.5000 2.2791 2.1454 2.0611 129.4387 7.9375 0.0035 0.3514 2.9786 2.5182 62.5268 0.3515
6393.0000 2.2430 2.1040 2.0305 129.0012 7.9609 0.0051 0.3539 2.9816 2.5282 62.6719 0.3483
6393.5000 2.2161 2.0794 2.0078 134.9057 7.9609 0.0079 0.3247 2.9823 2.5313 62.5938 0.3486
6394.0000 2.2424 2.0927 2.0170 136.9049 7.9609 0.0054 0.3234 2.9702 2.5137 62.5714 0.3200
6394.5000 2.2840 2.1503 2.0679 140.8420 7.9844 0.0110 0.3144 3.0184 2.4944 62.5156 0.3149
6395.0000 2.3234 2.1840 2.0995 140.4983 7.9609 0.0199 0.3385 3.0756 2.4872 62.4688 0.3131
6395.5000 2.2674 2.1442 2.0657 139.1862 7.7968 0.0371 0.3663 3.0958 2.4978 62.5268 0.3304
6396.0000 2.2587 2.1170 2.0436 140.9358 7.8437 0.0338 0.3955 3.0148 2.5021 62.4688 0.3544
6396.5000 2.2285 2.0974 2.0216 141.4986 7.8671 0.0223 0.3984 2.8816 2.5009 62.7734 0.3772
6397.0000 2.2471 2.0978 2.0204 140.0616 7.9140 0.0038 0.3625 2.8142 2.4930 62.7813 0.3797
6397.5000 2.2866 2.1537 2.0667 138.5299 7.9257 0.0013 0.3559 2.8390 2.4894 62.6786 0.3461
6398.0000 2.3109 2.1636 2.0762 131.9687 7.8671 0.0064 0.3425 2.9602 2.4771 62.4844 0.3372
6398.5000 2.2467 2.1203 2.0337 128.2195 7.8671 0.0342 0.3581 3.1173 2.4910 62.5703 0.3347
6399.0000 2.1616 2.0575 1.9751 120.5653 7.8202 0.0528 0.3623 3.2282 2.5045 62.5893 0.3513
6399.5000 2.0873 1.9780 1.9008 123.4086 7.8437 0.0608 0.3604 3.2618 2.5227 62.5078 0.3619
6400.0000 2.0271 1.9115 1.8330 123.6582 7.8671 0.0383 0.3735 3.1854 2.5142 62.4297 0.3562
6400.5000 1.9801 1.8765 1.7970 128.4698 7.9609 0.0192 0.3836 3.0931 2.5087 62.5234 0.3535
6401.0000 1.9742 1.8398 1.7676 133.9374 7.9140 0.0067 0.3844 3.1008 2.5199 62.8839 0.3534
6401.5000 2.0842 1.9199 1.8330 135.5938 7.8906 0.0037 0.3536 3.2216 2.5437 62.8672 0.3530
6402.0000 2.3178 2.2091 2.0794 130.9383 7.8906 0.0120 0.3258 3.3786 2.5810 62.6172 0.3367
6402.5000 2.3506 2.2207 2.1098 125.4706 7.8202 0.0256 0.3140 3.3882 2.5929 62.6172 0.3279
6403.0000 2.1808 2.0299 1.9600 124.5645 7.8437 0.0276 0.3158 3.2418 2.5704 62.6641 0.3303
6403.5000 2.1410 2.0002 1.9269 124.6270 7.8671 0.0226 0.3219 3.0795 2.5401 62.4821 0.3219
6404.0000 2.1700 2.0339 1.9553 125.9390 7.8906 0.0093 0.3311 2.9912 2.5096 61.9922 0.3231
6404.5000 2.1754 2.0607 1.9799 130.4378 7.8671 0.0110 0.3534 3.0075 2.5063 62.5000 0.3312
6405.0000 2.1938 2.0617 1.9839 130.0007 7.9140 0.0141 0.3468 3.0464 2.5133 62.8125 0.3514
6405.5000 2.2136 2.0771 1.9987 123.4399 7.8906 0.0137 0.3416 3.0721 2.5229 63.4766 0.3420
6406.0000 2.2335 2.1078 2.0295 117.4410 7.8906 0.0112 0.3337 3.1171 2.5332 62.3828 0.3297
6406.5000 2.2075 2.0726 2.0007 121.0655 7.8906 0.0097 0.3519 3.1848 2.5278 62.3984 0.3211
6407.0000 2.1518 2.0217 1.9537 125.6584 7.9726 0.0124 0.3644 3.2404 2.5252 62.3482 0.3406
6407.5000 2.1023 1.9759 1.9213 132.4380 7.9140 0.0109 0.3606 3.2081 2.5114 62.4609 0.3535
6408.0000 2.0894 1.9687 1.9031 131.1880 7.8906 0.0059 0.3552 3.1164 2.4973 62.4609 0.3494
6408.5000 2.1193 1.9831 1.9175 128.3448 7.9375 0.0052 0.3710 3.0784 2.4927 62.3482 0.3532
6409.0000 2.1245 1.9906 1.9247 122.3150 7.9844 0.0091 0.3694 3.0907 2.5004 61.7578 0.3639
6409.5000 2.1327 1.9946 1.9271 123.2211 7.9844 0.0147 0.3750 3.1246 2.5087 62.9219 0.3628
6410.0000 2.1525 1.9969 1.9262 128.0329 7.9726 0.0203 0.3487 3.1535 2.5177 63.2946 0.3607
6410.5000 2.1334 1.9762 1.9065 128.1575 7.9140 0.0200 0.3529 3.2075 2.5126 63.3359 0.3449
6411.0000 2.0978 1.9412 1.8740 130.0012 7.9609 0.0293 0.3510 3.3061 2.5180 62.9531 0.3498
6411.5000 2.0526 1.9090 1.8372 131.0942 7.9726 0.0367 0.3710 3.3463 2.5136 63.0714 0.3392
6412.0000 2.0012 1.8904 1.8242 132.8444 8.0313 0.0478 0.3729 3.3301 2.5210 62.9609 0.3559
6412.5000 2.0275 1.8817 1.8104 134.0932 7.9375 0.0409 0.3760 3.2982 2.5302 62.8438 0.3559
6413.0000 2.0473 1.9073 1.8192 135.1871 7.9375 0.0310 0.3338 3.3315 2.5344 62.7031 0.3592
6413.5000 2.0715 1.9080 1.8364 131.6877 7.9140 0.0387 0.3302 3.4144 2.5656 61.8304 0.3260
6414.0000 2.0009 1.8445 1.8044 129.4387 7.8906 0.0425 0.3163 3.3577 2.5554 62.7656 0.3320
6414.5000 1.9398 1.8109 1.7538 123.3151 7.8906 0.0488 0.3226 3.2376 2.5567 63.8438 0.3174
6415.0000 2.0076 1.8562 1.7957 123.9709 7.8906 0.0329 0.3210 3.1085 2.5377 63.1875 0.3108
6415.5000 2.0757 1.9202 1.8495 122.9709 7.9609 0.0227 0.3405 3.0932 2.5366 63.0859 0.3074
6416.0000 2.1974 2.0186 1.9423 123.6269 7.9375 0.0254 0.3531 3.1650 2.5435 62.8594 0.3321
6416.5000 2.1134 1.9717 1.9000 122.3149 7.8671 0.0319 0.3692 3.1909 2.5319 62.6406 0.3455
6417.0000 2.0650 1.9108 1.8646 121.0653 7.8202 0.0447 0.3701 3.1916 2.5307 62.6786 0.3705
6417.5000 2.0125 1.8800 1.8134 121.2840 7.8906 0.0442 0.3842 3.1281 2.5208 62.6797 0.3699
6418.0000 2.0894 1.9545 1.8795 121.7216 7.9375 0.0441 0.4018 3.0832 2.5117 62.2734 0.3715
6418.5000 2.1517 2.0068 1.9359 127.7204 7.8437 0.0449 0.3770 3.0675 2.5105 61.8125 0.3687
6419.0000 2.2440 2.0982 1.9946 129.4699 7.8437 0.0410 0.3712 3.0482 2.5101 63.2031 0.3529
6419.5000 2.3428 2.1912 2.0873 135.8119 7.8437 0.0407 0.3213 3.0471 2.5218 63.1094 0.3553
6420.0000 2.2166 2.0933 2.0024 132.0620 7.8906 0.0313 0.3141 3.0272 2.5197 62.6563 0.3177
6420.5000 2.0972 1.9660 1.8877 135.7800 7.8671 0.0326 0.3093 3.0381 2.5226 62.6607 0.3079
6421.0000 2.0274 1.8974 1.8322 133.3743 7.9140 0.0242 0.3265 3.0593 2.5232 62.6875 0.3087
6421.5000 1.9773 1.8651 1.8024 132.8750 7.8906 0.0246 0.3325 3.1351 2.5287 62.6563 0.3280
6422.0000 1.9245 1.8365 1.7769 127.1883 7.9140 0.0282 0.3512 3.2285 2.5268 62.2679 0.3292
6422.5000 1.8598 1.7610 1.7172 130.2503 7.9492 0.0407 0.3640 3.2895 2.5124 61.9531 0.3432
6423.0000 1.7885 1.6936 1.6423 131.5005 7.9609 0.0590 0.3961 3.2916 2.5036 62.0625 0.3591
6423.5000 1.8223 1.7015 1.6432 132.3755 7.9140 0.0644 0.3924 3.2556 2.4942 62.2946 0.3910
6424.0000 1.8248 1.7290 1.6596 131.4692 7.9961 0.0651 0.3719 3.2415 2.5038 62.3516 0.3743
6424.5000 1.8262 1.7298 1.6534 129.0007 7.9844 0.0522 0.3647 3.2313 2.5014 62.4453 0.3478
6425.0000 1.8026 1.7051 1.6309 134.2501 7.9140 0.0314 0.3697 3.1818 2.4810 62.5078 0.3479
6425.5000 1.7874 1.6915 1.6212 134.2499 7.9726 0.0190 0.4045 3.1549 2.4663 62.5179 0.3578
6426.0000 1.7689 1.6715 1.6078 139.7171 8.0547 0.0204 0.4029 3.1545 2.4722 62.7031 0.3882
6426.5000 1.7589 1.6641 1.5981 141.9039 8.0078 0.0312 0.3915 3.2003 2.4888 62.7188 0.3803
6427.0000 1.7763 1.6803 1.6140 145.4036 7.9140 0.0434 0.3743 3.2821 2.5029 62.5000 0.3684
6427.5000 1.8115 1.7126 1.6486 138.8423 7.9609 0.0536 0.3421 3.3921 2.5053 62.3359 0.3608
6428.0000 1.7500 1.6877 1.6194 138.1860 7.9844 0.0692 0.3574 3.4878 2.5047 62.3516 0.3525
6428.5000 1.7110 1.6218 1.5683 134.1868 8.0430 0.0711 0.3860 3.4754 2.4779 62.3906 0.3633
6429.0000 1.6647 1.5822 1.5286 138.5612 8.1016 0.0706 0.4306 3.4019 2.4644 62.3393 0.3673
6429.5000 1.6341 1.5547 1.5011 131.2815 8.0547 0.0663 0.4173 3.3330 2.4683 62.6250 0.4028
6430.0000 1.6419 1.5530 1.4995 128.5322 8.0664 0.0657 0.3868 3.2968 2.4949 62.7422 0.3865
6430.5000 1.6993 1.5993 1.5424 121.5339 8.2189 0.0533 0.3710 3.2656 2.5011 62.6786 0.3587
6431.0000 1.7378 1.6385 1.5776 122.0339 8.0782 0.0349 0.3799 3.2313 2.4994 62.5625 0.3562
6431.5000 1.7639 1.6628 1.6013 125.5330 7.9844 0.0250 0.3812 3.2191 2.4925 62.8125 0.3613
6432.0000 1.7646 1.6567 1.5979 129.4696 8.0078 0.0270 0.3635 3.2350 2.4939 63.0089 0.3643
6432.5000 1.7620 1.6566 1.5970 125.9706 7.9844 0.0344 0.3528 3.2458 2.5015 62.8750 0.3501
6433.0000 1.7649 1.6625 1.6047 123.7833 8.0078 0.0352 0.3599 3.2353 2.5107 62.7500 0.3397
6433.5000 1.7762 1.6803 1.6220 126.2824 8.0313 0.0299 0.3685 3.2105 2.5184 62.7578 0.3462
6434.0000 1.7929 1.6884 1.6288 129.5631 8.0782 0.0247 0.3803 3.2040 2.5198 62.9286 0.3573
