~VERSION INFORMATION
VERS.           1.2   :CWLS Log ASCII Standard - VERSION 1.2
WRAP.           NO    :One Line per depth step
PROD.  Schlumberger   :LAS Producer
PROG.  DLIS to ASCII 17C0-152                          :LAS Program name and version
CREA.        2013/10/06 02:44                          :LAS Creation date {YYYY/MM/DD hh:mm}
DLIS_CREA.  2013-Oct-05 16:22                          :DLIS Creation date and time {YYYY-MMM-DD hh:mm}
SOURCE.     563481d1-2dcb-47d9-a1d9-48f1ce5abb79       :DLIS File Name
#--------------------------------------------------
~WELL INFORMATION
#MNEM.UNIT      DATA             DESCRIPTION
#---- ------ --------------   -----------------------------
STRT .F      1000.5000       :START DEPTH        # original; data subset to 5500-8000
STOP .F      7736.0000       :STOP DEPTH        # original; data subset to 5500-8000
STEP .F       0.5000         :STEP       
NULL .          -999.25      :NULL VALUE
COMP .                 COMPANY:  Bear Oil & Gas, Inc.               
WELL .                    WELL:  Mattson 12-32                      
FLD  .                   FIELD:  Wildcat                            
LOC  .                LOCATION:  SWNW, Sec. 32, T16N, R60W          
CNTY .                  COUNTY:  Laramie                            
STAT .                   STATE:  Wyoming                            
CTRY .                 COUNTRY:                                     
SRVC .         SERVICE COMPANY:  Schlumberger                       
LATI .DEG             LATITUDE:  41.310000 degrees                  
LONG .DEG            LONGITUDE:  -104.15000 degrees                 
API  .              API NUMBER:  49-021-20933-0000                  
DATE .                LOG DATE:  05-Oct-2013
UWI  .          UNIQUE WELL ID:                                     
#-----------------------------------------------------------------------------
~PARAMETER INFORMATION
#MNEM.UNIT    VALUE                      DESCRIPTION
#---- -----   --------------------       ------------------------
CN   .        Bear Oil & Gas  Inc.       :Company Name
WN   .        Mattson 12-32              :Well Name
FN   .        Wildcat                    :Field Name
FL   .        SWNW  Sec. 32  T16N  R60W  :Field Location
FL1  .        SHL  2529' FNL X 605' FWL  :Field Location, Line 1
COUN .        Laramie                    :County or Parish
STAT .        Wyoming                    :State or Province
NATI .                                   :Nation
DATE .        05-Oct-2013                :Tools Above Rotary Table Date
APIN .        49-021-20933-0000          :API Well Number
SECT .        32                         :Section
TOWN .        16N                        :Township
RANG .        60W                        :Range
DMF  .        KB                         :Drilling Measured From (Name of Drilling Elevation Reference)
LMF  .        KB                         :Logging Measured From (Name of Logging Elevation Reference)
PDAT .        GL                         :Permanent Datum
ENGI .        Heather Hoffman            :Engineer s Name
WITN .        Terry Eitteim              :Witness s Name
LATI .        41.310000 degrees          :Latitude
LONG .        -104.15000 degrees         :Longitude
LUL  .        Ft. Morgan  CO             :Logging Unit Location
LUN  .        3022                       :Logging Unit Number
RUN  .        PEX AIT                    :Run Number
SON  .        CQQL-00002                 :Service Order Number
BHT  .DEGF     164.00000                 :Bottom Hole Temperature
BS   .IN         7.87500                 :Bit Size
MDEN .G/C3       2.65000                 :Matrix Density for Density Porosity
DFD  .LB/G       9.00000                 :Drilling Fluid Density
DFV  .S       -999.25000                 :Drilling Fluid Viscosity
DFL  .C3      -999.25000                 :Drilling Fluid Loss
RMFS .OHMM       0.94400                 :Resistivity of Mud Filtrate Sample
EKB  .F       5303.00000                 :Elevation of Kelly Bushing
EGL  .F       5291.00000                 :Elevation of Ground Level
BLI  .F       7708.00000                 :Bottom Log Interval
BSAL .PPM        0.00000                 :Borehole Salinity
FLEV .F          8.00000                 :Depth of Drilling Fluid Level to LMF (Log Measured From)
MCST .DEGF      68.00000                 :Mudcake Sample Temperature
MFST .DEGF      68.20000                 :Mud Filtrate Sample Temperature
MRT  .DEGF     164.00000                 :Maximum Recorded Temperature
MST  .DEGF      68.20000                 :Mud Sample Temperature
RMCS .OHMM       1.41600                 :Resistivity of Mud Cake Sample
RMS  .OHMM       1.18000                 :Resistivity of Mud Sample
RW   .OHMM       1.00000                 :Connate Water Resistivity
TDD  .F       7710.00000                 :Driller Total Depth
TDL  .F       7710.00000                 :Logger Total Depth
TLI  .F       1025.00000                 :Top Log Interval
HIDE .        Wildcat                    :Header Identifier
MATR .        SAND                       :Rock Matrix for Neutron Porosity Corrections
FNUM .           1.00000                 :F-Numerator for Formation Factor Formula
FEXP .           2.00000                 :Exponent "m" for Formation Factor Formula
DFT  .        WATER                      :Drilling Fluid Type
DFPH .        -999.25000                 :Drilling Fluid pH
MCSS .        Pressed                    :Mudcake Sample Source
MFSS .                                   :Mud Filtrate Sample Source
FD   .G/C3       1.00000                 :Fluid Density
MSS  .        Active Tank                :Mud Sample Source
OS1  .                                   :Other Services Line 1
OS2  .                                   :Other Services Line 2
OS3  .                                   :Other Services Line 3
OS4  .                                   :Other Services Line 4
OS5  .                                   :Other Services Line 5
R1   .                                   :Remarks Line 1
R2   .                                   :Remarks Line 2
R3   .                                   :Remarks Line 3
R4   .                                   :Remarks Line 4
R5   .                                   :Remarks Line 5
R6   .                                   :Remarks Line 6
R7   .                                   :Remarks Line 7
R8   .        This is the first run in hole. :Remarks Line 8
TCS  .        06 00 00                   :Time Circulation Stopped
TLAB .        15 16 28                   :Time Logger At Bottom
NMT  .        NOBARITE                   :HRDD Mud Type for Nuclear Devices
EPD  .C3         5291.000000             :Elevation of Permanent Datum above Mean Sea Level
APD  .F          12.000000               :Elevation of Depth Reference (LMF) above Permanent Datum
#-----------------------------------------------------------------------------
~CURVE INFORMATION
#MNEM.UNIT   API CODE                                  DESCRIPTION
#---- -----  --------                                  -----------------------
DEPT .F                                                :DEPTH (BOREHOLE) {F12.4}
AT10 .OHMM                                             :Array Induction Two Foot Resistivity A10 {F11.4}
AT30 .OHMM                                             :Array Induction Two Foot Resistivity A30 {F11.4}
AT90 .OHMM                                             :Array Induction Two Foot Resistivity A90 {F11.4}
GR   .GAPI                                             :Gamma Ray {F11.4}
HCAL .IN                                               :HRCC Caliper Calibrated {F11.4}
HDRA .G/C3                                             :Density Standoff Correction {F11.4}
NPHI .CFCF                                             :Thermal Neutron Porosity (original Ratio Method) in Selected Lithology {F11.4}
PEFZ .                                                 :Standard Resolution Formation Photoelectric Factor {F11.4}
RHOZ .G/C3                                             :Standard Resolution Formation Density {F11.4}
SP   .MV                                               :Spontaneous Potential {F11.4}
TNPH .CFCF                                             :Thermal Neutron Porosity (Ratio Method) in Selected Lithology {F11.4}
#-----------------------------------------------------------------------------
# 
#      DEPT        AF10       AF20       AF30       AF60       AF90       AO10       AO20       AO30       AO60       AO90       AT10       AT20       AT30       AT60       AT90     AHFCO60      AHMF      AHORT      AHORX      AHSCA     AHTCO10    AHTCO20    AHTCO30    AHTCO60    AHTCO90     AHTD1      AHTD2      AHTRT      AHTRX       CDF        CFTC       CNTC       CTEM       DCAL       DNPH       DPHZ       DSOZ       ECGR        ED        GDEV        GR      GR_EDTC      GTEM       HCAL       HDRA       HDRB       HGR        HMIN       HMNO       HNPO       HPRA       HTNP        ND        NPHI       NPOR       PEFZ    PXND_HILT     RHOZ       RSOZ     RWA_HILT     RXO8       RXOZ        SP        SPAR       STIT       TENS       TNPH     HTNP_SAN
#
~A  DEPT AT10 AT30 AT90 GR HCAL HDRA NPHI PEFZ RHOZ SP TNPH
# ...
6656.0000 20.9176 20.3740 19.1139 166.6171 7.7264 -0.0081 0.1971 5.0146 2.4287 42.3125 0.1870
6656.5000 20.1817 20.5293 19.0405 187.8622 7.7147 -0.0078 0.2111 4.9799 2.4156 43.7411 0.2013
6657.0000 20.1400 19.8246 18.5565 190.4866 7.7264 -0.0075 0.2304 4.8739 2.4070 44.6719 0.2115
6657.5000 16.9602 18.2009 16.6795 182.5814 7.7264 -0.0068 0.2353 4.7174 2.4091 45.0357 0.2234
6658.0000 13.6617 13.4879 12.7855 165.9613 7.7499 -0.0043 0.2323 4.5516 2.4312 45.1719 0.2173
6658.5000 11.4727 11.2826 10.6675 157.4321 7.7264 -0.0042 0.2295 4.5322 2.4436 44.8594 0.2093
6659.0000 16.8379 15.0625 14.0111 162.4316 7.7381 -0.0056 0.2312 4.6368 2.4439 43.4107 0.2107
6659.5000 20.2328 20.7758 18.0728 163.7437 7.7264 -0.0076 0.2416 4.7619 2.4293 43.1953 0.2118
6660.0000 22.7999 23.5814 20.5293 186.2688 7.7499 -0.0044 0.2512 4.7497 2.4335 43.1563 0.2269
6660.5000 20.3415 21.7880 19.6255 195.0166 7.7264 -0.0019 0.2479 4.6948 2.4355 42.6696 0.2409
6661.0000 19.5900 19.4671 17.9082 196.5471 7.7264 -0.0004 0.2297 4.7021 2.4365 41.8984 0.2284
6661.5000 19.8460 19.7092 18.4668 195.1729 7.7264 -0.0013 0.2152 4.7816 2.4224 42.5391 0.2184
6662.0000 22.8451 22.9112 21.0557 207.2643 7.7264 -0.0010 0.2273 4.8284 2.4109 44.0179 0.2157
6662.5000 24.9916 25.2831 23.3465 223.4476 7.7030 -0.0018 0.2405 4.8519 2.3937 44.6484 0.2331
6663.0000 23.6013 24.0246 22.4599 214.6996 7.7030 -0.0029 0.2608 4.8091 2.3878 44.7143 0.2317
6663.5000 21.1664 21.8900 19.9294 206.8253 7.7030 -0.0053 0.2607 4.7562 2.3917 44.3438 0.2394
6664.0000 19.4863 20.0011 18.8091 199.4210 7.7147 -0.0073 0.2647 4.7459 2.3981 43.7734 0.2441
6664.5000 18.1119 18.2686 17.3562 202.3267 7.7030 -0.0074 0.2584 4.7521 2.4054 43.3393 0.2477
6665.0000 17.5372 17.6828 16.9327 207.1394 7.7030 -0.0056 0.2435 4.7875 2.4065 42.2188 0.2482
6665.5000 17.9160 17.8060 16.7936 213.3885 7.7030 -0.0039 0.2607 4.8064 2.4064 41.3359 0.2311
6666.0000 18.2429 18.2428 16.9721 206.6082 7.7030 -0.0002 0.2269 4.8261 2.4100 40.3482 0.2356
6666.5000 17.6665 17.6545 16.4373 169.3353 7.7499 -0.0011 0.2068 4.8764 2.4186 38.9609 0.1870
6667.0000 17.3728 17.2607 16.1196 148.1839 7.7499 -0.0023 0.1701 4.9154 2.4296 39.1484 0.1675
6667.5000 18.0699 17.8060 16.5495 144.9037 7.7264 -0.0070 0.1771 4.9708 2.4261 40.3839 0.1630
6668.0000 18.5137 18.8386 17.5888 170.8974 7.7264 -0.0057 0.2182 4.9484 2.4199 42.0234 0.1867
6668.5000 17.3823 17.6411 16.3372 193.4229 7.7264 -0.0029 0.2468 4.8751 2.4209 43.4141 0.2148
6669.0000 16.5633 16.3837 15.0685 204.3589 7.7264 -0.0012 0.2629 4.8594 2.4246 43.2679 0.2298
6669.5000 18.1206 18.1187 16.6226 199.3600 7.7264 -0.0031 0.2302 4.9671 2.4241 41.8828 0.2289
6670.0000 19.1830 19.1170 17.5329 175.5223 7.7499 -0.0063 0.2027 5.1044 2.4227 41.3571 0.1986
6670.5000 17.8582 18.5503 17.2055 162.7433 7.7499 -0.0085 0.1887 5.1692 2.4266 41.8672 0.1850
6671.0000 16.9641 17.3253 16.2302 156.7131 7.7264 -0.0063 0.2068 5.0985 2.4392 42.5938 0.1777
6671.5000 17.2709 17.2990 16.2310 163.7109 7.7264 -0.0052 0.2148 5.0552 2.4383 42.3594 0.1973
6672.0000 17.6390 17.9875 16.9207 165.4605 7.7147 -0.0025 0.2264 4.9929 2.4426 42.5357 0.2066
6672.5000 16.3668 16.8467 15.8393 170.9284 7.7264 -0.0003 0.2167 4.9695 2.4526 42.2188 0.2095
6673.0000 15.7559 15.8743 15.0749 164.1487 7.7264 0.0002 0.2065 4.9347 2.4595 41.1071 0.1990
6673.5000 14.9399 15.1420 14.4455 159.9002 7.7264 -0.0011 0.2022 4.9417 2.4564 40.6328 0.1905
6674.0000 14.8012 15.1012 14.4611 155.9636 7.7499 -0.0033 0.2117 4.9428 2.4441 41.1484 0.1911
6674.5000 15.4721 15.4752 14.7627 157.2140 7.7147 -0.0041 0.2137 4.9665 2.4396 41.0982 0.2006
6675.0000 15.9937 15.7164 14.9921 144.4977 7.7499 -0.0043 0.2005 4.9494 2.4431 40.8047 0.1928
6675.5000 14.8636 13.9527 13.4370 129.4075 7.7381 -0.0050 0.1862 4.9317 2.4471 41.2734 0.1789
6676.0000 12.8981 11.9358 11.5283 129.9069 7.7264 -0.0039 0.1922 4.8563 2.4576 42.3393 0.1757
6676.5000 10.3847 10.2652 9.9797 129.6886 7.7499 -0.0044 0.1897 4.8241 2.4618 42.6250 0.1834
6677.0000 8.6591 8.5694 8.3036 117.5349 7.7616 -0.0053 0.1763 4.8154 2.4669 42.2054 0.1699
6677.5000 7.8891 7.8276 7.5566 91.7286 7.7499 -0.0064 0.1645 4.8713 2.4671 42.5781 0.1593
6678.0000 8.3484 8.0329 7.6806 85.1669 7.7616 -0.0056 0.1696 4.9519 2.4663 43.9063 0.1627
6678.5000 8.6557 8.2530 7.7796 98.6642 7.7264 -0.0060 0.1855 5.0643 2.4563 45.4018 0.1755
6679.0000 8.5663 8.0667 7.5873 119.4404 7.7264 -0.0058 0.1985 5.0810 2.4507 45.6250 0.1888
6679.5000 8.5712 7.9987 7.4934 126.1893 7.7264 -0.0035 0.2175 5.0199 2.4581 44.4141 0.1917
6680.0000 8.6089 7.9453 7.4476 118.5034 7.7264 0.0001 0.2156 4.9212 2.4731 42.5536 0.1919
6680.5000 8.1055 7.6895 7.1776 100.2887 7.7264 0.0022 0.2188 4.8423 2.4840 41.1250 0.1782
6681.0000 7.6033 7.1691 6.7574 90.0409 7.7381 0.0004 0.2049 4.8352 2.4795 39.9922 0.1827
6681.5000 7.3478 7.1149 6.6763 89.3848 7.7499 -0.0004 0.1947 4.8297 2.4772 39.2232 0.1820
6682.0000 7.6775 7.4567 6.9632 100.3825 7.7499 -0.0007 0.1847 4.8248 2.4722 40.4297 0.1872
6682.5000 8.5706 8.1467 7.5527 122.4712 7.7499 -0.0007 0.1967 4.8031 2.4627 42.7321 0.1895
6683.0000 9.5300 9.0129 8.2478 144.7790 7.7499 -0.0030 0.2271 4.7841 2.4456 44.0313 0.2081
6683.5000 10.8384 10.1882 9.2883 158.2758 7.7264 -0.0037 0.2395 4.7490 2.4446 43.1875 0.2254
6684.0000 11.4317 10.8787 9.9217 151.7146 7.7264 -0.0054 0.2353 4.7737 2.4489 41.2891 0.2159
6684.5000 10.5277 10.4413 9.6500 132.6875 7.7733 -0.0057 0.2066 4.8433 2.4587 39.5982 0.2013
6685.0000 10.3753 9.9319 9.3626 111.4426 7.7499 -0.0070 0.1756 4.9524 2.4588 38.7500 0.1727
6685.5000 10.4389 10.0233 9.6598 94.8217 7.7733 -0.0058 0.1513 4.9454 2.4641 38.1172 0.1529
6686.0000 10.8861 10.4740 10.0558 93.0718 7.7499 -0.0050 0.1539 4.8859 2.4649 38.5982 0.1462
6686.5000 11.2061 10.8423 10.5679 104.0694 7.7499 -0.0048 0.1723 4.8039 2.4611 39.6563 0.1519
6687.0000 11.3877 11.1080 10.6632 121.7837 7.7499 -0.0055 0.1966 4.7611 2.4556 39.8571 0.1686
6687.5000 10.9326 10.3933 10.0283 117.0976 7.7499 -0.0065 0.1856 4.7507 2.4519 39.2578 0.1825
6688.0000 9.4272 9.3447 8.9171 106.8497 7.7499 -0.0064 0.1790 4.7556 2.4554 39.2813 0.1695
6688.5000 8.2864 7.8627 7.6548 94.8217 7.7499 -0.0068 0.1865 4.8010 2.4529 40.2321 0.1697
6689.0000 7.4880 7.1686 6.8984 103.4445 7.7499 -0.0071 0.2044 4.8326 2.4508 39.2891 0.1789
6689.5000 8.4690 7.6130 7.2013 104.4441 7.7499 -0.0063 0.2139 4.8559 2.4520 36.3661 0.1924
6690.0000 8.6020 8.2385 7.6986 95.0398 7.7264 -0.0050 0.1916 4.8798 2.4576 33.7656 0.1835
6690.5000 8.8674 8.3332 7.6059 78.1689 7.7499 -0.0038 0.1744 4.9239 2.4620 32.0469 0.1633
6691.0000 8.7133 8.2883 7.6508 63.3913 7.7499 -0.0035 0.1554 4.9548 2.4659 31.8214 0.1489
6691.5000 8.4563 8.0023 7.5149 59.6735 7.7264 0.0004 0.1509 4.9366 2.4825 32.9688 0.1443
6692.0000 8.1869 7.7304 7.4168 68.1714 7.7499 0.0026 0.1714 4.8347 2.4903 35.4922 0.1531
6692.5000 8.1300 7.6310 7.2526 90.6976 7.7381 0.0022 0.1909 4.7536 2.4865 38.6786 0.1708
6693.0000 8.2097 7.7280 7.3028 103.3822 7.7264 -0.0016 0.1907 4.6924 2.4764 39.7109 0.1865
6693.5000 8.1874 7.7478 7.3355 103.6319 7.7499 -0.0028 0.1797 4.7064 2.4813 40.2031 0.1743
6694.0000 8.3350 7.9585 7.5166 90.9473 7.7499 -0.0005 0.1758 4.7339 2.5006 40.7054 0.1620
6694.5000 8.7767 8.4561 7.9388 83.0737 7.7499 0.0003 0.1879 4.7657 2.5080 40.7188 0.1625
6695.0000 8.9480 8.6633 8.1710 78.8249 7.7264 -0.0009 0.1889 4.8276 2.5008 40.7143 0.1688
6695.5000 8.9102 8.6328 8.1539 80.1372 7.7499 -0.0045 0.1717 4.9269 2.4752 40.9531 0.1771
6696.0000 9.2759 8.9924 8.5109 87.3545 7.7499 -0.0067 0.1708 4.9881 2.4567 41.6250 0.1672
6696.5000 9.8044 9.5290 8.9778 108.5996 7.7499 -0.0071 0.1827 4.9749 2.4466 43.0268 0.1688
6697.0000 10.4140 10.0865 9.5044 112.9733 7.7264 -0.0073 0.2142 4.9237 2.4466 43.8359 0.1743
6697.5000 10.5279 10.2672 9.6805 114.9731 7.7499 -0.0056 0.2034 4.8379 2.4606 43.8828 0.1942
6698.0000 10.6721 10.4746 9.7823 96.4777 7.7499 -0.0045 0.1816 4.8049 2.4732 44.5536 0.1818
6698.5000 10.6858 10.6404 10.0093 100.6328 7.7499 -0.0050 0.1710 4.8299 2.4716 47.0000 0.1684
6699.0000 10.1404 10.3284 9.7384 105.1318 7.7499 -0.0062 0.1781 4.7972 2.4677 49.3984 0.1674
