~VERSION INFORMATION
VERS.           1.2   :CWLS Log ASCII Standard - VERSION 1.2
WRAP.           NO    :One Line per depth step
PROD.  Schlumberger   :LAS Producer
PROG.  DLIS to ASCII 17C0-152                          :LAS Program name and version
CREA.        2013/10/06 02:44                          :LAS Creation date {YYYY/MM/DD hh:mm}
DLIS_CREA.  2013-Oct-05 16:22                          :DLIS Creation date and time {YYYY-MMM-DD hh:mm}
SOURCE.     563481d1-2dcb-47d9-a1d9-48f1ce5abb79       :DLIS File Name
#--------------------------------------------------
~WELL INFORMATION
#MNEM.UNIT      DATA             DESCRIPTION
#---- ------ --------------   -----------------------------
STRT .F      1000.5000       :START DEPTH        # original; data subset to 5500-8000
STOP .F      7736.0000       :STOP DEPTH        # original; data subset to 5500-8000
STEP .F       0.5000         :STEP       
NULL .          -999.25      :NULL VALUE
COMP .                 COMPANY:  Bear Oil & Gas, Inc.               
WELL .                    WELL:  Mattson 12-32                      
FLD  .                   FIELD:  Wildcat                            
LOC  .                LOCATION:  SWNW, Sec. 32, T16N, R60W          
CNTY .                  COUNTY:  Laramie                            
STAT .                   STATE:  Wyoming                            
CTRY .                 COUNTRY:                                     
SRVC .         SERVICE COMPANY:  Schlumberger                       
LATI .DEG             LATITUDE:  41.310000 degrees                  
LONG .DEG            LONGITUDE:  -104.15000 degrees                 
API  .              API NUMBER:  49-021-20933-0000                  
DATE .                LOG DATE:  05-Oct-2013
UWI  .          UNIQUE WELL ID:                                     
#-----------------------------------------------------------------------------
~PARAMETER INFORMATION
#MNEM.UNIT    VALUE                      DESCRIPTION
#---- -----   --------------------       ------------------------
CN   .        Bear Oil & Gas  Inc.       :Company Name
WN   .        Mattson 12-32              :Well Name
FN   .        Wildcat                    :Field Name
FL   .        SWNW  Sec. 32  T16N  R60W  :Field Location
FL1  .        SHL  2529' FNL X 605' FWL  :Field Location, Line 1
COUN .        Laramie                    :County or Parish
STAT .        Wyoming                    :State or Province
NATI .                                   :Nation
DATE .        05-Oct-2013                :Tools Above Rotary Table Date
APIN .        49-021-20933-0000          :API Well Number
SECT .        32                         :Section
TOWN .        16N                        :Township
RANG .        60W                        :Range
DMF  .        KB                         :Drilling Measured From (Name of Drilling Elevation Reference)
LMF  .        KB                         :Logging Measured From (Name of Logging Elevation Reference)
PDAT .        GL                         :Permanent Datum
ENGI .        Heather Hoffman            :Engineer s Name
WITN .        Terry Eitteim              :Witness s Name
LATI .        41.310000 degrees          :Latitude
LONG .        -104.15000 degrees         :Longitude
LUL  .        Ft. Morgan  CO             :Logging Unit Location
LUN  .        3022                       :Logging Unit Number
RUN  .        PEX AIT                    :Run Number
SON  .        CQQL-00002                 :Service Order Number
BHT  .DEGF     164.00000                 :Bottom Hole Temperature
BS   .IN         7.87500                 :Bit Size
MDEN .G/C3       2.65000                 :Matrix Density for Density Porosity
DFD  .LB/G       9.00000                 :Drilling Fluid Density
DFV  .S       -999.25000                 :Drilling Fluid Viscosity
DFL  .C3      -999.25000                 :Drilling Fluid Loss
RMFS .OHMM       0.94400                 :Resistivity of Mud Filtrate Sample
EKB  .F       5303.00000                 :Elevation of Kelly Bushing
EGL  .F       5291.00000                 :Elevation of Ground Level
BLI  .F       7708.00000                 :Bottom Log Interval
BSAL .PPM        0.00000                 :Borehole Salinity
FLEV .F          8.00000                 :Depth of Drilling Fluid Level to LMF (Log Measured From)
MCST .DEGF      68.00000                 :Mudcake Sample Temperature
MFST .DEGF      68.20000                 :Mud Filtrate Sample Temperature
MRT  .DEGF     164.00000                 :Maximum Recorded Temperature
MST  .DEGF      68.20000                 :Mud Sample Temperature
RMCS .OHMM       1.41600                 :Resistivity of Mud Cake Sample
RMS  .OHMM       1.18000                 :Resistivity of Mud Sample
RW   .OHMM       1.00000                 :Connate Water Resistivity
TDD  .F       7710.00000                 :Driller Total Depth
TDL  .F       7710.00000                 :Logger Total Depth
TLI  .F       1025.00000                 :Top Log Interval
HIDE .        Wildcat                    :Header Identifier
MATR .        SAND                       :Rock Matrix for Neutron Porosity Corrections
FNUM .           1.00000                 :F-Numerator for Formation Factor Formula
FEXP .           2.00000                 :Exponent "m" for Formation Factor Formula
DFT  .        WATER                      :Drilling Fluid Type
DFPH .        -999.25000                 :Drilling Fluid pH
MCSS .        Pressed                    :Mudcake Sample Source
MFSS .                                   :Mud Filtrate Sample Source
FD   .G/C3       1.00000                 :Fluid Density
MSS  .        Active Tank                :Mud Sample Source
OS1  .                                   :Other Services Line 1
OS2  .                                   :Other Services Line 2
OS3  .                                   :Other Services Line 3
OS4  .                                   :Other Services Line 4
OS5  .                                   :Other Services Line 5
R1   .                                   :Remarks Line 1
R2   .                                   :Remarks Line 2
R3   .                                   :Remarks Line 3
R4   .                                   :Remarks Line 4
R5   .                                   :Remarks Line 5
R6   .                                   :Remarks Line 6
R7   .                                   :Remarks Line 7
R8   .        This is the first run in hole. :Remarks Line 8
TCS  .        06 00 00                   :Time Circulation Stopped
TLAB .        15 16 28                   :Time Logger At Bottom
NMT  .        NOBARITE                   :HRDD Mud Type for Nuclear Devices
EPD  .C3         5291.000000             :Elevation of Permanent Datum above Mean Sea Level
APD  .F          12.000000               :Elevation of Depth Reference (LMF) above Permanent Datum
#-----------------------------------------------------------------------------
~CURVE INFORMATION
#MNEM.UNIT   API CODE                                  DESCRIPTION
#---- -----  --------                                  -----------------------
DEPT .F                                                :DEPTH (BOREHOLE) {F12.4}
AT10 .OHMM                                             :Array Induction Two Foot Resistivity A10 {F11.4}
AT30 .OHMM                                             :Array Induction Two Foot Resistivity A30 {F11.4}
AT90 .OHMM                                             :Array Induction Two Foot Resistivity A90 {F11.4}
GR   .GAPI                                             :Gamma Ray {F11.4}
HCAL .IN                                               :HRCC Caliper Calibrated {F11.4}
HDRA .G/C3                                             :Density Standoff Correction {F11.4}
NPHI .CFCF                                             :Thermal Neutron Porosity (original Ratio Method) in Selected Lithology {F11.4}
PEFZ .                                                 :Standard Resolution Formation Photoelectric Factor {F11.4}
RHOZ .G/C3                                             :Standard Resolution Formation Density {F11.4}
SP   .MV                                               :Spontaneous Potential {F11.4}
TNPH .CFCF                                             :Thermal Neutron Porosity (Ratio Method) in Selected Lithology {F11.4}
#-----------------------------------------------------------------------------
# 
#      DEPT        AF10       AF20       AF30       AF60       AF90       AO10       AO20       AO30       AO60       AO90       AT10       AT20       AT30       AT60       AT90     AHFCO60      AHMF      AHORT      AHORX      AHSCA     AHTCO10    AHTCO20    AHTCO30    AHTCO60    AHTCO90     AHTD1      AHTD2      AHTRT      AHTRX       CDF        CFTC       CNTC       CTEM       DCAL       DNPH       DPHZ       DSOZ       ECGR        ED        GDEV        GR      GR_EDTC      GTEM       HCAL       HDRA       HDRB       HGR        HMIN       HMNO       HNPO       HPRA       HTNP        ND        NPHI       NPOR       PEFZ    PXND_HILT     RHOZ       RSOZ     RWA_HILT     RXO8       RXOZ        SP        SPAR       STIT       TENS       TNPH     HTNP_SAN
#
~A  DEPT AT10 AT30 AT90 GR HCAL HDRA NPHI PEFZ RHOZ SP TNPH
# ...
6523.5000 3.1486 2.8897 2.8256 288.3683 7.7264 -0.0096 0.4558 3.9687 2.3407 64.2422 0.4227
6524.0000 2.7569 2.7058 2.6294 272.6548 7.7264 -0.0073 0.4714 3.7848 2.3342 64.3393 0.4481
6524.5000 2.4220 2.2898 2.2178 270.6864 7.7381 -0.0058 0.4969 3.5705 2.3308 64.3516 0.4800
6525.0000 2.3938 2.1945 2.1207 255.6908 7.7499 -0.0060 0.4723 3.4140 2.3312 64.4688 0.5055
6525.5000 2.6131 2.4617 2.3166 237.5381 7.7381 -0.0086 0.4732 3.3849 2.3298 64.5179 0.4660
6526.0000 2.8796 2.7283 2.5898 218.8244 7.7499 -0.0088 0.4457 3.4074 2.3310 64.5313 0.4567
6526.5000 2.8324 2.5824 2.4447 207.8582 7.7733 -0.0036 0.4330 3.4044 2.3210 64.3929 0.4441
6527.0000 2.2623 2.2078 2.0966 212.4512 7.7499 0.0221 0.4348 3.3904 2.3200 64.0703 0.4427
6527.5000 1.8679 1.7530 1.6923 221.9482 7.7733 0.0387 0.4150 3.3617 2.3127 63.9018 0.4509
6528.0000 1.9977 1.8562 1.8012 222.3850 7.8906 0.0378 0.4314 3.3150 2.3068 64.3203 0.4231
6528.5000 2.6564 2.4865 2.3795 206.4204 7.7499 0.0151 0.4208 3.3170 2.2926 64.5625 0.4305
6529.0000 3.2596 3.0135 2.8594 202.9206 7.7499 -0.0009 0.4381 3.3830 2.2873 64.5268 0.4011
6529.5000 3.5975 3.2324 3.1161 206.4205 7.7499 -0.0038 0.4513 3.5126 2.3027 64.3828 0.4172
6530.0000 3.6230 3.4041 3.2421 221.1662 7.7499 -0.0047 0.4523 3.6245 2.3223 64.0625 0.4356
6530.5000 3.2006 3.0531 2.9365 218.3550 7.7499 -0.0032 0.4437 3.6346 2.3519 63.2232 0.4586
6531.0000 3.0197 2.7368 2.6646 216.8233 7.7733 -0.0001 0.4376 3.5981 2.3706 64.4844 0.4450
6531.5000 2.7344 2.6035 2.5167 207.0763 7.7499 0.0021 0.4575 3.4449 2.3621 65.0268 0.4392
6532.0000 2.3887 2.3957 2.3086 195.9227 7.7499 0.0131 0.4483 3.3141 2.3522 64.7422 0.4506
6532.5000 2.1082 2.0068 1.9593 177.4899 7.7733 0.0135 0.4149 3.1109 2.3352 63.6875 0.4335
6533.0000 2.2515 2.0526 1.9855 163.9613 7.7499 0.0125 0.3961 2.9756 2.3368 64.0536 0.3925
6533.5000 2.4194 2.3202 2.1798 159.3686 7.7616 0.0034 0.3783 2.8845 2.3304 63.8594 0.3818
6534.0000 2.3098 2.2156 2.0957 157.8692 7.7733 0.0138 0.3951 2.9012 2.3433 63.7656 0.3746
6534.5000 2.2264 2.1400 2.0273 171.4280 7.7968 0.0150 0.4027 2.9170 2.3363 63.7679 0.3995
6535.0000 2.4863 2.3841 2.2478 191.7361 7.7733 0.0147 0.3991 2.9908 2.3430 63.9219 0.3952
6535.5000 2.9494 2.7932 2.5347 213.6368 7.7733 0.0022 0.3853 3.0720 2.3386 64.0234 0.3775
6536.0000 3.6573 3.1719 2.9272 214.9500 7.7499 0.0030 0.3797 3.1802 2.3559 63.9911 0.3709
6536.5000 2.9736 2.8031 2.5929 214.6990 7.7499 0.0075 0.3805 3.1866 2.3568 63.9609 0.3765
6537.0000 2.4744 2.2073 2.1319 198.2973 7.7733 0.0161 0.3657 3.1223 2.3667 63.6518 0.3656
6537.5000 2.1072 1.9569 1.8769 189.9551 7.7499 0.0137 0.3352 3.0067 2.3665 63.5000 0.3397
6538.0000 2.4135 2.1548 1.9342 164.2117 7.7499 0.0036 0.3579 2.9728 2.3708 63.7422 0.3097
6538.5000 2.9092 2.6068 2.3758 163.9929 7.7733 -0.0071 0.3523 2.9867 2.3628 63.9531 0.3371
6539.0000 2.3935 1.9091 1.7384 162.7429 7.7968 -0.0073 0.3578 2.9844 2.3294 63.7679 0.3497
6539.5000 1.1925 1.1729 1.1171 169.7417 7.8202 -0.0032 0.3791 2.8551 2.2698 63.1641 0.3785
6540.0000 0.7482 0.7102 0.6872 176.5209 7.8437 -0.0019 0.4012 2.7146 2.2194 62.6016 0.3984
6540.5000 0.7392 0.7324 0.7069 190.2680 7.8788 -0.0032 0.4006 2.7308 2.2304 62.8571 0.3817
6541.0000 1.2527 1.1948 1.0996 217.8236 7.7264 -0.0046 0.3602 3.0127 2.2839 63.3750 0.3682
6541.5000 2.4188 2.0918 1.8109 236.2573 7.7381 -0.0041 0.3866 3.5210 2.3202 63.4609 0.3723
6542.0000 3.3978 2.6373 2.3102 258.1265 7.7030 -0.0009 0.4235 4.0726 2.3272 63.5625 0.4113
6542.5000 3.9594 2.9345 2.6388 283.0587 7.7264 -0.0027 0.4644 4.5008 2.3184 63.7578 0.4476
6543.0000 3.6992 2.9127 2.6619 308.3036 7.7030 -0.0029 0.4415 4.6774 2.3330 63.9219 0.4733
6543.5000 3.1863 2.7272 2.5849 368.0089 7.7264 -0.0057 0.4265 4.7080 2.3540 63.7500 0.4277
6544.0000 2.8129 2.5414 2.4473 418.9649 7.7030 -0.0062 0.4003 4.6764 2.3762 63.3047 0.4103
6544.5000 2.6000 2.4380 2.3885 463.9528 7.7030 -0.0078 0.3861 4.5165 2.4033 62.6797 0.3859
6545.0000 2.4641 2.3936 2.3874 438.5847 7.7264 -0.0053 0.3811 4.1284 2.4098 62.4196 0.3700
6545.5000 2.2026 2.1047 2.0800 368.6308 7.7499 0.0196 0.3917 3.6433 2.3970 62.5234 0.3615
6546.0000 1.6048 1.4970 1.4604 296.1487 7.7499 0.0544 0.4395 3.2997 2.3784 62.3281 0.3799
6546.5000 1.3390 1.3180 1.2873 253.0644 7.8906 0.0594 0.4376 3.1538 2.3544 62.3036 0.4002
6547.0000 1.9120 1.7864 1.7148 241.3188 7.9023 0.0372 0.4034 3.2543 2.3619 62.5234 0.3863
6547.5000 3.0831 2.9189 2.6390 237.8189 7.7499 0.0052 0.3453 3.5489 2.3738 62.6406 0.3575
6548.0000 5.5305 4.7180 4.0827 231.6953 7.6795 0.0014 0.3354 3.8843 2.4048 62.7232 0.3302
6548.5000 4.9410 4.7980 4.2677 225.0410 7.7030 0.0060 0.3433 4.0358 2.4248 62.5703 0.3285
6549.0000 3.4406 3.2148 3.0093 206.2328 7.6795 0.0086 0.3245 3.9246 2.4333 62.5714 0.3368
6549.5000 2.9757 2.8937 2.7686 191.9866 7.6443 0.0050 0.3214 3.7924 2.4303 62.4609 0.3139
6550.0000 3.3674 3.3256 3.2646 186.5174 7.6795 -0.0002 0.3392 3.6826 2.4141 62.4766 0.3090
6550.5000 3.2989 3.2677 3.1491 200.3273 7.5974 -0.0022 0.3769 3.6603 2.3945 62.3594 0.3434
6551.0000 3.0608 3.0110 2.9189 208.2318 7.7264 0.0021 0.3490 3.7066 2.3940 61.9107 0.3750
6551.5000 3.0494 3.0193 2.9433 215.8871 7.7264 0.0048 0.3265 3.8415 2.4045 61.3984 0.3143
6552.0000 3.1789 3.0354 2.9619 225.1349 7.7264 0.0038 0.2971 3.9795 2.4097 61.1607 0.3009
6552.5000 4.4783 4.2629 4.0872 225.5719 7.7264 0.0004 0.3134 4.0791 2.4153 60.9219 0.2808
6553.0000 6.9371 6.8399 6.2930 226.8840 7.7147 -0.0032 0.3125 4.1722 2.4119 60.7344 0.2790
6553.5000 8.6862 8.8456 8.2754 218.6352 7.7264 0.0039 0.3016 4.2642 2.4135 60.9375 0.2807
6554.0000 8.2676 8.4047 7.8231 219.9478 7.7264 0.0023 0.2777 4.3099 2.4088 61.1563 0.2793
6554.5000 6.9522 7.0276 6.6474 212.8565 7.7381 0.0029 0.2695 4.1958 2.4164 61.3125 0.2752
6555.0000 5.9537 5.7368 5.5370 209.2013 7.7499 -0.0046 0.2944 4.0418 2.4241 61.6964 0.2746
6555.5000 5.1362 5.1487 4.9806 205.4833 7.7499 -0.0012 0.3426 3.9221 2.4295 61.9297 0.2928
6556.0000 4.3174 4.6676 4.6415 208.7332 7.7499 0.0024 0.3555 3.9362 2.4282 61.6875 0.3276
6556.5000 3.8313 3.7604 3.7835 208.0774 7.7499 0.0049 0.3528 4.0562 2.4289 61.4018 0.3327
6557.0000 3.5947 3.4992 3.3562 216.6373 7.6443 0.0084 0.3287 4.2382 2.4482 61.1250 0.3223
6557.5000 4.2642 3.8911 3.7529 211.0749 7.7733 0.0050 0.3046 4.4377 2.4527 60.7031 0.2997
6558.0000 5.1718 4.9300 4.6587 199.9212 7.7264 0.0032 0.2851 4.5922 2.4549 59.6875 0.2751
6558.5000 6.5543 6.2786 5.6928 178.9269 7.7499 -0.0040 0.2579 4.6503 2.4453 59.0234 0.2570
6559.0000 8.1860 7.8462 7.1030 168.8668 7.7264 -0.0052 0.2434 4.6254 2.4527 58.4911 0.2421
6559.5000 7.7477 7.1299 6.6039 172.5849 7.7499 -0.0061 0.2407 4.5521 2.4687 58.1172 0.2380
6560.0000 6.7801 6.5619 6.1326 188.0801 7.7499 -0.0032 0.2563 4.5042 2.4835 58.2891 0.2352
6560.5000 6.1403 5.9394 5.5691 209.7322 7.7499 -0.0017 0.2760 4.5220 2.4893 58.6786 0.2502
6561.0000 5.5931 5.5032 5.1960 220.7283 7.7733 -0.0020 0.2874 4.5994 2.4861 58.5859 0.2669
6561.5000 6.1414 5.9451 5.5617 220.5109 7.7264 -0.0025 0.2944 4.6977 2.4809 57.5000 0.2567
6562.0000 6.8916 6.6449 6.1867 202.7953 7.7030 -0.0035 0.2782 4.8257 2.4758 56.2857 0.2588
6562.5000 7.4802 7.0533 6.4795 176.3025 7.7264 0.0025 0.2458 4.9403 2.4744 54.1328 0.2452
6563.0000 7.7255 7.3157 6.7172 160.5558 7.7499 0.0018 0.2316 5.0488 2.4696 51.9844 0.2163
6563.5000 7.6212 7.2397 6.5962 162.2436 7.7381 0.0077 0.2277 5.0184 2.4678 52.7054 0.2202
6564.0000 7.5388 7.1637 6.6136 183.8640 7.7499 -0.0000 0.2495 4.9704 2.4580 52.7500 0.2235
6564.5000 7.4222 7.0309 6.5215 181.4578 7.7499 -0.0007 0.2328 4.8774 2.4582 52.2589 0.2367
6565.0000 7.0642 7.0672 6.6206 175.9594 7.7616 -0.0068 0.2541 4.8583 2.4623 52.0391 0.2190
6565.5000 6.4736 6.3069 5.8803 158.4624 7.7499 -0.0065 0.2443 4.8700 2.4723 51.5703 0.2328
6566.0000 6.5195 6.1181 5.7416 148.8406 7.7499 -0.0046 0.2382 4.8698 2.4830 50.1964 0.2148
6566.5000 7.2991 6.8923 6.3122 154.0886 7.7499 -0.0036 0.2258 4.8584 2.4857 48.7656 0.2079
6567.0000 7.7411 7.4313 6.8203 159.9936 7.7499 -0.0048 0.2389 4.8347 2.4773 48.6641 0.2114
6567.5000 8.1587 7.8050 7.1750 172.7406 7.7616 -0.0075 0.2537 4.8211 2.4644 47.7232 0.2309
