~VERSION INFORMATION
VERS.           1.2   :CWLS Log ASCII Standard - VERSION 1.2
WRAP.           NO    :One Line per depth step
PROD.  Schlumberger   :LAS Producer
PROG.  DLIS to ASCII 17C0-152                          :LAS Program name and version
CREA.        2013/10/06 02:44                          :LAS Creation date {YYYY/MM/DD hh:mm}
DLIS_CREA.  2013-Oct-05 16:22                          :DLIS Creation date and time {YYYY-MMM-DD hh:mm}
SOURCE.     563481d1-2dcb-47d9-a1d9-48f1ce5abb79       :DLIS File Name
#--------------------------------------------------
~WELL INFORMATION
#MNEM.UNIT      DATA             DESCRIPTION
#---- ------ --------------   -----------------------------
STRT .F      1000.5000       :START DEPTH        # original; data subset to 5500-8000
STOP .F      7736.0000       :STOP DEPTH        # original; data subset to 5500-8000
STEP .F       0.5000         :STEP       
NULL .          -999.25      :NULL VALUE
COMP .                 COMPANY:  Bear Oil & Gas, Inc.               
WELL .                    WELL:  Mattson 12-32                      
FLD  .                   FIELD:  Wildcat                            
LOC  .                LOCATION:  SWNW, Sec. 32, T16N, R60W          
CNTY .                  COUNTY:  Laramie                            
STAT .                   STATE:  Wyoming                            
CTRY .                 COUNTRY:                                     
SRVC .         SERVICE COMPANY:  Schlumberger                       
LATI .DEG             LATITUDE:  41.310000 degrees                  
LONG .DEG            LONGITUDE:  -104.15000 degrees                 
API  .              API NUMBER:  49-021-20933-0000                  
DATE .                LOG DATE:  05-Oct-2013
UWI  .          UNIQUE WELL ID:                                     
#-----------------------------------------------------------------------------
~PARAMETER INFORMATION
#MNEM.UNIT    VALUE                      DESCRIPTION
#---- -----   --------------------       ------------------------
CN   .        Bear Oil & Gas  Inc.       :Company Name
WN   .        Mattson 12-32              :Well Name
FN   .        Wildcat                    :Field Name
FL   .        SWNW  Sec. 32  T16N  R60W  :Field Location
FL1  .        SHL  2529' FNL X 605' FWL  :Field Location, Line 1
COUN .        Laramie                    :County or Parish
STAT .        Wyoming                    :State or Province
NATI .                                   :Nation
DATE .        05-Oct-2013                :Tools Above Rotary Table Date
APIN .        49-021-20933-0000          :API Well Number
SECT .        32                         :Section
TOWN .        16N                        :Township
RANG .        60W                        :Range
DMF  .        KB                         :Drilling Measured From (Name of Drilling Elevation Reference)
LMF  .        KB                         :Logging Measured From (Name of Logging Elevation Reference)
PDAT .        GL                         :Permanent Datum
ENGI .        Heather Hoffman            :Engineer s Name
WITN .        Terry Eitteim              :Witness s Name
LATI .        41.310000 degrees          :Latitude
LONG .        -104.15000 degrees         :Longitude
LUL  .        Ft. Morgan  CO             :Logging Unit Location
LUN  .        3022                       :Logging Unit Number
RUN  .        PEX AIT                    :Run Number
SON  .        CQQL-00002                 :Service Order Number
BHT  .DEGF     164.00000                 :Bottom Hole Temperature
BS   .IN         7.87500                 :Bit Size
MDEN .G/C3       2.65000                 :Matrix Density for Density Porosity
DFD  .LB/G       9.00000                 :Drilling Fluid Density
DFV  .S       -999.25000                 :Drilling Fluid Viscosity
DFL  .C3      -999.25000                 :Drilling Fluid Loss
RMFS .OHMM       0.94400                 :Resistivity of Mud Filtrate Sample
EKB  .F       5303.00000                 :Elevation of Kelly Bushing
EGL  .F       5291.00000                 :Elevation of Ground Level
BLI  .F       7708.00000                 :Bottom Log Interval
BSAL .PPM        0.00000                 :Borehole Salinity
FLEV .F          8.00000                 :Depth of Drilling Fluid Level to LMF (Log Measured From)
MCST .DEGF      68.00000                 :Mudcake Sample Temperature
MFST .DEGF      68.20000                 :Mud Filtrate Sample Temperature
MRT  .DEGF     164.00000                 :Maximum Recorded Temperature
MST  .DEGF      68.20000                 :Mud Sample Temperature
RMCS .OHMM       1.41600                 :Resistivity of Mud Cake Sample
RMS  .OHMM       1.18000                 :Resistivity of Mud Sample
RW   .OHMM       1.00000                 :Connate Water Resistivity
TDD  .F       7710.00000                 :Driller Total Depth
TDL  .F       7710.00000                 :Logger Total Depth
TLI  .F       1025.00000                 :Top Log Interval
HIDE .        Wildcat                    :Header Identifier
MATR .        SAND                       :Rock Matrix for Neutron Porosity Corrections
FNUM .           1.00000                 :F-Numerator for Formation Factor Formula
FEXP .           2.00000                 :Exponent "m" for Formation Factor Formula
DFT  .        WATER                      :Drilling Fluid Type
DFPH .        -999.25000                 :Drilling Fluid pH
MCSS .        Pressed                    :Mudcake Sample Source
MFSS .                                   :Mud Filtrate Sample Source
FD   .G/C3       1.00000                 :Fluid Density
MSS  .        Active Tank                :Mud Sample Source
OS1  .                                   :Other Services Line 1
OS2  .                                   :Other Services Line 2
OS3  .                                   :Other Services Line 3
OS4  .                                   :Other Services Line 4
OS5  .                                   :Other Services Line 5
R1   .                                   :Remarks Line 1
R2   .                                   :Remarks Line 2
R3   .                                   :Remarks Line 3
R4   .                                   :Remarks Line 4
R5   .                                   :Remarks Line 5
R6   .                                   :Remarks Line 6
R7   .                                   :Remarks Line 7
R8   .        This is the first run in hole. :Remarks Line 8
TCS  .        06 00 00                   :Time Circulation Stopped
TLAB .        15 16 28                   :Time Logger At Bottom
NMT  .        NOBARITE                   :HRDD Mud Type for Nuclear Devices
EPD  .C3         5291.000000             :Elevation of Permanent Datum above Mean Sea Level
APD  .F          12.000000               :Elevation of Depth Reference (LMF) above Permanent Datum
#-----------------------------------------------------------------------------
~CURVE INFORMATION
#MNEM.UNIT   API CODE                                  DESCRIPTION
#---- -----  --------                                  -----------------------
DEPT .F                                                :DEPTH (BOREHOLE) {F12.4}
AT10 .OHMM                                             :Array Induction Two Foot Resistivity A10 {F11.4}
AT30 .OHMM                                             :Array Induction Two Foot Resistivity A30 {F11.4}
AT90 .OHMM                                             :Array Induction Two Foot Resistivity A90 {F11.4}
GR   .GAPI                                             :Gamma Ray {F11.4}
HCAL .IN                                               :HRCC Caliper Calibrated {F11.4}
HDRA .G/C3                                             :Density Standoff Correction {F11.4}
NPHI .CFCF                                             :Thermal Neutron Porosity (original Ratio Method) in Selected Lithology {F11.4}
PEFZ .                                                 :Standard Resolution Formation Photoelectric Factor {F11.4}
RHOZ .G/C3                                             :Standard Resolution Formation Density {F11.4}
SP   .MV                                               :Spontaneous Potential {F11.4}
TNPH .CFCF                                             :Thermal Neutron Porosity (Ratio Method) in Selected Lithology {F11.4}
#-----------------------------------------------------------------------------
# 
#      DEPT        AF10       AF20       AF30       AF60       AF90       AO10       AO20       AO30       AO60       AO90       AT10       AT20       AT30       AT60       AT90     AHFCO60      AHMF      AHORT      AHORX      AHSCA     AHTCO10    AHTCO20    AHTCO30    AHTCO60    AHTCO90     AHTD1      AHTD2      AHTRT      AHTRX       CDF        CFTC       CNTC       CTEM       DCAL       DNPH       DPHZ       DSOZ       ECGR        ED        GDEV        GR      GR_EDTC      GTEM       HCAL       HDRA       HDRB       HGR        HMIN       HMNO       HNPO       HPRA       HTNP        ND        NPHI       NPOR       PEFZ    PXND_HILT     RHOZ       RSOZ     RWA_HILT     RXO8       RXOZ        SP        SPAR       STIT       TENS       TNPH     HTNP_SAN
#
~A  DEPT AT10 AT30 AT90 GR HCAL HDRA NPHI PEFZ RHOZ SP TNPH
# ...
7678.0000 3.9217 3.4647 3.3965 110.6612 7.5740 -0.0012 0.2788 2.9838 2.5597 71.6394 0.2832
7678.5000 4.0030 3.4985 3.5065 116.2847 7.6326 -0.0019 0.2642 3.0826 2.5601 71.7500 0.2732
7679.0000 4.1031 3.7792 3.7365 113.7230 7.6443 0.0000 0.2690 3.1172 2.5626 71.8702 0.2682
7679.5000 4.0523 3.8893 3.9002 115.0975 7.5857 0.0016 0.2593 3.0666 2.5668 71.7212 0.2648
7680.0000 3.5201 3.4284 3.3893 113.5355 7.5974 0.0025 0.2625 3.0011 2.5664 71.4135 0.2595
7680.5000 3.0819 2.8511 2.9185 116.5973 7.6092 0.0021 0.2945 2.9287 2.5520 71.5962 0.2727
7681.0000 2.6651 2.4957 2.4934 114.7228 7.6326 0.0024 0.3249 2.8741 2.5384 71.9087 0.2988
7681.5000 2.9211 2.6017 2.5520 114.4103 7.6561 0.0020 0.3242 2.8534 2.5277 72.1058 0.3110
7682.0000 3.3666 2.9791 2.7901 113.3481 7.6013 0.0046 0.2993 2.8849 2.5322 72.0000 0.2909
7682.5000 3.4572 3.1283 2.8797 113.0983 7.5857 0.0136 0.2780 2.9355 2.5657 71.9327 0.2648
7683.0000 3.5068 3.1436 2.8649 116.1601 7.5271 0.0197 0.2635 2.9415 2.5970 71.8990 0.2532
7683.5000 3.6633 3.3354 2.8438 112.2165 7.6092 0.0160 0.2495 2.8768 2.6060 71.5670 0.2422
7684.0000 4.0054 3.6758 3.0988 111.1380 7.6561 0.0065 0.2201 2.8235 2.5928 71.1731 0.2324
7684.5000 4.5062 4.1286 3.5012 107.9559 7.5740 0.0018 0.2036 2.8186 2.5854 71.0577 0.2214
7685.0000 3.9457 3.6027 3.2461 111.6495 7.6092 0.0043 0.1973 2.8594 2.5813 70.9663 0.2213
7685.5000 2.7523 2.5874 2.4263 117.9997 7.5623 0.0069 0.2037 2.8624 2.5586 71.1490 0.2317
7686.0000 2.1185 2.0524 1.9906 119.8141 7.5544 0.0089 0.2079 2.8257 2.5288 70.9375 0.2335
7686.5000 1.8733 1.7713 1.7814 117.8054 7.5388 0.0095 0.2108 2.7877 2.5028 70.8798 0.2122
7687.0000 1.8003 1.7338 1.7453 115.4725 7.4919 0.0090 0.2163 2.7691 2.4909 71.0481 0.2057
7687.5000 1.8260 1.8284 1.8495 114.8893 7.5388 0.0076 0.2135 2.7880 2.4878 70.9808 0.2090
7688.0000 1.9415 1.9251 1.9601 115.1486 7.5154 0.0068 0.2101 2.7962 2.5009 70.8654 0.2066
7688.5000 2.1177 2.0458 2.0905 112.3622 7.5505 0.0056 0.2060 2.7892 2.5138 70.6875 0.2050
7689.0000 2.2913 2.2031 2.2236 108.9152 7.5388 0.0028 0.2148 2.8014 2.5076 70.9196 0.2036
7689.5000 2.3526 2.2575 2.2689 113.1272 7.5154 0.0006 0.2185 2.8033 2.4899 71.0288 0.2065
7690.0000 2.3588 2.2747 2.2823 113.8401 7.5154 0.0019 0.2171 2.8326 2.4881 70.9856 0.2070
7690.5000 2.8862 2.7271 2.7427 114.7823 7.4919 0.0028 0.2133 2.8293 2.5097 70.7788 0.2077
7691.0000 3.6227 3.5764 3.5290 113.7453 7.5271 0.0026 0.2125 2.8682 2.5408 71.2115 0.2065
7691.5000 3.9771 4.0286 3.9679 114.5230 7.4919 0.0001 0.2151 2.8913 2.5566 70.9038 0.2080
7692.0000 3.7394 3.8096 3.7825 117.9549 7.4763 -0.0010 0.2157 2.8950 2.5638 70.9598 0.2076
7692.5000 3.7384 3.5895 3.6311 115.5574 7.5154 -0.0016 0.2164 2.8763 2.5684 70.7885 0.2078
7693.0000 3.9381 3.6326 3.5283 116.9831 7.4802 -0.0020 0.2179 2.8798 2.5758 70.5433 0.2096
7693.5000 4.0518 3.9237 3.7350 116.3799 7.4841 -0.0013 0.2146 2.8868 2.5829 70.9808 0.2098
7694.0000 3.8212 3.7684 3.6253 118.3887 7.4763 0.0017 0.2131 2.9049 2.5894 70.9904 0.2063
7694.5000 3.1701 3.1656 3.0625 116.5094 7.4763 0.0044 0.2100 2.9038 2.5883 70.9286 0.2067
7695.0000 2.7329 2.6547 2.5839 115.0839 7.4997 0.0103 0.2124 2.9264 2.5883 70.7644 0.2056
7695.5000 2.3600 2.2826 2.1935 112.6214 7.4997 0.0168 0.2046 2.9358 2.5835 70.7452 0.2066
7696.0000 2.1868 2.1708 2.1028 113.0101 7.4860 0.0194 0.2055 2.9471 2.5765 70.6923 0.1981
7696.5000 2.2522 2.2171 2.1404 113.3989 7.4778 0.0158 0.2083 2.9498 2.5665 70.5000 0.1975
7697.0000 2.5576 2.4394 2.3476 116.8982 7.4450 0.0082 0.2147 2.9303 2.5624 70.3702 0.2003
7697.5000 2.8862 2.7129 2.6053 117.8192 7.4450 0.0047 0.2157 2.8848 2.5676 70.3990 0.2037
7698.0000 3.0062 2.8612 2.7405 119.5961 7.4262 0.0027 0.2060 2.8325 2.5677 70.3894 0.2078
7698.5000 2.7076 2.6760 2.5927 130.2945 7.4216 0.0038 0.2037 2.8163 2.5678 70.7098 0.2009
7699.0000 2.5809 2.5062 2.4724 130.2945 7.4216 0.0106 0.2023 2.8464 2.5759 70.6971 0.1963
7699.5000 2.4293 2.4235 2.3654 130.2945 7.4216 0.0157 0.2125 2.8912 2.5856 70.6827 0.1939
7700.0000 2.5033 2.5119 2.4585 130.2945 7.4169 0.0235 0.2144 2.9391 2.5996 70.5865 0.2014
7700.5000 2.6594 2.6838 2.6230 130.2945 7.4216 0.0285 0.2186 2.9758 2.6055 70.4183 0.2054
7701.0000 2.8905 2.8832 2.8217 130.2945 7.4169 0.0336 0.2151 2.9951 2.6122 70.4911 0.2116
7701.5000 3.1437 3.1732 3.0855 130.2945 7.4028 0.0381 0.2214 2.9902 2.6121 70.4808 0.2098
7702.0000 3.3433 3.4025 3.3486 130.2945 7.4157 0.0349 0.2206 2.9640 2.6021 70.1683 0.2127
7702.5000 3.2047 3.0061 3.0068 130.2945 7.4122 0.0404 0.2202 2.9429 2.6048 69.4375 0.2101
7703.0000 2.5156 2.5807 2.6058 130.2945 7.4075 0.0343 0.2145 2.9177 2.5960 69.3990 0.2098
7703.5000 2.1490 2.2010 2.2386 130.2945 7.3981 0.0280 0.2080 2.8998 2.5893 69.6779 0.2078
7704.0000 1.8735 1.9619 1.9626 130.2945 7.4040 0.0182 0.2027 2.8893 2.5786 70.0536 0.2032
7704.5000 1.8579 1.9112 1.9244 130.2945 7.4040 0.0196 0.2027 2.9015 2.5847 70.0529 0.1993
7705.0000 2.0562 2.1016 2.0906 130.2945 7.3981 0.0241 0.2027 2.9205 2.5902 70.4567 -5404.8525
7705.5000 2.6286 2.5609 2.5446 130.2945 7.3981 0.0321 0.2027 2.9448 2.5975 70.3365 -999.2500
7706.0000 3.5152 3.5409 3.3516 130.2945 7.3922 0.0346 0.2027 2.9548 2.5948 70.2308 -999.2500
7706.5000 4.4925 4.4302 3.8864 130.2945 7.3922 0.0399 0.2027 2.9585 2.6031 70.3259 -999.2500
7707.0000 4.3489 4.2607 3.8884 130.2945 7.3922 0.0412 0.2027 2.9461 2.6105 69.7644 -999.2500
7707.5000 4.2408 4.0444 3.6146 130.2945 7.3922 0.0413 0.2027 2.9357 2.6173 69.6298 -999.2500
7708.0000 3.6085 3.3581 3.0691 130.2945 7.3887 0.0377 0.2027 2.9292 2.6115 70.2260 -999.2500
7708.5000 3.1709 3.0168 2.6674 130.2945 7.3864 0.0263 0.2027 2.9305 2.5894 70.1250 -999.2500
7709.0000 2.8931 2.8831 2.6252 130.2945 7.3922 0.0208 0.2027 2.9338 2.5736 69.8795 -999.2500
7709.5000 2.7917 2.7909 2.5658 130.2945 7.3934 0.0285 0.2027 2.9388 2.5845 69.5083 -999.2500
7710.0000 2.7166 2.6842 2.4524 130.2945 7.3864 0.0408 0.2027 2.9383 2.6047 69.8375 -999.2500
7710.5000 2.7561 2.5452 2.3060 130.2945 7.3805 0.0488 0.2027 2.9341 2.6170 70.3500 -999.2500
7711.0000 2.7843 2.5498 2.2731 130.2945 7.3887 0.0490 0.2027 2.9322 2.6153 70.5625 -999.2500
7711.5000 2.8091 2.6092 2.3087 130.2945 7.3864 0.0530 0.2027 2.9299 2.6166 70.2132 -999.2500
7712.0000 2.8254 2.6299 2.3516 130.2945 7.3793 0.0562 0.2027 2.9262 2.6213 69.5451 -999.2500
7712.5000 2.8314 2.6411 2.3863 130.2945 7.3887 -5398.7539 0.2027 -5411.3596 -5410.0366 69.4638 -999.2500
7713.0000 2.8278 2.6657 2.4153 130.2945 7.3864 -999.2500 0.2027 -999.2500 -999.2500 69.2007 -999.2500
7713.5000 2.8120 2.6813 2.4359 130.2945 7.3864 -999.2500 0.2027 -999.2500 -999.2500 69.3631 -999.2500
7714.0000 2.7966 2.6866 2.4484 130.2945 7.3981 -999.2500 0.2027 -999.2500 -999.2500 69.0952 -999.2500
7714.5000 2.7878 2.6786 2.4440 130.2945 7.4028 -999.2500 0.2027 -999.2500 -999.2500 69.0824 -999.2500
7715.0000 2.7812 2.6812 2.4419 130.2945 7.3840 -999.2500 0.2027 -999.2500 -999.2500 69.2586 -999.2500
7715.5000 2.7813 2.6810 2.4388 130.2945 7.3922 -999.2500 0.2027 -999.2500 -999.2500 69.0313 -999.2500
7716.0000 2.7826 2.6799 2.4382 130.2945 7.3805 -999.2500 0.2027 -999.2500 -999.2500 68.4576 -999.2500
7716.5000 2.7791 2.6778 2.4360 130.2945 6.4929 -999.2500 0.2027 -999.2500 -999.2500 68.3728 -999.2500
7717.0000 2.7806 2.6774 2.4359 130.2945 6.4894 -999.2500 0.2027 -999.2500 -999.2500 67.9018 -999.2500
7717.5000 2.7801 2.6782 2.4369 130.2945 6.4953 -999.2500 0.2027 -999.2500 -999.2500 67.5129 -999.2500
7718.0000 2.7793 2.6779 2.4378 130.2945 6.4953 -999.2500 0.2027 -999.2500 -999.2500 66.8527 -999.2500
7718.5000 2.7780 2.6775 2.4396 130.2945 6.4953 -999.2500 0.2027 -999.2500 -999.2500 67.0000 -999.2500
7719.0000 2.7788 2.6769 2.4389 130.2945 6.4953 -999.2500 0.2027 -999.2500 -999.2500 67.1272 -999.2500
7719.5000 2.7781 2.6798 2.4413 130.2945 6.4953 -999.2500 0.2027 -999.2500 -999.2500 66.4531 -999.2500
7720.0000 2.7794 2.6832 2.4438 130.2945 6.4953 -999.2500 0.2027 -999.2500 -999.2500 65.8862 -999.2500
7720.5000 2.7786 2.6819 2.4430 130.2945 6.4953 -999.2500 0.2027 -999.2500 -999.2500 65.6065 -999.2500
7721.0000 2.7772 2.6804 2.4421 130.2945 6.4953 -999.2500 0.2027 -999.2500 -999.2500 65.8170 -999.2500
