~VERSION INFORMATION
VERS.           1.2   :CWLS Log ASCII Standard - VERSION 1.2
WRAP.           NO    :One Line per depth step
PROD.  Schlumberger   :LAS Producer
PROG.  DLIS to ASCII 17C0-152                          :LAS Program name and version
CREA.        2013/10/06 02:44                          :LAS Creation date {YYYY/MM/DD hh:mm}
DLIS_CREA.  2013-Oct-05 16:22                          :DLIS Creation date and time {YYYY-MMM-DD hh:mm}
SOURCE.     563481d1-2dcb-47d9-a1d9-48f1ce5abb79       :DLIS File Name
#--------------------------------------------------
~WELL INFORMATION
#MNEM.UNIT      DATA             DESCRIPTION
#---- ------ --------------   -----------------------------
STRT .F      1000.5000       :START DEPTH        # original; data subset to 5500-8000
STOP .F      7736.0000       :STOP DEPTH        # original; data subset to 5500-8000
STEP .F       0.5000         :STEP       
NULL .          -999.25      :NULL VALUE
COMP .                 COMPANY:  Bear Oil & Gas, Inc.               
WELL .                    WELL:  Mattson 12-32                      
FLD  .                   FIELD:  Wildcat                            
LOC  .                LOCATION:  SWNW, Sec. 32, T16N, R60W          
CNTY .                  COUNTY:  Laramie                            
STAT .                   STATE:  Wyoming                            
CTRY .                 COUNTRY:                                     
SRVC .         SERVICE COMPANY:  Schlumberger                       
LATI .DEG             LATITUDE:  41.310000 degrees                  
LONG .DEG            LONGITUDE:  -104.15000 degrees                 
API  .              API NUMBER:  49-021-20933-0000                  
DATE .                LOG DATE:  05-Oct-2013
UWI  .          UNIQUE WELL ID:                                     
#-----------------------------------------------------------------------------
~PARAMETER INFORMATION
#MNEM.UNIT    VALUE                      DESCRIPTION
#---- -----   --------------------       ------------------------
CN   .        Bear Oil & Gas  Inc.       :Company Name
WN   .        Mattson 12-32              :Well Name
FN   .        Wildcat                    :Field Name
FL   .        SWNW  Sec. 32  T16N  R60W  :Field Location
FL1  .        SHL  2529' FNL X 605' FWL  :Field Location, Line 1
COUN .        Laramie                    :County or Parish
STAT .        Wyoming                    :State or Province
NATI .                                   :Nation
DATE .        05-Oct-2013                :Tools Above Rotary Table Date
APIN .        49-021-20933-0000          :API Well Number
SECT .        32                         :Section
TOWN .        16N                        :Township
RANG .        60W                        :Range
DMF  .        KB                         :Drilling Measured From (Name of Drilling Elevation Reference)
LMF  .        KB                         :Logging Measured From (Name of Logging Elevation Reference)
PDAT .        GL                         :Permanent Datum
ENGI .        Heather Hoffman            :Engineer s Name
WITN .        Terry Eitteim              :Witness s Name
LATI .        41.310000 degrees          :Latitude
LONG .        -104.15000 degrees         :Longitude
LUL  .        Ft. Morgan  CO             :Logging Unit Location
LUN  .        3022                       :Logging Unit Number
RUN  .        PEX AIT                    :Run Number
SON  .        CQQL-00002                 :Service Order Number
BHT  .DEGF     164.00000                 :Bottom Hole Temperature
BS   .IN         7.87500                 :Bit Size
MDEN .G/C3       2.65000                 :Matrix Density for Density Porosity
DFD  .LB/G       9.00000                 :Drilling Fluid Density
DFV  .S       -999.25000                 :Drilling Fluid Viscosity
DFL  .C3      -999.25000                 :Drilling Fluid Loss
RMFS .OHMM       0.94400                 :Resistivity of Mud Filtrate Sample
EKB  .F       5303.00000                 :Elevation of Kelly Bushing
EGL  .F       5291.00000                 :Elevation of Ground Level
BLI  .F       7708.00000                 :Bottom Log Interval
BSAL .PPM        0.00000                 :Borehole Salinity
FLEV .F          8.00000                 :Depth of Drilling Fluid Level to LMF (Log Measured From)
MCST .DEGF      68.00000                 :Mudcake Sample Temperature
MFST .DEGF      68.20000                 :Mud Filtrate Sample Temperature
MRT  .DEGF     164.00000                 :Maximum Recorded Temperature
MST  .DEGF      68.20000                 :Mud Sample Temperature
RMCS .OHMM       1.41600                 :Resistivity of Mud Cake Sample
RMS  .OHMM       1.18000                 :Resistivity of Mud Sample
RW   .OHMM       1.00000                 :Connate Water Resistivity
TDD  .F       7710.00000                 :Driller Total Depth
TDL  .F       7710.00000                 :Logger Total Depth
TLI  .F       1025.00000                 :Top Log Interval
HIDE .        Wildcat                    :Header Identifier
MATR .        SAND                       :Rock Matrix for Neutron Porosity Corrections
FNUM .           1.00000                 :F-Numerator for Formation Factor Formula
FEXP .           2.00000                 :Exponent "m" for Formation Factor Formula
DFT  .        WATER                      :Drilling Fluid Type
DFPH .        -999.25000                 :Drilling Fluid pH
MCSS .        Pressed                    :Mudcake Sample Source
MFSS .                                   :Mud Filtrate Sample Source
FD   .G/C3       1.00000                 :Fluid Density
MSS  .        Active Tank                :Mud Sample Source
OS1  .                                   :Other Services Line 1
OS2  .                                   :Other Services Line 2
OS3  .                                   :Other Services Line 3
OS4  .                                   :Other Services Line 4
OS5  .                                   :Other Services Line 5
R1   .                                   :Remarks Line 1
R2   .                                   :Remarks Line 2
R3   .                                   :Remarks Line 3
R4   .                                   :Remarks Line 4
R5   .                                   :Remarks Line 5
R6   .                                   :Remarks Line 6
R7   .                                   :Remarks Line 7
R8   .        This is the first run in hole. :Remarks Line 8
TCS  .        06 00 00                   :Time Circulation Stopped
TLAB .        15 16 28                   :Time Logger At Bottom
NMT  .        NOBARITE                   :HRDD Mud Type for Nuclear Devices
EPD  .C3         5291.000000             :Elevation of Permanent Datum above Mean Sea Level
APD  .F          12.000000               :Elevation of Depth Reference (LMF) above Permanent Datum
#-----------------------------------------------------------------------------
~CURVE INFORMATION
#MNEM.UNIT   API CODE                                  DESCRIPTION
#---- -----  --------                                  -----------------------
DEPT .F                                                :DEPTH (BOREHOLE) {F12.4}
AT10 .OHMM                                             :Array Induction Two Foot Resistivity A10 {F11.4}
AT30 .OHMM                                             :Array Induction Two Foot Resistivity A30 {F11.4}
AT90 .OHMM                                             :Array Induction Two Foot Resistivity A90 {F11.4}
GR   .GAPI                                             :Gamma Ray {F11.4}
HCAL .IN                                               :HRCC Caliper Calibrated {F11.4}
HDRA .G/C3                                             :Density Standoff Correction {F11.4}
NPHI .CFCF                                             :Thermal Neutron Porosity (original Ratio Method) in Selected Lithology {F11.4}
PEFZ .                                                 :Standard Resolution Formation Photoelectric Factor {F11.4}
RHOZ .G/C3                                             :Standard Resolution Formation Density {F11.4}
SP   .MV                                               :Spontaneous Potential {F11.4}
TNPH .CFCF                                             :Thermal Neutron Porosity (Ratio Method) in Selected Lithology {F11.4}
#-----------------------------------------------------------------------------
# 
#      DEPT        AF10       AF20       AF30       AF60       AF90       AO10       AO20       AO30       AO60       AO90       AT10       AT20       AT30       AT60       AT90     AHFCO60      AHMF      AHORT      AHORX      AHSCA     AHTCO10    AHTCO20    AHTCO30    AHTCO60    AHTCO90     AHTD1      AHTD2      AHTRT      AHTRX       CDF        CFTC       CNTC       CTEM       DCAL       DNPH       DPHZ       DSOZ       ECGR        ED        GDEV        GR      GR_EDTC      GTEM       HCAL       HDRA       HDRB       HGR        HMIN       HMNO       HNPO       HPRA       HTNP        ND        NPHI       NPOR       PEFZ    PXND_HILT     RHOZ       RSOZ     RWA_HILT     RXO8       RXOZ        SP        SPAR       STIT       TENS       TNPH     HTNP_SAN
#
~A  DEPT AT10 AT30 AT90 GR HCAL HDRA NPHI PEFZ RHOZ SP TNPH
# ...
5633.5000 1.5712 1.5227 1.4986 99.6017 8.2775 0.1468 0.3815 3.1901 2.4080 56.8661 0.3858
5634.0000 1.5600 1.5085 1.4863 97.6018 8.2658 0.1308 0.3742 3.2519 2.4225 56.8281 0.3762
5634.5000 1.5413 1.4917 1.4717 102.4133 8.1251 0.1203 0.3653 3.2895 2.4229 56.8750 0.3638
5635.0000 1.5245 1.4643 1.4471 106.4124 8.1720 0.1168 0.3757 3.2693 2.4148 57.0893 0.3577
5635.5000 1.5431 1.4728 1.4501 116.2229 8.1485 0.1182 0.3905 3.2246 2.4164 57.0938 0.3594
5636.0000 1.5830 1.5109 1.4830 125.0335 8.1720 0.1101 0.4288 3.1887 2.4109 56.8929 0.3757
5636.5000 1.6066 1.5408 1.5138 129.0954 8.2189 0.1012 0.4432 3.2281 2.4199 56.8516 0.4037
5637.0000 1.6478 1.5796 1.5516 119.5346 8.1485 0.0949 0.4800 3.3044 2.4245 56.9732 0.4114
5637.5000 1.6614 1.5845 1.5574 112.5356 8.2071 0.1062 0.4562 3.3546 2.4352 56.7768 0.4463
5638.0000 1.5850 1.5112 1.4852 106.4116 8.1485 0.1146 0.4224 3.2982 2.4237 56.7656 0.4272
5638.5000 1.5352 1.4672 1.4423 106.9119 8.1954 0.1085 0.3790 3.1953 2.4033 56.9643 0.3844
5639.0000 1.4682 1.4094 1.3861 97.2273 8.3127 0.0920 0.3833 3.1395 2.3904 57.0547 0.3599
5639.5000 1.4906 1.4172 1.3865 93.7903 8.4299 0.0867 0.3893 3.1993 2.4043 57.0625 0.3617
5640.0000 1.4802 1.4259 1.3884 95.5401 8.2775 0.0928 0.4115 3.3147 2.4250 56.7500 0.3606
5640.5000 1.4613 1.4141 1.3802 106.0376 8.1016 0.1091 0.4392 3.4105 2.4524 56.7422 0.3809
5641.0000 1.4622 1.4096 1.3749 114.0359 8.2540 0.1182 0.4626 3.4315 2.4678 56.8929 0.4210
5641.5000 1.5639 1.4875 1.4502 123.7525 8.3361 0.1377 0.4493 3.3972 2.4735 56.8828 0.4529
5642.0000 1.6824 1.6082 1.5684 125.4393 8.2423 0.1705 0.4511 3.3382 2.4622 56.4732 0.4355
5642.5000 1.7496 1.6463 1.6107 127.4389 8.4885 0.1881 0.4373 3.2300 2.4170 56.2857 0.4482
5643.0000 1.6849 1.5980 1.5687 117.3790 8.6879 0.1886 0.4255 3.1070 2.3925 56.5703 0.4344
5643.5000 1.6295 1.5691 1.5445 111.8802 8.4416 0.1564 0.3952 3.0181 2.3697 56.6786 0.4070
5644.0000 1.5704 1.5225 1.4943 105.5378 8.5472 0.1373 0.4032 2.9984 2.3955 56.6563 0.3794
5644.5000 1.5068 1.4563 1.4473 100.1329 8.5003 0.1207 0.4093 3.0188 2.4129 56.6964 0.3817
5645.0000 1.4656 1.4171 1.3993 102.4132 8.6175 0.1153 0.4092 3.0358 2.4282 56.8984 0.3809
5645.5000 1.4768 1.4278 1.4005 103.7566 8.6879 0.1181 0.3974 3.0473 2.4379 56.9911 0.3839
5646.0000 1.5093 1.4606 1.4254 109.2552 8.5237 0.1236 0.4010 3.0374 2.4362 56.7891 0.3826
5646.5000 1.5489 1.4891 1.4479 114.2856 8.4534 0.1352 0.4235 3.0174 2.4417 56.7589 0.3829
5647.0000 1.5927 1.5236 1.4796 114.7855 8.5237 0.1402 0.4376 3.0040 2.4174 56.9196 0.3931
5647.5000 1.6431 1.5811 1.5097 118.6283 8.4182 0.1463 0.4631 2.9958 2.3890 56.8906 0.4173
5648.0000 1.6666 1.6086 1.5499 107.3186 8.3830 0.1553 0.4385 2.9928 2.3699 56.9107 0.4420
5648.5000 1.6838 1.6237 1.5651 108.7553 8.3947 0.1758 0.4068 3.0036 2.3846 56.8359 0.4108
5649.0000 1.6920 1.6338 1.5789 108.9116 8.5941 0.1973 0.3730 3.0513 2.4026 56.5714 0.3879
5649.5000 1.6230 1.5634 1.5136 113.2230 8.3830 0.2074 0.3963 3.0824 2.3975 56.9375 0.3787
5650.0000 1.5250 1.4785 1.4324 113.2859 8.3830 0.2015 0.4211 3.0738 2.3701 57.1250 0.3896
5650.5000 1.4467 1.4096 1.3692 113.7857 8.5472 0.1759 0.4248 3.0186 2.3496 56.9911 0.4016
5651.0000 1.3704 1.3285 1.2975 111.1612 8.3596 0.1330 0.4163 2.9569 2.3357 57.0391 0.4018
5651.5000 1.3370 1.2951 1.2631 110.4117 8.6644 0.0894 0.4169 2.9328 2.3436 57.1786 0.3934
5652.0000 1.3355 1.3084 1.2659 103.6317 8.3361 0.0705 0.4301 2.9572 2.3654 57.3482 0.3898
5652.5000 1.3592 1.3146 1.2725 106.4434 8.4299 0.0763 0.4100 3.0466 2.3954 57.3359 0.3907
5653.0000 1.3921 1.3358 1.2887 110.4427 8.3830 0.0915 0.3809 3.1554 2.4132 57.3125 0.3815
5653.5000 1.4300 1.3646 1.3175 109.1308 8.2658 0.1158 0.3743 3.2551 2.4379 57.3672 0.3699
5654.0000 1.3988 1.3338 1.2869 110.1306 8.2658 0.1366 0.3911 3.2862 2.4414 57.2411 0.3772
5654.5000 1.3691 1.3051 1.2615 107.6935 8.5003 0.1515 0.4052 3.2372 2.4298 57.1875 0.3844
5655.0000 1.3694 1.3146 1.2719 112.7860 8.6644 0.1406 0.4155 3.1223 2.4016 57.4732 0.3917
5655.5000 1.4044 1.3467 1.2961 116.5350 8.6175 0.1208 0.4192 3.0146 2.3812 57.4911 0.3963
5656.0000 1.4313 1.3698 1.3163 109.3179 8.5120 0.1095 0.4081 2.9703 2.3808 57.3594 0.4051
5656.5000 1.4459 1.3771 1.3227 110.3176 8.5706 0.1062 0.3881 2.9869 2.3727 57.2411 0.3869
5657.0000 1.4327 1.3654 1.3070 105.6002 7.8202 0.1084 0.3912 3.0209 2.3759 57.1563 0.3826
5657.5000 1.4231 1.3533 1.2958 112.0051 8.3361 0.1072 0.4209 3.0551 2.3701 57.2857 0.3728
5658.0000 1.4190 1.3491 1.2993 111.1617 8.4299 0.1125 0.4283 3.0951 2.3802 57.6250 0.3957
5658.5000 1.4234 1.3627 1.3055 110.6309 8.4065 0.1216 0.4162 3.1266 2.4008 57.5859 0.3939
5659.0000 1.4241 1.3620 1.3047 106.3815 8.5237 0.1247 0.3813 3.1305 2.4247 57.4531 0.3833
5659.5000 1.4109 1.3710 1.3161 108.5683 8.4065 0.1112 0.3642 3.1072 2.4260 57.4554 0.3687
5660.0000 1.4315 1.3762 1.3207 110.0674 8.5706 0.0992 0.3787 3.1167 2.4173 57.5089 0.3633
5660.5000 1.4529 1.3895 1.3320 116.0035 8.4534 0.0982 0.3628 3.1536 2.4114 57.4141 0.3826
5661.0000 1.4410 1.3914 1.3519 110.9109 8.4768 0.1041 0.3800 3.1868 2.4155 57.3839 0.3535
5661.5000 1.4087 1.3414 1.3064 108.6309 8.4534 0.0986 0.3645 3.1792 2.4208 57.3672 0.3577
5662.0000 1.4439 1.3470 1.3062 111.1924 8.6879 0.0879 0.3968 3.1677 2.4367 57.2857 0.3327
5662.5000 1.6352 1.5821 1.5297 111.4424 8.4534 0.0818 0.3480 3.1583 2.4689 56.9732 0.3602
5663.0000 1.9441 1.8450 1.7888 115.1602 8.2658 0.0857 0.3415 3.1401 2.4861 56.6172 0.3146
5663.5000 2.1805 2.0512 1.9728 108.1620 8.2540 0.0924 0.3112 3.0970 2.4985 56.6964 0.3065
5664.0000 2.1459 2.0273 1.9645 112.9107 8.2658 0.0913 0.3414 3.0308 2.4972 56.8516 0.2933
5664.5000 2.0896 1.9888 1.9390 114.8788 8.2892 0.0860 0.3360 2.9835 2.5003 56.8393 0.3347
5665.0000 2.0636 1.9571 1.9079 114.3790 8.1720 0.0599 0.3385 2.9169 2.4747 56.8203 0.3371
5665.5000 2.1436 2.0451 1.9931 106.5996 8.2071 0.0538 0.3107 2.8969 2.4751 56.6250 0.3350
5666.0000 2.2139 2.0937 2.0533 102.1950 8.2189 0.0565 0.3083 2.9007 2.4763 56.8661 0.3057
5666.5000 2.1359 2.0568 2.0403 99.6957 8.1485 0.0799 0.3060 2.9472 2.4906 56.6406 0.3083
5667.0000 2.1053 2.0350 2.0182 103.8509 8.2658 0.0996 0.3290 2.9999 2.4918 57.2411 0.3048
5667.5000 2.1215 2.0496 2.0294 104.3506 8.1016 0.1088 0.3299 3.0422 2.4894 57.4375 0.3240
5668.0000 2.1169 2.0490 2.0076 108.2867 8.1251 0.1232 0.3394 3.0941 2.4956 57.3661 0.3258
5668.5000 2.0970 2.0308 1.9926 113.1606 8.1251 0.1366 0.3345 3.1264 2.4982 57.0547 0.3305
5669.0000 2.0743 1.9846 1.9540 110.6614 8.1837 0.1513 0.3492 3.1552 2.5093 57.1696 0.3347
5669.5000 2.0534 1.9612 1.9420 109.1309 8.2189 0.1489 0.3515 3.1730 2.5086 57.2679 0.3377
5670.0000 2.1063 2.0055 1.9758 112.8804 8.1485 0.1360 0.3493 3.1846 2.5081 57.2031 0.3407
5670.5000 2.1413 2.0534 2.0148 115.5668 8.3127 0.1183 0.3449 3.1665 2.4989 56.9554 0.3445
5671.0000 2.1604 2.0570 2.0258 116.9099 8.2423 0.1087 0.3237 3.1182 2.5015 56.4453 0.3422
5671.5000 2.1006 2.0282 1.9918 112.4108 8.2071 0.1013 0.3176 3.0672 2.5021 56.2321 0.3335
5672.0000 2.0211 1.9489 1.9037 114.3794 8.2189 0.1038 0.3423 3.0354 2.5068 56.7969 0.3262
5672.5000 1.9455 1.8613 1.8280 118.3786 8.2658 0.1090 0.3500 3.0309 2.5017 57.1518 0.3410
5673.0000 1.8735 1.7926 1.7526 115.3480 8.2189 0.1170 0.3710 3.0317 2.4961 57.8304 0.3435
5673.5000 1.8685 1.7982 1.7489 116.6916 8.2658 0.1201 0.3334 3.0388 2.4973 57.1250 0.3457
5674.0000 1.9241 1.8160 1.7596 126.6582 8.3830 0.1112 0.3314 3.0267 2.5080 57.0179 0.3220
5674.5000 1.9691 1.8691 1.8089 125.4400 8.1485 0.0998 0.3121 3.0258 2.5128 57.0078 0.3234
5675.0000 2.0063 1.9019 1.8369 121.6903 8.1485 0.0967 0.3184 3.0343 2.5123 57.0714 0.3127
5675.5000 1.9752 1.8735 1.8101 112.0672 8.2892 0.1081 0.3217 3.0457 2.5097 57.0078 0.3281
5676.0000 1.9853 1.8693 1.8093 110.5676 8.2423 0.1134 0.3325 3.0077 2.5096 57.0714 0.3238
5676.5000 1.9934 1.8591 1.8018 113.1920 8.3127 0.1027 0.3144 2.9457 2.5078 57.1696 0.3213
5677.0000 1.9329 1.8871 1.8168 119.5970 8.3127 0.0832 0.3216 2.9003 2.5064 57.2031 0.3112
5677.5000 1.8734 1.7640 1.7491 136.5930 8.3830 0.0674 0.3145 2.9073 2.4944 57.4464 0.3230
