~VERSION INFORMATION
VERS.           1.2   :CWLS Log ASCII Standard - VERSION 1.2
WRAP.           NO    :One Line per depth step
PROD.  Schlumberger   :LAS Producer
PROG.  DLIS to ASCII 17C0-152                          :LAS Program name and version
CREA.        2013/10/06 02:44                          :LAS Creation date {YYYY/MM/DD hh:mm}
DLIS_CREA.  2013-Oct-05 16:22                          :DLIS Creation date and time {YYYY-MMM-DD hh:mm}
SOURCE.     563481d1-2dcb-47d9-a1d9-48f1ce5abb79       :DLIS File Name
#--------------------------------------------------
~WELL INFORMATION
#MNEM.UNIT      DATA             DESCRIPTION
#---- ------ --------------   -----------------------------
STRT .F      1000.5000       :START DEPTH        # original; data subset to 5500-8000
STOP .F      7736.0000       :STOP DEPTH        # original; data subset to 5500-8000
STEP .F       0.5000         :STEP       
NULL .          -999.25      :NULL VALUE
COMP .                 COMPANY:  Bear Oil & Gas, Inc.               
WELL .                    WELL:  Mattson 12-32                      
FLD  .                   FIELD:  Wildcat                            
LOC  .                LOCATION:  SWNW, Sec. 32, T16N, R60W          
CNTY .                  COUNTY:  Laramie                            
STAT .                   STATE:  Wyoming                            
CTRY .                 COUNTRY:                                     
SRVC .         SERVICE COMPANY:  Schlumberger                       
LATI .DEG             LATITUDE:  41.310000 degrees                  
LONG .DEG            LONGITUDE:  -104.15000 degrees                 
API  .              API NUMBER:  49-021-20933-0000                  
DATE .                LOG DATE:  05-Oct-2013
UWI  .          UNIQUE WELL ID:                                     
#-----------------------------------------------------------------------------
~PARAMETER INFORMATION
#MNEM.UNIT    VALUE                      DESCRIPTION
#---- -----   --------------------       ------------------------
CN   .        Bear Oil & Gas  Inc.       :Company Name
WN   .        Mattson 12-32              :Well Name
FN   .        Wildcat                    :Field Name
FL   .        SWNW  Sec. 32  T16N  R60W  :Field Location
FL1  .        SHL  2529' FNL X 605' FWL  :Field Location, Line 1
COUN .        Laramie                    :County or Parish
STAT .        Wyoming                    :State or Province
NATI .                                   :Nation
DATE .        05-Oct-2013                :Tools Above Rotary Table Date
APIN .        49-021-20933-0000          :API Well Number
SECT .        32                         :Section
TOWN .        16N                        :Township
RANG .        60W                        :Range
DMF  .        KB                         :Drilling Measured From (Name of Drilling Elevation Reference)
LMF  .        KB                         :Logging Measured From (Name of Logging Elevation Reference)
PDAT .        GL                         :Permanent Datum
ENGI .        Heather Hoffman            :Engineer s Name
WITN .        Terry Eitteim              :Witness s Name
LATI .        41.310000 degrees          :Latitude
LONG .        -104.15000 degrees         :Longitude
LUL  .        Ft. Morgan  CO             :Logging Unit Location
LUN  .        3022                       :Logging Unit Number
RUN  .        PEX AIT                    :Run Number
SON  .        CQQL-00002                 :Service Order Number
BHT  .DEGF     164.00000                 :Bottom Hole Temperature
BS   .IN         7.87500                 :Bit Size
MDEN .G/C3       2.65000                 :Matrix Density for Density Porosity
DFD  .LB/G       9.00000                 :Drilling Fluid Density
DFV  .S       -999.25000                 :Drilling Fluid Viscosity
DFL  .C3      -999.25000                 :Drilling Fluid Loss
RMFS .OHMM       0.94400                 :Resistivity of Mud Filtrate Sample
EKB  .F       5303.00000                 :Elevation of Kelly Bushing
EGL  .F       5291.00000                 :Elevation of Ground Level
BLI  .F       7708.00000                 :Bottom Log Interval
BSAL .PPM        0.00000                 :Borehole Salinity
FLEV .F          8.00000                 :Depth of Drilling Fluid Level to LMF (Log Measured From)
MCST .DEGF      68.00000                 :Mudcake Sample Temperature
MFST .DEGF      68.20000                 :Mud Filtrate Sample Temperature
MRT  .DEGF     164.00000                 :Maximum Recorded Temperature
MST  .DEGF      68.20000                 :Mud Sample Temperature
RMCS .OHMM       1.41600                 :Resistivity of Mud Cake Sample
RMS  .OHMM       1.18000                 :Resistivity of Mud Sample
RW   .OHMM       1.00000                 :Connate Water Resistivity
TDD  .F       7710.00000                 :Driller Total Depth
TDL  .F       7710.00000                 :Logger Total Depth
TLI  .F       1025.00000                 :Top Log Interval
HIDE .        Wildcat                    :Header Identifier
MATR .        SAND                       :Rock Matrix for Neutron Porosity Corrections
FNUM .           1.00000                 :F-Numerator for Formation Factor Formula
FEXP .           2.00000                 :Exponent "m" for Formation Factor Formula
DFT  .        WATER                      :Drilling Fluid Type
DFPH .        -999.25000                 :Drilling Fluid pH
MCSS .        Pressed                    :Mudcake Sample Source
MFSS .                                   :Mud Filtrate Sample Source
FD   .G/C3       1.00000                 :Fluid Density
MSS  .        Active Tank                :Mud Sample Source
OS1  .                                   :Other Services Line 1
OS2  .                                   :Other Services Line 2
OS3  .                                   :Other Services Line 3
OS4  .                                   :Other Services Line 4
OS5  .                                   :Other Services Line 5
R1   .                                   :Remarks Line 1
R2   .                                   :Remarks Line 2
R3   .                                   :Remarks Line 3
R4   .                                   :Remarks Line 4
R5   .                                   :Remarks Line 5
R6   .                                   :Remarks Line 6
R7   .                                   :Remarks Line 7
R8   .        This is the first run in hole. :Remarks Line 8
TCS  .        06 00 00                   :Time Circulation Stopped
TLAB .        15 16 28                   :Time Logger At Bottom
NMT  .        NOBARITE                   :HRDD Mud Type for Nuclear Devices
EPD  .C3         5291.000000             :Elevation of Permanent Datum above Mean Sea Level
APD  .F          12.000000               :Elevation of Depth Reference (LMF) above Permanent Datum
#-----------------------------------------------------------------------------
~CURVE INFORMATION
#MNEM.UNIT   API CODE                                  DESCRIPTION
#---- -----  --------                                  -----------------------
DEPT .F                                                :DEPTH (BOREHOLE) {F12.4}
AT10 .OHMM                                             :Array Induction Two Foot Resistivity A10 {F11.4}
AT30 .OHMM                                             :Array Induction Two Foot Resistivity A30 {F11.4}
AT90 .OHMM                                             :Array Induction Two Foot Resistivity A90 {F11.4}
GR   .GAPI                                             :Gamma Ray {F11.4}
HCAL .IN                                               :HRCC Caliper Calibrated {F11.4}
HDRA .G/C3                                             :Density Standoff Correction {F11.4}
NPHI .CFCF                                             :Thermal Neutron Porosity (original Ratio Method) in Selected Lithology {F11.4}
PEFZ .                                                 :Standard Resolution Formation Photoelectric Factor {F11.4}
RHOZ .G/C3                                             :Standard Resolution Formation Density {F11.4}
SP   .MV                                               :Spontaneous Potential {F11.4}
TNPH .CFCF                                             :Thermal Neutron Porosity (Ratio Method) in Selected Lithology {F11.4}
#-----------------------------------------------------------------------------
# 
#      DEPT        AF10       AF20       AF30       AF60       AF90       AO10       AO20       AO30       AO60       AO90       AT10       AT20       AT30       AT60       AT90     AHFCO60      AHMF      AHORT      AHORX      AHSCA     AHTCO10    AHTCO20    AHTCO30    AHTCO60    AHTCO90     AHTD1      AHTD2      AHTRT      AHTRX       CDF        CFTC       CNTC       CTEM       DCAL       DNPH       DPHZ       DSOZ       ECGR        ED        GDEV        GR      GR_EDTC      GTEM       HCAL       HDRA       HDRB       HGR        HMIN       HMNO       HNPO       HPRA       HTNP        ND        NPHI       NPOR       PEFZ    PXND_HILT     RHOZ       RSOZ     RWA_HILT     RXO8       RXOZ        SP        SPAR       STIT       TENS       TNPH     HTNP_SAN
#
~A  DEPT AT10 AT30 AT90 GR HCAL HDRA NPHI PEFZ RHOZ SP TNPH
# ...
7099.5000 4.3223 4.0474 3.7988 123.6898 7.8202 -0.0077 0.2651 3.6359 2.5213 69.0547 0.2672
7100.0000 4.2625 4.0014 3.7657 124.5649 7.7968 -0.0084 0.2584 3.6538 2.5200 69.1607 0.2608
7100.5000 4.2343 3.9828 3.7421 124.5649 7.8319 -0.0080 0.2648 3.6560 2.5237 69.1964 0.2505
7101.0000 4.2231 3.9617 3.7247 128.5635 7.8202 -0.0075 0.2754 3.6472 2.5278 69.0156 0.2564
7101.5000 4.2332 3.9634 3.7184 129.4379 7.8437 -0.0061 0.2780 3.6605 2.5234 68.8750 0.2611
7102.0000 4.2350 3.9756 3.7159 129.4382 7.8437 -0.0061 0.2746 3.6985 2.5079 68.7054 0.2591
7102.5000 4.2409 3.9734 3.7233 131.5318 7.8437 -0.0053 0.2716 3.6990 2.4990 68.7734 0.2575
7103.0000 4.2319 3.9572 3.7127 130.5632 7.8437 -0.0053 0.2802 3.6869 2.4992 68.7679 0.2574
7103.5000 4.3490 4.0220 3.7708 129.3136 7.8437 -0.0051 0.2736 3.6908 2.5090 68.5804 0.2598
7104.0000 4.4195 4.1458 3.8613 128.9695 7.8319 -0.0046 0.2636 3.7123 2.5205 68.3672 0.2495
7104.5000 4.5434 4.2594 3.9776 123.3772 7.8437 -0.0037 0.2476 3.7024 2.5322 68.4554 0.2435
7105.0000 4.5096 4.2589 3.9734 121.6275 7.8671 -0.0027 0.2390 3.6740 2.5388 68.5357 0.2342
7105.5000 4.4854 4.2358 3.9681 115.6289 7.8437 -0.0041 0.2556 3.6987 2.5293 68.2891 0.2324
7106.0000 4.4321 4.1944 3.9295 124.3765 7.8671 -0.0064 0.2566 3.7432 2.5164 68.2500 0.2430
7106.5000 4.4288 4.2119 3.9449 128.3753 7.8437 -0.0063 0.2654 3.7150 2.5190 68.2266 0.2390
7107.0000 4.6157 4.3950 4.1156 125.6263 7.8554 -0.0052 0.2684 3.6579 2.5331 68.0536 0.2486
7107.5000 4.9625 4.6445 4.3455 127.3763 7.8437 -0.0049 0.2569 3.6587 2.5455 68.2500 0.2495
7108.0000 5.4079 5.0613 4.7136 123.1275 7.8437 -0.0052 0.2434 3.7319 2.5521 68.7813 0.2326
7108.5000 5.8812 5.5565 5.1658 127.6268 7.8202 -0.0065 0.2262 3.8570 2.5465 69.2500 0.2211
7109.0000 5.6481 5.4425 5.0821 119.7535 7.7968 -0.0031 0.2349 3.8951 2.5478 69.5536 0.2176
7109.5000 5.5094 5.2977 4.9726 123.2523 7.8202 -0.0046 0.2346 3.9600 2.5369 69.6641 0.2244
7110.0000 5.5149 5.3064 4.9896 120.7527 7.8085 -0.0026 0.2363 3.9493 2.5421 69.7500 0.2171
7110.5000 5.4509 5.2667 4.9735 121.6275 7.8202 -0.0006 0.2431 3.9344 2.5544 70.0714 0.2204
7111.0000 5.3788 5.1995 4.9170 120.3783 7.8437 0.0024 0.2471 3.8764 2.5682 70.3125 0.2314
7111.5000 5.5938 5.3414 5.0403 117.8785 7.8319 0.0006 0.2371 3.8969 2.5649 69.6786 0.2337
7112.0000 5.8473 5.5186 5.2253 116.5662 7.8671 -0.0045 0.2353 3.9103 2.5559 70.3304 0.2208
7112.5000 5.5489 5.2732 4.9886 122.5643 7.8202 -0.0071 0.2401 3.8965 2.5446 71.2734 0.2302
7113.0000 5.2433 4.9809 4.7551 136.8120 7.8319 0.0051 0.2647 3.7709 2.5383 70.8571 0.2385
7113.5000 4.8769 4.7124 4.4939 150.2146 7.8437 0.0088 0.2855 3.6492 2.5262 70.8214 0.2570
7114.0000 4.8913 4.5595 4.3254 152.1205 7.8202 0.0108 0.2930 3.5154 2.5324 70.7578 0.2743
7114.5000 4.8355 4.6613 4.4163 143.8721 7.8437 0.0021 0.2695 3.4799 2.5440 70.5982 0.2791
7115.0000 4.4888 4.3880 4.1144 129.8756 7.8202 0.0141 0.2441 3.4940 2.5614 70.1161 0.2717
7115.5000 3.8726 3.6906 3.5439 126.5950 7.8437 0.0352 0.2609 3.5396 2.5559 70.0781 0.2573
7116.0000 3.3360 3.2465 3.1066 126.0948 7.8671 0.0450 0.2917 3.5071 2.5337 70.2500 0.2725
7116.5000 3.6658 3.3415 3.1976 134.9997 7.8202 0.0347 0.2997 3.4509 2.5199 69.4453 0.2762
7117.0000 4.2686 3.9419 3.7089 129.6256 7.8906 0.0113 0.2695 3.5245 2.5157 70.1161 0.2572
7117.5000 5.1219 4.7546 4.4354 128.6263 7.8671 -0.0025 0.2442 3.6593 2.5332 71.0804 0.2293
7118.0000 5.3595 5.0130 4.6387 125.5639 7.8906 -0.0071 0.2329 3.7692 2.5381 71.7031 0.2169
7118.5000 5.0648 4.7323 4.4402 126.3138 7.8671 -0.0048 0.2365 3.6992 2.5483 70.7946 0.2116
7119.0000 4.7311 4.4571 4.2104 126.3132 7.8671 -0.0055 0.2611 3.6444 2.5381 70.9911 0.2238
7119.5000 4.4532 4.2016 3.9801 129.3755 7.8906 -0.0072 0.2702 3.5853 2.5313 70.8516 0.2611
7120.0000 4.3634 4.1457 3.9256 135.6245 7.8671 -0.0101 0.2705 3.5821 2.5186 70.6429 0.2675
7120.5000 4.3164 4.1202 3.9102 140.3731 7.8671 -0.0062 0.2465 3.4885 2.5259 70.2946 0.2590
7121.0000 3.9309 3.8270 3.6051 141.0289 7.8671 0.0026 0.2749 3.4013 2.5358 70.1328 0.2405
7121.5000 3.6462 3.4900 3.3116 137.7797 7.8437 0.0091 0.3001 3.3220 2.5379 69.5446 0.2712
7122.0000 3.6976 3.3886 3.1943 138.7797 7.8437 0.0111 0.3264 3.3291 2.5367 69.2411 0.2831
7122.5000 3.9769 3.6900 3.4549 133.4686 7.8671 0.0090 0.3010 3.4027 2.5384 71.0000 0.2981
7123.0000 4.2364 3.9630 3.6890 136.1862 7.8437 0.0039 0.2870 3.4867 2.5530 71.2768 0.2802
7123.5000 4.0981 3.9046 3.6419 130.6878 7.8671 -0.0016 0.2747 3.5055 2.5581 70.3036 0.2796
7124.0000 4.0557 3.8496 3.5963 127.6885 7.9140 -0.0036 0.2700 3.4432 2.5527 70.1641 0.2688
7124.5000 4.0101 3.8149 3.5719 128.1263 7.9140 -0.0032 0.2685 3.3911 2.5353 70.5089 0.2565
7125.0000 4.0999 3.8251 3.5895 131.8752 7.8906 -0.0001 0.2607 3.3591 2.5354 70.3393 0.2535
7125.5000 4.2249 3.9240 3.6802 132.3750 7.8437 -0.0014 0.2816 3.3640 2.5333 70.1484 0.2494
7126.0000 4.0851 3.9063 3.6690 128.8755 7.8202 0.0027 0.2934 3.3635 2.5455 69.9018 0.2682
7126.5000 3.8625 3.6581 3.4585 131.3749 7.8437 0.0037 0.2977 3.3544 2.5423 69.7344 0.2730
7127.0000 3.9942 3.6992 3.4996 129.3754 7.8437 0.0041 0.2734 3.3696 2.5371 69.7232 0.2760
7127.5000 4.1022 3.8787 3.6391 127.4076 7.8437 0.0127 0.2493 3.4138 2.5363 70.8839 0.2646
7128.0000 3.7380 3.6674 3.4499 119.1598 7.7968 0.0312 0.2502 3.4531 2.5500 69.8828 0.2466
7128.5000 3.5492 3.3455 3.1860 128.4077 7.8437 0.0424 0.2602 3.4099 2.5623 69.6161 0.2451
7129.0000 3.4440 3.2333 3.0694 130.1573 7.8437 0.0346 0.2945 3.2957 2.5525 69.5536 0.2564
7129.5000 3.4435 3.2413 3.0552 130.6573 7.8437 0.0208 0.2948 3.2088 2.5422 69.5625 0.2833
7130.0000 3.4634 3.2561 3.0578 126.9077 7.8437 0.0097 0.3218 3.1685 2.5244 69.5536 0.2799
7130.5000 3.5367 3.3008 3.0977 122.5334 7.8437 0.0056 0.3115 3.1894 2.5181 69.3839 0.3063
7131.0000 3.5690 3.3382 3.1238 125.2826 7.8671 0.0001 0.3260 3.2237 2.5073 69.3359 0.3010
7131.5000 3.6204 3.4058 3.1927 122.0333 7.8437 0.0027 0.3019 3.2966 2.5200 69.3304 0.3070
7132.0000 3.5541 3.3731 3.1612 129.2503 7.8437 0.0087 0.2975 3.3387 2.5325 69.4107 0.2918
7132.5000 3.5346 3.3050 3.1186 132.2501 7.8437 0.0250 0.3108 3.3769 2.5568 69.5313 0.2911
7133.0000 3.5414 3.3241 3.1295 136.2494 7.8319 0.0285 0.3027 3.3475 2.5571 69.5000 0.2898
7133.5000 3.5272 3.3373 3.1391 134.7185 7.8437 0.0335 0.3026 3.3248 2.5640 69.2891 0.2837
7134.0000 3.5117 3.2868 3.1118 130.2190 7.8671 0.0254 0.2610 3.3026 2.5514 69.2857 0.2900
7134.5000 3.6126 3.3865 3.1740 128.2198 7.8554 0.0260 0.2621 3.3348 2.5514 69.4196 0.2597
7135.0000 3.7143 3.4956 3.2506 123.4087 7.8437 0.0294 0.2524 3.3986 2.5546 69.4821 0.2548
7135.5000 3.6501 3.4380 3.2200 123.9082 7.8671 0.0346 0.2816 3.4415 2.5583 69.3672 0.2370
7136.0000 3.6221 3.3988 3.1978 124.6582 7.8437 0.0415 0.2850 3.4619 2.5668 69.2679 0.2658
7136.5000 3.6113 3.3924 3.1881 126.8452 7.7968 0.0365 0.2880 3.4416 2.5500 68.9844 0.2753
7137.0000 3.6048 3.3912 3.1904 135.8433 7.7968 0.0363 0.2810 3.4402 2.5508 68.8304 0.2761
7137.5000 3.6093 3.3847 3.1890 135.3433 7.7968 0.0269 0.2947 3.4026 2.5359 68.9911 0.2655
7138.0000 3.6285 3.4042 3.2032 138.6239 7.8202 0.0177 0.2966 3.3641 2.5270 68.9453 0.2750
7138.5000 3.6470 3.4279 3.2227 133.3742 7.8202 0.0041 0.2766 3.2903 2.5081 69.1071 0.2809
7139.0000 3.6548 3.4349 3.2316 133.1245 7.8788 0.0010 0.2595 3.2485 2.5103 69.2679 0.2641
7139.5000 3.6391 3.4159 3.2158 128.7505 7.8437 0.0023 0.2799 3.2278 2.5167 69.1641 0.2526
7140.0000 3.6180 3.3856 3.1999 123.5029 7.8671 0.0030 0.2963 3.2507 2.5136 69.0179 0.2608
7140.5000 3.7185 3.4566 3.2557 128.0013 7.8554 0.0025 0.3032 3.2989 2.5097 69.0000 0.2738
7141.0000 3.8005 3.5553 3.3361 133.0314 7.8202 0.0032 0.2829 3.3604 2.5194 69.2734 0.2835
7141.5000 3.8575 3.6097 3.3604 136.0304 7.8202 -0.0028 0.2914 3.3919 2.5307 69.2589 0.2649
7142.0000 3.8281 3.5982 3.3692 132.5316 7.7968 0.0019 0.3003 3.4389 2.5563 69.1719 0.2698
7142.5000 3.7895 3.5733 3.3494 127.2824 7.8437 0.0050 0.3070 3.4491 2.5622 69.1786 0.2768
7143.0000 3.7672 3.5402 3.3247 128.0322 7.8437 0.0167 0.3002 3.4606 2.5681 69.2946 0.2878
7143.5000 3.7348 3.5225 3.3150 126.2827 7.7850 0.0223 0.2772 3.4369 2.5579 69.1484 0.2940
