~VERSION INFORMATION
VERS.           1.2   :CWLS Log ASCII Standard - VERSION 1.2
WRAP.           NO    :One Line per depth step
PROD.  Schlumberger   :LAS Producer
PROG.  DLIS to ASCII 17C0-152                          :LAS Program name and version
CREA.        2013/10/06 02:44                          :LAS Creation date {YYYY/MM/DD hh:mm}
DLIS_CREA.  2013-Oct-05 16:22                          :DLIS Creation date and time {YYYY-MMM-DD hh:mm}
SOURCE.     563481d1-2dcb-47d9-a1d9-48f1ce5abb79       :DLIS File Name
#--------------------------------------------------
~WELL INFORMATION
#MNEM.UNIT      DATA             DESCRIPTION
#---- ------ --------------   -----------------------------
STRT .F      1000.5000       :START DEPTH        # original; data subset to 5500-8000
STOP .F      7736.0000       :STOP DEPTH        # original; data subset to 5500-8000
STEP .F       0.5000         :STEP       
NULL .          -999.25      :NULL VALUE
COMP .                 COMPANY:  Bear Oil & Gas, Inc.               
WELL .                    WELL:  Mattson 12-32                      
FLD  .                   FIELD:  Wildcat                            
LOC  .                LOCATION:  SWNW, Sec. 32, T16N, R60W          
CNTY .                  COUNTY:  Laramie                            
STAT .                   STATE:  Wyoming                            
CTRY .                 COUNTRY:                                     
SRVC .         SERVICE COMPANY:  Schlumberger                       
LATI .DEG             LATITUDE:  41.310000 degrees                  
LONG .DEG            LONGITUDE:  -104.15000 degrees                 
API  .              API NUMBER:  49-021-20933-0000                  
DATE .                LOG DATE:  05-Oct-2013
UWI  .          UNIQUE WELL ID:                                     
#-----------------------------------------------------------------------------
~PARAMETER INFORMATION
#MNEM.UNIT    VALUE                      DESCRIPTION
#---- -----   --------------------       ------------------------
CN   .        Bear Oil & Gas  Inc.       :Company Name
WN   .        Mattson 12-32              :Well Name
FN   .        Wildcat                    :Field Name
FL   .        SWNW  Sec. 32  T16N  R60W  :Field Location
FL1  .        SHL  2529' FNL X 605' FWL  :Field Location, Line 1
COUN .        Laramie                    :County or Parish
STAT .        Wyoming                    :State or Province
NATI .                                   :Nation
DATE .        05-Oct-2013                :Tools Above Rotary Table Date
APIN .        49-021-20933-0000          :API Well Number
SECT .        32                         :Section
TOWN .        16N                        :Township
RANG .        60W                        :Range
DMF  .        KB                         :Drilling Measured From (Name of Drilling Elevation Reference)
LMF  .        KB                         :Logging Measured From (Name of Logging Elevation Reference)
PDAT .        GL                         :Permanent Datum
ENGI .        Heather Hoffman            :Engineer s Name
WITN .        Terry Eitteim              :Witness s Name
LATI .        41.310000 degrees          :Latitude
LONG .        -104.15000 degrees         :Longitude
LUL  .        Ft. Morgan  CO             :Logging Unit Location
LUN  .        3022                       :Logging Unit Number
RUN  .        PEX AIT                    :Run Number
SON  .        CQQL-00002                 :Service Order Number
BHT  .DEGF     164.00000                 :Bottom Hole Temperature
BS   .IN         7.87500                 :Bit Size
MDEN .G/C3       2.65000                 :Matrix Density for Density Porosity
DFD  .LB/G       9.00000                 :Drilling Fluid Density
DFV  .S       -999.25000                 :Drilling Fluid Viscosity
DFL  .C3      -999.25000                 :Drilling Fluid Loss
RMFS .OHMM       0.94400                 :Resistivity of Mud Filtrate Sample
EKB  .F       5303.00000                 :Elevation of Kelly Bushing
EGL  .F       5291.00000                 :Elevation of Ground Level
BLI  .F       7708.00000                 :Bottom Log Interval
BSAL .PPM        0.00000                 :Borehole Salinity
FLEV .F          8.00000                 :Depth of Drilling Fluid Level to LMF (Log Measured From)
MCST .DEGF      68.00000                 :Mudcake Sample Temperature
MFST .DEGF      68.20000                 :Mud Filtrate Sample Temperature
MRT  .DEGF     164.00000                 :Maximum Recorded Temperature
MST  .DEGF      68.20000                 :Mud Sample Temperature
RMCS .OHMM       1.41600                 :Resistivity of Mud Cake Sample
RMS  .OHMM       1.18000                 :Resistivity of Mud Sample
RW   .OHMM       1.00000                 :Connate Water Resistivity
TDD  .F       7710.00000                 :Driller Total Depth
TDL  .F       7710.00000                 :Logger Total Depth
TLI  .F       1025.00000                 :Top Log Interval
HIDE .        Wildcat                    :Header Identifier
MATR .        SAND                       :Rock Matrix for Neutron Porosity Corrections
FNUM .           1.00000                 :F-Numerator for Formation Factor Formula
FEXP .           2.00000                 :Exponent "m" for Formation Factor Formula
DFT  .        WATER                      :Drilling Fluid Type
DFPH .        -999.25000                 :Drilling Fluid pH
MCSS .        Pressed                    :Mudcake Sample Source
MFSS .                                   :Mud Filtrate Sample Source
FD   .G/C3       1.00000                 :Fluid Density
MSS  .        Active Tank                :Mud Sample Source
OS1  .                                   :Other Services Line 1
OS2  .                                   :Other Services Line 2
OS3  .                                   :Other Services Line 3
OS4  .                                   :Other Services Line 4
OS5  .                                   :Other Services Line 5
R1   .                                   :Remarks Line 1
R2   .                                   :Remarks Line 2
R3   .                                   :Remarks Line 3
R4   .                                   :Remarks Line 4
R5   .                                   :Remarks Line 5
R6   .                                   :Remarks Line 6
R7   .                                   :Remarks Line 7
R8   .        This is the first run in hole. :Remarks Line 8
TCS  .        06 00 00                   :Time Circulation Stopped
TLAB .        15 16 28                   :Time Logger At Bottom
NMT  .        NOBARITE                   :HRDD Mud Type for Nuclear Devices
EPD  .C3         5291.000000             :Elevation of Permanent Datum above Mean Sea Level
APD  .F          12.000000               :Elevation of Depth Reference (LMF) above Permanent Datum
#-----------------------------------------------------------------------------
~CURVE INFORMATION
#MNEM.UNIT   API CODE                                  DESCRIPTION
#---- -----  --------                                  -----------------------
DEPT .F                                                :DEPTH (BOREHOLE) {F12.4}
AT10 .OHMM                                             :Array Induction Two Foot Resistivity A10 {F11.4}
AT30 .OHMM                                             :Array Induction Two Foot Resistivity A30 {F11.4}
AT90 .OHMM                                             :Array Induction Two Foot Resistivity A90 {F11.4}
GR   .GAPI                                             :Gamma Ray {F11.4}
HCAL .IN                                               :HRCC Caliper Calibrated {F11.4}
HDRA .G/C3                                             :Density Standoff Correction {F11.4}
NPHI .CFCF                                             :Thermal Neutron Porosity (original Ratio Method) in Selected Lithology {F11.4}
PEFZ .                                                 :Standard Resolution Formation Photoelectric Factor {F11.4}
RHOZ .G/C3                                             :Standard Resolution Formation Density {F11.4}
SP   .MV                                               :Spontaneous Potential {F11.4}
TNPH .CFCF                                             :Thermal Neutron Porosity (Ratio Method) in Selected Lithology {F11.4}
#-----------------------------------------------------------------------------
# 
#      DEPT        AF10       AF20       AF30       AF60       AF90       AO10       AO20       AO30       AO60       AO90       AT10       AT20       AT30       AT60       AT90     AHFCO60      AHMF      AHORT      AHORX      AHSCA     AHTCO10    AHTCO20    AHTCO30    AHTCO60    AHTCO90     AHTD1      AHTD2      AHTRT      AHTRX       CDF        CFTC       CNTC       CTEM       DCAL       DNPH       DPHZ       DSOZ       ECGR        ED        GDEV        GR      GR_EDTC      GTEM       HCAL       HDRA       HDRB       HGR        HMIN       HMNO       HNPO       HPRA       HTNP        ND        NPHI       NPOR       PEFZ    PXND_HILT     RHOZ       RSOZ     RWA_HILT     RXO8       RXOZ        SP        SPAR       STIT       TENS       TNPH     HTNP_SAN
#
~A  DEPT AT10 AT30 AT90 GR HCAL HDRA NPHI PEFZ RHOZ SP TNPH
# ...
6078.5000 3.1835 3.0466 2.9054 107.5684 8.0078 0.0034 0.2852 2.9246 2.5290 57.0625 0.2869
6079.0000 3.1274 2.9926 2.8683 106.5680 7.9844 -0.0029 0.2883 2.9331 2.5245 57.1250 0.2883
6079.5000 3.1005 2.9608 2.8406 107.2250 8.0078 -0.0057 0.2860 2.9818 2.5306 56.9107 0.2977
6080.0000 3.0780 2.9424 2.8264 103.8816 8.0078 -0.0012 0.2912 3.0334 2.5501 56.8438 0.2917
6080.5000 2.9777 2.8588 2.7521 105.3816 7.9844 0.0088 0.2926 3.0540 2.5682 57.1696 0.2934
6081.0000 2.9104 2.7883 2.6902 110.3802 7.9609 0.0083 0.2905 3.0549 2.5457 57.2891 0.2911
6081.5000 3.0062 2.8660 2.7537 119.3467 7.9609 0.0037 0.3093 3.0414 2.5325 57.1607 0.2821
6082.0000 3.0700 2.9453 2.8159 119.8467 7.9726 -0.0036 0.2923 2.9998 2.5347 57.0859 0.2942
6082.5000 3.1666 3.0106 2.8785 114.8481 7.9844 -0.0016 0.2973 2.9929 2.5670 57.1518 0.2836
6083.0000 3.1240 3.0210 2.8848 110.9737 7.9609 0.0019 0.2736 2.9805 2.5854 57.0391 0.2903
6083.5000 3.0857 2.9468 2.8364 111.7239 7.9257 -0.0004 0.2790 2.9699 2.5718 57.1071 0.2702
6084.0000 3.0779 2.9283 2.8090 113.9107 7.9140 -0.0042 0.2685 2.9297 2.5600 57.1696 0.2718
6084.5000 3.0775 2.9416 2.8141 113.1615 7.8906 -0.0046 0.2734 2.9224 2.5457 57.1328 0.2643
6085.0000 3.0723 2.9251 2.8045 105.6626 7.9140 -0.0044 0.2612 2.9287 2.5386 57.0000 0.2732
6085.5000 3.0445 2.8861 2.7663 102.6007 7.9140 0.0015 0.2705 2.9357 2.5218 56.6953 0.2624
6086.0000 2.9202 2.8149 2.6919 99.1017 7.9375 0.0143 0.2761 2.9563 2.5101 56.6339 0.2745
6086.5000 2.7935 2.6642 2.5616 97.5088 7.8906 0.0359 0.3125 3.0015 2.5172 57.0234 0.2827
6087.0000 2.6960 2.5759 2.4703 98.6337 7.9492 0.0408 0.3122 3.0189 2.5162 57.1328 0.3041
6087.5000 2.7786 2.6261 2.5153 98.1337 7.8906 0.0265 0.3007 2.9673 2.5133 57.0268 0.3043
6088.0000 2.8704 2.7287 2.5967 107.1000 7.8671 0.0049 0.3021 2.9484 2.5052 57.0625 0.2883
6088.5000 2.9345 2.8007 2.6606 108.8500 7.8906 -0.0031 0.3122 2.9485 2.5210 56.9609 0.2902
6089.0000 3.0009 2.8507 2.7147 111.0996 7.8906 -0.0046 0.3199 2.9900 2.5319 56.8482 0.2951
6089.5000 3.0567 2.8837 2.7558 113.2864 7.8554 -0.0046 0.2957 2.9633 2.5380 56.7188 0.2993
6090.0000 3.1519 2.9902 2.8498 112.0362 7.8671 -0.0071 0.3033 2.9659 2.5326 56.8214 0.2854
6090.5000 3.2627 3.1132 2.9681 112.0674 7.8671 -0.0068 0.2980 2.9100 2.5396 56.8359 0.3002
6091.0000 3.2333 3.1214 2.9822 106.0063 7.8906 -0.0077 0.3056 2.8877 2.5421 56.6339 0.3028
6091.5000 3.2401 3.0960 2.9747 103.2885 7.9375 -0.0084 0.2836 2.8614 2.5477 56.5469 0.3080
6092.0000 3.2815 3.1345 3.0106 106.0065 7.9375 -0.0061 0.2768 2.8557 2.5597 56.6696 0.2826
6092.5000 3.3293 3.1706 3.0418 106.1624 7.8906 -0.0048 0.2794 2.8496 2.5678 56.6964 0.2684
6093.0000 3.2576 3.1421 3.0168 106.1305 7.8906 -0.0023 0.2924 2.8398 2.5734 56.8359 0.2676
6093.5000 3.2294 3.1202 2.9959 100.1323 7.8671 -0.0033 0.3019 2.8596 2.5559 56.6607 0.2849
6094.0000 3.2232 3.1016 2.9751 99.6953 7.8671 -0.0041 0.3014 2.9045 2.5383 56.4766 0.2952
6094.5000 3.2322 3.1084 2.9801 103.6949 7.8554 -0.0032 0.2977 2.9205 2.5338 56.6161 0.2984
6095.0000 3.2641 3.1273 2.9948 108.2874 7.8671 -0.0041 0.2873 2.9718 2.5350 56.9141 0.2911
6095.5000 3.3023 3.1588 3.0247 107.5686 7.8671 -0.0044 0.2935 3.0320 2.5354 56.6696 0.2827
6096.0000 3.3610 3.2181 3.0830 100.8201 7.8788 -0.0039 0.2836 3.0577 2.5381 56.4531 0.2876
6096.5000 3.4436 3.2935 3.1462 93.8214 7.8671 -0.0007 0.2778 3.0104 2.5488 56.0714 0.2806
6097.0000 3.5436 3.4166 3.2503 95.8213 7.8671 0.0027 0.2663 2.8993 2.5625 55.7589 0.2733
6097.5000 3.4681 3.3152 3.1795 100.8204 7.8437 0.0021 0.2693 2.8581 2.5558 56.0391 0.2635
6098.0000 3.3164 3.2270 3.1008 109.5681 7.8202 0.0013 0.2802 2.8644 2.5457 56.0625 0.2703
6098.5000 3.2328 3.1298 3.0189 109.0681 7.8202 0.0029 0.2915 2.9017 2.5440 56.5469 0.2776
6099.0000 3.0873 2.9793 2.8730 108.3803 7.8202 0.0030 0.2955 2.9036 2.5406 56.7411 0.2900
6099.5000 3.1731 3.0211 2.9084 108.0371 7.8437 0.0017 0.2935 2.8855 2.5407 56.6875 0.2926
6100.0000 3.2145 3.0881 2.9565 103.5384 7.8437 0.0024 0.2927 2.8575 2.5518 56.5547 0.2886
6100.5000 3.3075 3.1464 3.0084 107.4754 7.8202 0.0057 0.2807 2.8550 2.5669 56.4911 0.2823
6101.0000 3.3320 3.1977 3.0640 102.7263 7.8437 0.0056 0.2752 2.8517 2.5601 56.4375 0.2716
6101.5000 3.1861 3.1080 2.9727 110.1618 7.8202 0.0047 0.2747 2.8582 2.5451 56.5446 0.2753
6102.0000 3.1108 2.9764 2.8638 110.1622 7.8437 0.0033 0.2900 2.8691 2.5356 56.7500 0.2778
6102.5000 3.0486 2.9176 2.8094 109.1621 7.8202 0.0029 0.3016 2.8763 2.5417 56.7321 0.2856
6103.0000 3.1370 2.9627 2.8448 105.2253 7.8319 -0.0013 0.2988 2.8904 2.5361 56.5268 0.2878
6103.5000 3.1687 3.0408 2.9101 95.9773 7.8202 -0.0048 0.2799 2.8967 2.5245 56.7344 0.2902
6104.0000 3.2071 3.0736 2.9423 99.2263 7.8202 -0.0051 0.2723 2.8950 2.5101 56.6607 0.2785
6104.5000 3.2062 3.0832 2.9578 100.4766 7.8202 -0.0033 0.2592 2.8663 2.4994 56.7578 0.2720
6105.0000 3.2125 3.0878 2.9650 108.7249 7.8202 0.0011 0.2776 2.8558 2.5095 56.8214 0.2605
6105.5000 3.2439 3.0863 2.9789 106.3195 7.7968 0.0005 0.2855 2.8707 2.5177 56.6719 0.2741
6106.0000 3.3180 3.1626 3.0398 103.3191 7.8202 -0.0009 0.2890 2.8976 2.5287 56.4554 0.2765
6106.5000 3.3985 3.2471 3.1156 98.6323 7.7968 -0.0024 0.2779 2.8707 2.5309 56.4453 0.2757
6107.0000 3.3318 3.1942 3.0654 102.5380 7.7968 0.0007 0.2742 2.8360 2.5415 56.5625 0.2715
6107.5000 3.2895 3.1479 3.0192 102.0383 7.7733 0.0017 0.2835 2.8159 2.5449 56.6071 0.2738
6108.0000 3.3563 3.1958 3.0669 102.4762 7.7499 -0.0001 0.2787 2.8327 2.5444 56.5156 0.2806
6108.5000 3.3938 3.2524 3.1104 105.9750 7.8202 -0.0020 0.2627 2.8415 2.5447 56.6161 0.2710
6109.0000 3.4154 3.2581 3.1168 108.6623 7.8202 -0.0014 0.2541 2.8247 2.5470 56.9063 0.2531
6109.5000 3.3998 3.2618 3.1194 107.9118 7.8202 0.0004 0.2693 2.8206 2.5429 56.7768 0.2507
6110.0000 3.3655 3.2663 3.1238 101.1635 7.8202 0.0028 0.2947 2.8479 2.5423 56.6328 0.2642
6110.5000 3.4035 3.2927 3.1514 103.7879 7.7968 0.0034 0.2956 2.8685 2.5396 56.3839 0.2795
6111.0000 3.5065 3.3750 3.2210 110.5367 7.8202 0.0036 0.2872 2.8881 2.5461 56.4375 0.2838
6111.5000 3.6237 3.4511 3.2959 114.6922 7.8437 0.0026 0.2648 2.8796 2.5482 56.5000 0.2852
6112.0000 3.6310 3.4958 3.3380 111.3804 7.8437 -0.0031 0.2686 2.8799 2.5615 56.6161 0.2679
6112.5000 3.5704 3.4303 3.2919 102.3823 7.7968 -0.0029 0.2681 2.8689 2.5661 56.8672 0.2641
6113.0000 3.6129 3.4273 3.3142 97.5708 7.8437 -0.0040 0.2860 2.8578 2.5637 56.6250 0.2608
6113.5000 3.8014 3.6773 3.5066 98.3206 7.8437 0.0008 0.2727 2.8720 2.5541 56.2768 0.2723
6114.0000 4.0381 3.9188 3.7809 101.3199 7.8671 -0.0018 0.2664 2.8972 2.5452 56.0703 0.2638
6114.5000 3.9647 3.8792 3.7181 96.4773 7.8319 -0.0037 0.2619 2.9197 2.5414 56.0804 0.2676
6115.0000 3.9130 3.7912 3.6379 95.9775 7.8437 -0.0056 0.2724 2.9133 2.5391 56.0625 0.2655
6115.5000 3.9399 3.7965 3.6558 102.4757 7.8437 -0.0072 0.2786 2.9017 2.5378 56.0357 0.2686
6116.0000 3.9294 3.8046 3.6573 107.5370 7.8202 -0.0065 0.2710 2.8821 2.5422 55.9609 0.2712
6116.5000 3.9198 3.7950 3.6433 104.2880 7.8202 -0.0046 0.2717 2.8698 2.5465 55.8214 0.2696
6117.0000 3.8813 3.7658 3.6232 93.7908 7.8319 -0.0006 0.2609 2.8518 2.5475 56.1172 0.2729
6117.5000 3.8564 3.7370 3.5940 93.1349 7.8202 0.0013 0.2734 2.8175 2.5293 56.3661 0.2580
6118.0000 3.8206 3.6959 3.5531 94.8838 7.7968 0.0038 0.2661 2.7854 2.5120 56.4643 0.2678
6118.5000 3.7636 3.5942 3.4519 100.6326 8.0547 0.0051 0.2691 2.7587 2.5091 56.6484 0.2586
6119.0000 3.5751 3.4577 3.3097 106.4746 7.8437 0.0045 0.2661 2.7670 2.5251 57.0536 0.2694
6119.5000 3.4065 3.2855 3.1627 110.1619 7.7968 0.0030 0.2708 2.7882 2.5517 57.2734 0.2638
6120.0000 3.3667 3.2582 3.1246 111.1611 7.7968 -0.0011 0.2857 2.8435 2.5590 57.5893 0.2691
6120.5000 3.4027 3.2681 3.1306 107.1626 7.7733 -0.0038 0.2835 2.9008 2.5541 57.6518 0.2774
6121.0000 3.4322 3.2837 3.1383 106.0691 7.7968 -0.0056 0.2833 2.9084 2.5436 57.4531 0.2712
6121.5000 3.4521 3.2968 3.1467 110.0682 7.8202 -0.0063 0.2726 2.9222 2.5319 57.3839 0.2773
6122.0000 3.4964 3.3375 3.1731 107.7872 7.7968 -0.0059 0.2708 2.9182 2.5339 57.3438 0.2654
6122.5000 3.5444 3.3877 3.2225 102.9442 7.7968 -0.0064 0.2675 2.9350 2.5337 57.2768 0.2678
