~VERSION INFORMATION
VERS.           1.2   :CWLS Log ASCII Standard - VERSION 1.2
WRAP.           NO    :One Line per depth step
PROD.  Schlumberger   :LAS Producer
PROG.  DLIS to ASCII 17C0-152                          :LAS Program name and version
CREA.        2013/10/06 02:44                          :LAS Creation date {YYYY/MM/DD hh:mm}
DLIS_CREA.  2013-Oct-05 16:22                          :DLIS Creation date and time {YYYY-MMM-DD hh:mm}
SOURCE.     563481d1-2dcb-47d9-a1d9-48f1ce5abb79       :DLIS File Name
#--------------------------------------------------
~WELL INFORMATION
#MNEM.UNIT      DATA             DESCRIPTION
#---- ------ --------------   -----------------------------
STRT .F      1000.5000       :START DEPTH        # original; data subset to 5500-8000
STOP .F      7736.0000       :STOP DEPTH        # original; data subset to 5500-8000
STEP .F       0.5000         :STEP       
NULL .          -999.25      :NULL VALUE
COMP .                 COMPANY:  Bear Oil & Gas, Inc.               
WELL .                    WELL:  Mattson 12-32                      
FLD  .                   FIELD:  Wildcat                            
LOC  .                LOCATION:  SWNW, Sec. 32, T16N, R60W          
CNTY .                  COUNTY:  Laramie                            
STAT .                   STATE:  Wyoming                            
CTRY .                 COUNTRY:                                     
SRVC .         SERVICE COMPANY:  Schlumberger                       
LATI .DEG             LATITUDE:  41.310000 degrees                  
LONG .DEG            LONGITUDE:  -104.15000 degrees                 
API  .              API NUMBER:  49-021-20933-0000                  
DATE .                LOG DATE:  05-Oct-2013
UWI  .          UNIQUE WELL ID:                                     
#-----------------------------------------------------------------------------
~PARAMETER INFORMATION
#MNEM.UNIT    VALUE                      DESCRIPTION
#---- -----   --------------------       ------------------------
CN   .        Bear Oil & Gas  Inc.       :Company Name
WN   .        Mattson 12-32              :Well Name
FN   .        Wildcat                    :Field Name
FL   .        SWNW  Sec. 32  T16N  R60W  :Field Location
FL1  .        SHL  2529' FNL X 605' FWL  :Field Location, Line 1
COUN .        Laramie                    :County or Parish
STAT .        Wyoming                    :State or Province
NATI .                                   :Nation
DATE .        05-Oct-2013                :Tools Above Rotary Table Date
APIN .        49-021-20933-0000          :API Well Number
SECT .        32                         :Section
TOWN .        16N                        :Township
RANG .        60W                        :Range
DMF  .        KB                         :Drilling Measured From (Name of Drilling Elevation Reference)
LMF  .        KB                         :Logging Measured From (Name of Logging Elevation Reference)
PDAT .        GL                         :Permanent Datum
ENGI .        Heather Hoffman            :Engineer s Name
WITN .        Terry Eitteim              :Witness s Name
LATI .        41.310000 degrees          :Latitude
LONG .        -104.15000 degrees         :Longitude
LUL  .        Ft. Morgan  CO             :Logging Unit Location
LUN  .        3022                       :Logging Unit Number
RUN  .        PEX AIT                    :Run Number
SON  .        CQQL-00002                 :Service Order Number
BHT  .DEGF     164.00000                 :Bottom Hole Temperature
BS   .IN         7.87500                 :Bit Size
MDEN .G/C3       2.65000                 :Matrix Density for Density Porosity
DFD  .LB/G       9.00000                 :Drilling Fluid Density
DFV  .S       -999.25000                 :Drilling Fluid Viscosity
DFL  .C3      -999.25000                 :Drilling Fluid Loss
RMFS .OHMM       0.94400                 :Resistivity of Mud Filtrate Sample
EKB  .F       5303.00000                 :Elevation of Kelly Bushing
EGL  .F       5291.00000                 :Elevation of Ground Level
BLI  .F       7708.00000                 :Bottom Log Interval
BSAL .PPM        0.00000                 :Borehole Salinity
FLEV .F          8.00000                 :Depth of Drilling Fluid Level to LMF (Log Measured From)
MCST .DEGF      68.00000                 :Mudcake Sample Temperature
MFST .DEGF      68.20000                 :Mud Filtrate Sample Temperature
MRT  .DEGF     164.00000                 :Maximum Recorded Temperature
MST  .DEGF      68.20000                 :Mud Sample Temperature
RMCS .OHMM       1.41600                 :Resistivity of Mud Cake Sample
RMS  .OHMM       1.18000                 :Resistivity of Mud Sample
RW   .OHMM       1.00000                 :Connate Water Resistivity
TDD  .F       7710.00000                 :Driller Total Depth
TDL  .F       7710.00000                 :Logger Total Depth
TLI  .F       1025.00000                 :Top Log Interval
HIDE .        Wildcat                    :Header Identifier
MATR .        SAND                       :Rock Matrix for Neutron Porosity Corrections
FNUM .           1.00000                 :F-Numerator for Formation Factor Formula
FEXP .           2.00000                 :Exponent "m" for Formation Factor Formula
DFT  .        WATER                      :Drilling Fluid Type
DFPH .        -999.25000                 :Drilling Fluid pH
MCSS .        Pressed                    :Mudcake Sample Source
MFSS .                                   :Mud Filtrate Sample Source
FD   .G/C3       1.00000                 :Fluid Density
MSS  .        Active Tank                :Mud Sample Source
OS1  .                                   :Other Services Line 1
OS2  .                                   :Other Services Line 2
OS3  .                                   :Other Services Line 3
OS4  .                                   :Other Services Line 4
OS5  .                                   :Other Services Line 5
R1   .                                   :Remarks Line 1
R2   .                                   :Remarks Line 2
R3   .                                   :Remarks Line 3
R4   .                                   :Remarks Line 4
R5   .                                   :Remarks Line 5
R6   .                                   :Remarks Line 6
R7   .                                   :Remarks Line 7
R8   .        This is the first run in hole. :Remarks Line 8
TCS  .        06 00 00                   :Time Circulation Stopped
TLAB .        15 16 28                   :Time Logger At Bottom
NMT  .        NOBARITE                   :HRDD Mud Type for Nuclear Devices
EPD  .C3         5291.000000             :Elevation of Permanent Datum above Mean Sea Level
APD  .F          12.000000               :Elevation of Depth Reference (LMF) above Permanent Datum
#-----------------------------------------------------------------------------
~CURVE INFORMATION
#MNEM.UNIT   API CODE                                  DESCRIPTION
#---- -----  --------                                  -----------------------
DEPT .F                                                :DEPTH (BOREHOLE) {F12.4}
AT10 .OHMM                                             :Array Induction Two Foot Resistivity A10 {F11.4}
AT30 .OHMM                                             :Array Induction Two Foot Resistivity A30 {F11.4}
AT90 .OHMM                                             :Array Induction Two Foot Resistivity A90 {F11.4}
GR   .GAPI                                             :Gamma Ray {F11.4}
HCAL .IN                                               :HRCC Caliper Calibrated {F11.4}
HDRA .G/C3                                             :Density Standoff Correction {F11.4}
NPHI .CFCF                                             :Thermal Neutron Porosity (original Ratio Method) in Selected Lithology {F11.4}
PEFZ .                                                 :Standard Resolution Formation Photoelectric Factor {F11.4}
RHOZ .G/C3                                             :Standard Resolution Formation Density {F11.4}
SP   .MV                                               :Spontaneous Potential {F11.4}
TNPH .CFCF                                             :Thermal Neutron Porosity (Ratio Method) in Selected Lithology {F11.4}
#-----------------------------------------------------------------------------
# 
#      DEPT        AF10       AF20       AF30       AF60       AF90       AO10       AO20       AO30       AO60       AO90       AT10       AT20       AT30       AT60       AT90     AHFCO60      AHMF      AHORT      AHORX      AHSCA     AHTCO10    AHTCO20    AHTCO30    AHTCO60    AHTCO90     AHTD1      AHTD2      AHTRT      AHTRX       CDF        CFTC       CNTC       CTEM       DCAL       DNPH       DPHZ       DSOZ       ECGR        ED        GDEV        GR      GR_EDTC      GTEM       HCAL       HDRA       HDRB       HGR        HMIN       HMNO       HNPO       HPRA       HTNP        ND        NPHI       NPOR       PEFZ    PXND_HILT     RHOZ       RSOZ     RWA_HILT     RXO8       RXOZ        SP        SPAR       STIT       TENS       TNPH     HTNP_SAN
#
~A  DEPT AT10 AT30 AT90 GR HCAL HDRA NPHI PEFZ RHOZ SP TNPH
# ...
6966.0000 5.5089 5.0630 4.7411 108.7555 7.8437 -0.0065 0.2271 3.6191 2.5512 66.7266 0.2038
6966.5000 5.9056 5.5508 5.1405 111.5059 7.8202 -0.0072 0.2316 3.6164 2.5501 66.6429 0.2125
6967.0000 6.4765 5.9773 5.4856 116.7543 7.7968 -0.0083 0.2170 3.6453 2.5529 66.5156 0.2121
6967.5000 5.9394 5.7708 5.3173 114.2548 7.7968 -0.0066 0.2137 3.6269 2.5714 66.4643 0.1946
6968.0000 5.5956 5.2696 4.9026 108.8806 7.7968 -0.0056 0.2070 3.6522 2.5784 66.4844 0.1949
6968.5000 5.9112 5.3613 5.0123 107.0998 7.8202 -0.0032 0.2137 3.6540 2.5817 66.4732 0.1920
6969.0000 6.2456 6.0027 5.5369 107.8498 7.7733 -0.0052 0.2019 3.7122 2.5636 66.4609 0.2025
6969.5000 6.3276 6.2806 5.7311 114.4105 7.7968 -0.0066 0.2124 3.6719 2.5560 66.4554 0.1954
6970.0000 5.8973 5.5890 5.2124 122.9086 7.7733 -0.0082 0.2182 3.5627 2.5532 66.4911 0.2056
6970.5000 5.3768 5.1500 4.8079 132.4687 7.8085 -0.0065 0.2341 3.3633 2.5682 66.4063 0.2124
6971.0000 6.2811 5.6850 5.3283 127.7823 7.7968 -0.0044 0.2319 3.2744 2.5803 66.2857 0.2151
6971.5000 7.2797 6.9384 6.3561 118.2845 7.7968 -0.0011 0.2188 3.3394 2.5955 66.2109 0.2019
6972.0000 9.1782 8.5163 7.6940 99.6950 7.7616 -0.0000 0.2044 3.5452 2.5984 66.1875 0.1854
6972.5000 9.2836 9.1598 8.2955 90.9469 7.7499 -0.0008 0.1806 3.7514 2.5949 66.3281 0.1729
6973.0000 8.5853 8.3412 7.6901 89.3538 7.7733 -0.0044 0.1696 3.9115 2.5758 66.1786 0.1616
6973.5000 8.1616 7.9554 7.3624 89.8851 7.7968 -0.0041 0.1621 3.9357 2.5706 66.3672 0.1626
6974.0000 7.9429 7.8100 7.2427 93.1342 7.7733 -0.0024 0.1668 3.8704 2.5742 66.6071 0.1610
6974.5000 7.1516 7.0014 6.6072 97.7270 7.7733 0.0004 0.1856 3.7557 2.5892 66.8047 0.1610
6975.0000 6.7021 6.6022 6.2401 101.4757 7.7733 0.0019 0.1902 3.7095 2.6062 66.8304 0.1675
6975.5000 7.1618 7.0095 6.5272 102.4756 7.7968 0.0005 0.1969 3.7113 2.6115 66.7232 0.1712
6976.0000 7.4032 7.2659 6.7770 100.9759 7.7968 0.0018 0.1914 3.7489 2.6075 66.6016 0.1774
6976.5000 7.8105 7.5361 7.0267 99.7579 7.7733 -0.0028 0.1894 3.7818 2.5904 66.7232 0.1766
6977.0000 8.4127 8.0484 7.5229 97.2585 7.7733 -0.0051 0.1793 3.8481 2.5774 66.7656 0.1797
6977.5000 8.6529 8.4093 7.9516 92.6344 7.7733 -0.0083 0.1747 3.8739 2.5795 66.7411 0.1678
6978.0000 8.6061 8.3156 7.8483 92.3532 7.7968 -0.0079 0.1795 3.9440 2.5762 66.6172 0.1566
6978.5000 8.5242 8.4692 7.8842 93.1033 7.7968 -0.0077 0.1685 3.9900 2.5778 66.5179 0.1581
6979.0000 8.6694 8.1345 7.6573 96.3837 7.7733 -0.0088 0.1688 4.0613 2.5725 66.6797 0.1546
6979.5000 7.0817 7.2152 6.8291 100.3832 7.7733 -0.0076 0.1675 4.0455 2.5748 67.1339 0.1666
6980.0000 5.7836 5.7458 5.4698 123.1281 7.7733 -0.0005 0.1973 3.9588 2.5902 67.2500 0.1768
6980.5000 4.7609 4.6749 4.4942 140.4674 7.7968 0.0023 0.2097 3.7982 2.5927 67.2266 0.1995
6981.0000 6.0614 5.3820 5.1554 145.7154 7.7968 0.0028 0.2022 3.6768 2.5964 67.2321 0.1908
6981.5000 6.7306 6.5420 6.0122 120.9707 7.7968 -0.0027 0.1942 3.6423 2.5896 67.3516 0.1792
6982.0000 6.5499 6.4916 6.0704 103.7251 7.7733 -0.0034 0.1767 3.6765 2.6016 67.4464 0.1719
6982.5000 6.4333 6.1189 5.8371 93.4464 7.7968 -0.0034 0.1794 3.7107 2.6144 67.2578 0.1619
6983.0000 6.2672 5.9480 5.6400 96.1964 7.7968 -0.0039 0.1799 3.7426 2.6175 67.1875 0.1680
6983.5000 6.0601 5.7748 5.4862 94.5721 7.7968 -0.0052 0.1876 3.7822 2.6123 67.1518 0.1706
6984.0000 5.8839 5.6165 5.3425 101.3516 7.7968 -0.0058 0.1819 3.7894 2.6079 67.1875 0.1798
6984.5000 5.5499 5.4206 5.1481 102.5696 7.7733 -0.0041 0.1909 3.6971 2.6161 67.2946 0.1679
6985.0000 5.2291 4.9764 4.7837 99.6948 7.8085 -0.0024 0.2023 3.5657 2.6234 67.2813 0.1782
6985.5000 4.9732 4.7157 4.4582 103.4442 7.7968 -0.0038 0.2248 3.5272 2.6095 67.3839 0.1934
6986.0000 5.1760 4.8348 4.5637 104.5375 7.7968 -0.0061 0.2227 3.5639 2.5850 67.4922 0.2156
6986.5000 5.1759 4.9362 4.6192 111.7861 7.7968 -0.0084 0.2288 3.6322 2.5642 67.4018 0.2117
6987.0000 5.2700 4.9874 4.6576 104.9754 7.7968 -0.0070 0.2305 3.6811 2.5590 67.4375 0.2168
6987.5000 5.2746 4.9692 4.6476 102.1633 7.7968 -0.0064 0.2172 3.6810 2.5680 67.5625 0.2147
6988.0000 5.1425 4.8938 4.5849 102.1634 7.8202 -0.0062 0.1998 3.6731 2.5750 67.6641 0.2021
6988.5000 5.0117 4.7574 4.4710 109.7242 7.7968 -0.0075 0.1925 3.6377 2.5836 67.6875 0.1892
6989.0000 4.8900 4.6716 4.4115 112.9733 7.8202 -0.0072 0.2029 3.6687 2.5834 67.5536 0.1798
6989.5000 4.9753 4.7300 4.4580 110.7238 7.7968 -0.0030 0.2078 3.7592 2.5787 67.5000 0.1805
6990.0000 5.1081 4.8510 4.5669 100.2263 7.8202 0.0029 0.1980 3.8683 2.5748 67.5357 0.1839
6990.5000 5.1927 4.9130 4.6239 100.8833 7.8202 0.0147 0.1894 3.9415 2.5727 67.3672 0.1834
6991.0000 5.2553 4.9536 4.6782 99.3832 7.8085 0.0108 0.1824 3.9753 2.5730 67.2589 0.1759
6991.5000 5.3066 4.9446 4.6692 104.2880 7.7968 0.0049 0.1853 3.9450 2.5701 67.4297 0.1722
6992.0000 4.9135 4.7689 4.4866 102.6317 7.7968 -0.0074 0.2013 3.8824 2.5635 67.5089 0.1761
6992.5000 4.6135 4.3567 4.1648 112.7236 7.7968 0.0040 0.2076 3.7107 2.5674 67.5703 0.1943
6993.0000 4.3089 4.0497 3.8448 120.3155 7.7968 0.0079 0.2299 3.5551 2.5661 67.6071 0.2071
6993.5000 4.3105 4.0599 3.8367 129.4073 7.7968 0.0097 0.2281 3.3645 2.5705 67.6071 0.2310
6994.0000 4.2767 4.0223 3.7894 129.0636 7.7968 -0.0014 0.2372 3.2948 2.5556 67.6953 0.2300
6994.5000 4.2454 4.0069 3.7616 122.1275 7.7968 -0.0049 0.2347 3.2637 2.5425 67.6875 0.2349
6995.0000 4.2278 3.9957 3.7520 121.5339 7.7968 -0.0030 0.2374 3.2744 2.5396 67.8125 0.2250
6995.5000 4.0942 3.8418 3.6116 124.0645 7.7968 -0.0035 0.2561 3.2885 2.5354 67.9643 0.2232
6996.0000 3.9678 3.7314 3.5029 123.0026 7.7968 -0.0037 0.2555 3.2893 2.5426 68.0000 0.2333
6996.5000 3.8393 3.6201 3.4108 117.4727 7.8202 -0.0072 0.2511 3.3341 2.5408 67.8661 0.2299
6997.0000 3.7895 3.5457 3.3431 114.6921 7.8202 -0.0053 0.2240 3.3023 2.5622 67.7054 0.2280
6997.5000 3.8182 3.5625 3.3648 119.9400 7.8437 -0.0049 0.2091 3.3069 2.5684 67.6875 0.2148
6998.0000 3.8477 3.6064 3.3846 118.4091 7.8319 -0.0049 0.2082 3.3174 2.5653 67.9911 0.2051
6998.5000 3.8125 3.5657 3.3556 113.9103 7.8202 -0.0056 0.2269 3.3572 2.5549 68.1094 0.2039
6999.0000 3.7801 3.5515 3.3361 107.7560 7.8202 -0.0055 0.2272 3.3887 2.5515 67.9643 0.2099
6999.5000 3.8134 3.5646 3.3502 109.8179 7.8202 -0.0038 0.2319 3.3959 2.5600 67.9766 0.2015
7000.0000 3.8535 3.6015 3.3760 111.3173 7.8202 -0.0046 0.2199 3.4451 2.5604 68.1429 0.2067
7000.5000 3.7553 3.4719 3.2641 110.2243 7.8202 -0.0059 0.2311 3.4857 2.5547 68.1172 0.2011
7001.0000 3.6292 3.3579 3.1616 110.2239 7.8202 -0.0055 0.2257 3.4567 2.5504 68.2232 0.2145
7001.5000 3.5291 3.3096 3.0962 103.5378 7.8085 -0.0050 0.2268 3.4066 2.5458 68.3125 0.2065
7002.0000 3.3169 3.1367 2.9503 110.2863 7.7499 -0.0010 0.2273 3.2816 2.5608 68.1696 0.2128
7002.5000 3.1496 2.9403 2.7812 105.2881 7.8202 -0.0001 0.2354 3.2401 2.5657 67.9453 0.2239
7003.0000 3.0658 2.8809 2.7101 114.2550 7.7968 0.0012 0.2385 3.1999 2.5715 67.8482 0.2394
7003.5000 3.1390 2.8859 2.7105 115.5044 7.8202 -0.0016 0.2497 3.2430 2.5581 67.9464 0.2391
7004.0000 3.1648 2.9451 2.7434 125.5017 7.7968 -0.0038 0.2500 3.2657 2.5486 68.1641 0.2390
7004.5000 3.1692 2.9481 2.7444 126.1581 7.7968 -0.0065 0.2536 3.3040 2.5391 68.1339 0.2327
7005.0000 3.1569 2.9175 2.7254 123.9086 7.8202 -0.0056 0.2449 3.2816 2.5455 67.9453 0.2384
7005.5000 3.1361 2.9003 2.7160 118.1600 7.7968 -0.0067 0.2556 3.3006 2.5359 67.8839 0.2348
7006.0000 3.0924 2.8807 2.7002 120.5652 7.7968 -0.0040 0.2608 3.2630 2.5270 67.8672 0.2442
7006.5000 3.0355 2.8200 2.6589 119.0651 7.7968 0.0013 0.2671 3.2670 2.5188 67.5893 0.2450
7007.0000 2.9944 2.7823 2.6249 128.0628 7.7733 0.0089 0.2718 3.2356 2.5257 67.5804 0.2492
7007.5000 3.0567 2.8191 2.6548 126.3134 7.7733 0.0098 0.2802 3.2009 2.5312 67.7109 0.2623
7008.0000 3.0879 2.8689 2.7023 134.3123 7.7968 0.0045 0.2820 3.1687 2.5265 67.9196 0.2708
7008.5000 3.0915 2.8760 2.7099 136.0619 7.7968 -0.0011 0.2641 3.1470 2.5211 67.8516 0.2669
7009.0000 3.1114 2.8911 2.7266 134.0932 7.7968 -0.0024 0.2488 3.1625 2.5160 67.8571 0.2506
7009.5000 3.1589 2.9335 2.7636 132.8435 7.7968 0.0034 0.2583 3.1810 2.5221 68.0391 0.2402
7010.0000 3.2004 2.9661 2.8010 122.3460 7.7499 0.0049 0.2750 3.2124 2.5114 68.0536 0.2519
