~VERSION INFORMATION
VERS.           1.2   :CWLS Log ASCII Standard - VERSION 1.2
WRAP.           NO    :One Line per depth step
PROD.  Schlumberger   :LAS Producer
PROG.  DLIS to ASCII 17C0-152                          :LAS Program name and version
CREA.        2013/08/16 09:04                          :LAS Creation date {YYYY/MM/DD hh:mm}
DLIS_CREA.  2013-Aug-16 00:16                          :DLIS Creation date and time {YYYY-MMM-DD hh:mm}
SOURCE.     960568ea-4174-41e0-a405-0f32a02141a6       :DLIS File Name
#--------------------------------------------------
~WELL INFORMATION
#MNEM.UNIT      DATA             DESCRIPTION
#---- ------ --------------   -----------------------------
STRT .F      457.0000        :START DEPTH        # original; data subset to 5500-8000
STOP .F      7701.0000       :STOP DEPTH        # original; data subset to 5500-8000
STEP .F       0.5000         :STEP       
NULL .          -999.25      :NULL VALUE
COMP .                 COMPANY:  Bear Oil & Gas, Inc.               
WELL .                    WELL:  Fornstrom 13-32A                   
FLD  .                   FIELD:  Wildcat                            
LOC  .                LOCATION:  SHL: NWSW 1925' FSL & 540" FWL     
CNTY .                  COUNTY:  Laramie                            
STAT .                   STATE:  Wyoming                            
CTRY .                 COUNTRY:  United States                      
SRVC .         SERVICE COMPANY:  Schlumberger                       
LATI .DEG             LATITUDE:  41.307320 degrees                  
LONG .DEG            LONGITUDE:  -104.11715 degrees                 
API  .              API NUMBER:  49-021-21022                       
DATE .                LOG DATE:  15-Aug-2013
UWI  .          UNIQUE WELL ID:  49021210220000                     
#-----------------------------------------------------------------------------
~PARAMETER INFORMATION
#MNEM.UNIT    VALUE                      DESCRIPTION
#---- -----   --------------------       ------------------------
CN   .        Bear Oil & Gas  Inc.       :Company Name
WN   .        Fornstrom 13-32A           :Well Name
FN   .        Wildcat                    :Field Name
FL   .        SHL  NWSW 1925' FSL & 540  FWL :Field Location
FL1  .        Sec. 32  T. 16N  R. 60W    :Field Location, Line 1
COUN .        Laramie                    :County or Parish
STAT .        Wyoming                    :State or Province
NATI .        United States              :Nation
DATE .        15-Aug-2013                :Tools Above Rotary Table Date
APIN .        49-021-21022               :API Well Number
SECT .        32                         :Section
TOWN .        16N                        :Township
RANG .        60W                        :Range
DMF  .        KB                         :Drilling Measured From (Name of Drilling Elevation Reference)
LMF  .        KB                         :Logging Measured From (Name of Logging Elevation Reference)
PDAT .        GL                         :Permanent Datum
ENGI .        Max Pace                   :Engineer s Name
WITN .        Tery Eittreim              :Witness s Name
LATI .        41.307320 degrees          :Latitude
LONG .        -104.11715 degrees         :Longitude
LUL  .        Fort Morgan  CO            :Logging Unit Location
LUN  .        3030                       :Logging Unit Number
RUN  .        Run 1                      :Run Number
SON  .        CA0R-00040                 :Service Order Number
BHT  .DEGF     168.00000                 :Bottom Hole Temperature
BS   .IN         7.87500                 :Bit Size
MDEN .G/C3       2.65000                 :Matrix Density for Density Porosity
DFD  .LB/G       8.80000                 :Drilling Fluid Density
DFV  .S         36.00000                 :Drilling Fluid Viscosity
DFL  .C3         5.00000                 :Drilling Fluid Loss
RMFS .OHMM       1.11000                 :Resistivity of Mud Filtrate Sample
EKB  .F       5298.00000                 :Elevation of Kelly Bushing
EGL  .F       5286.00000                 :Elevation of Ground Level
BLI  .F       7687.00000                 :Bottom Log Interval
BSAL .PPM     3295.90967                 :Borehole Salinity
FLEV .F          8.00000                 :Depth of Drilling Fluid Level to LMF (Log Measured From)
MCST .DEGF      84.00000                 :Mudcake Sample Temperature
MFST .DEGF      84.00000                 :Mud Filtrate Sample Temperature
MRT  .DEGF     168.00000                 :Maximum Recorded Temperature
MST  .DEGF      84.00000                 :Mud Sample Temperature
RMCS .OHMM       1.85000                 :Resistivity of Mud Cake Sample
RMS  .OHMM       1.48000                 :Resistivity of Mud Sample
RW   .OHMM       1.00000                 :Connate Water Resistivity
TDD  .F       7680.00000                 :Driller Total Depth
TDL  .F       7687.00000                 :Logger Total Depth
TLI  .F       1026.25000                 :Top Log Interval
HIDE .        Wildcat                    :Header Identifier
MATR .        SAND                       :Rock Matrix for Neutron Porosity Corrections
FNUM .           1.00000                 :F-Numerator for Formation Factor Formula
FEXP .           2.00000                 :Exponent "m" for Formation Factor Formula
DFT  .        Fresh Water                :Drilling Fluid Type
DFPH .           8.50000                 :Drilling Fluid pH
MCSS .        Calculated                 :Mudcake Sample Source
MFSS .        Calculated                 :Mud Filtrate Sample Source
FD   .G/C3       1.00000                 :Fluid Density
MSS  .        Active Tank                :Mud Sample Source
OS1  .                                   :Other Services Line 1
OS2  .                                   :Other Services Line 2
OS3  .                                   :Other Services Line 3
OS4  .                                   :Other Services Line 4
OS5  .                                   :Other Services Line 5
R1   .                                   :Remarks Line 1
R2   .                                   :Remarks Line 2
R3   .                                   :Remarks Line 3
R4   .                                   :Remarks Line 4
R5   .                                   :Remarks Line 5
R6   .                                   :Remarks Line 6
R7   .                                   :Remarks Line 7
R8   .                                   :Remarks Line 8
TCS  .        14 00 00                   :Time Circulation Stopped
TLAB .        22 20 59                   :Time Logger At Bottom
NMT  .        NOBARITE                   :HRDD Mud Type for Nuclear Devices
EPD  .F         5286.000000              :Elevation of Permanent Datum above Mean Sea Level
APD  .F          12.000000               :Elevation of Depth Reference (LMF) above Permanent Datum
#-----------------------------------------------------------------------------
~CURVE INFORMATION
#MNEM.UNIT   API CODE                                  DESCRIPTION
#---- -----  --------                                  -----------------------
DEPT .F                                                :DEPTH (BOREHOLE) {F12.4}
AT10 .OHMM                                             :Array Induction Two Foot Resistivity A10 {F11.4}
AT30 .OHMM                                             :Array Induction Two Foot Resistivity A30 {F11.4}
AT90 .OHMM                                             :Array Induction Two Foot Resistivity A90 {F11.4}
GR   .GAPI                                             :Gamma Ray {F11.4}
HCAL .IN                                               :HRCC Caliper Calibrated {F11.4}
HDRA .G/C3                                             :Density Standoff Correction {F11.4}
NPHI .CFCF                                             :Thermal Neutron Porosity (original Ratio Method) in Selected Lithology {F11.4}
PEFZ .                                                 :Standard Resolution Formation Photoelectric Factor {F11.4}
RHOZ .G/C3                                             :Standard Resolution Formation Density {F11.4}
SP   .MV                                               :Spontaneous Potential {F11.4}
TNPH .CFCF                                             :Thermal Neutron Porosity (Ratio Method) in Selected Lithology {F11.4}
#-----------------------------------------------------------------------------
# 
#      DEPT        AF10       AF20       AF30       AF60       AF90       AO10       AO20       AO30       AO60       AO90       AT10       AT20       AT30       AT60       AT90     AHFCO60      AHMF      AHORT      AHORX      AHSCA     AHTCO10    AHTCO20    AHTCO30    AHTCO60    AHTCO90     AHTD1      AHTD2      AHTRT      AHTRX       CDF        CFTC       CNTC       CTEM       DCAL       DNPH       DPHZ       DSOZ       ECGR        ED        GDEV        GR        GTEM       HCAL       HDRA       HDRB       HGR        HMIN       HMNO       HNPO       HPRA       HTNP        ND        NPHI       NPOR       PEFZ    PXND_HILT     RHOZ       RSOZ     RWA_HILT     RXO8       RXOZ        SP        SPAR       STIT       TENS       TNPH     HTNP_SAN
#
~A  DEPT AT10 AT30 AT90 GR HCAL HDRA NPHI PEFZ RHOZ SP TNPH
# ...
6657.0000 14.4401 13.3688 12.3379 112.6479 7.6449 -0.0034 0.1732 4.7941 2.4741 38.8047 0.1585
6657.5000 13.9660 13.0577 12.1089 114.8587 7.6449 -0.0011 0.1688 4.8452 2.4763 38.7411 0.1573
6658.0000 13.4193 12.6176 11.7684 126.9713 7.6449 0.0006 0.1655 4.8540 2.4733 39.3203 0.1672
6658.5000 13.9307 12.7948 11.9195 144.1710 7.6449 -0.0006 0.1873 4.8834 2.4583 40.1786 0.1721
6659.0000 15.4050 14.2043 13.1408 158.1917 7.6449 -0.0012 0.2328 4.8820 2.4360 40.9063 0.1896
6659.5000 17.1081 15.8682 14.5485 173.6356 7.6449 -0.0055 0.2527 4.8618 2.4277 39.7768 0.2111
6660.0000 17.0652 15.7962 14.5548 154.2557 7.6449 -0.0065 0.2310 4.8364 2.4363 36.5703 0.2045
6660.5000 17.1648 15.7931 14.6501 133.0277 7.6218 -0.0094 0.1801 4.8501 2.4490 34.8750 0.1747
6661.0000 18.1413 16.8470 15.5602 107.4092 7.6449 -0.0065 0.1623 4.8502 2.4592 34.2344 0.1495
6661.5000 19.1149 17.8319 16.4248 115.3429 7.6449 -0.0045 0.1795 4.8345 2.4603 34.5982 0.1511
6662.0000 20.1721 19.0646 17.4868 127.1230 7.6449 -0.0032 0.1971 4.8077 2.4589 35.7891 0.1708
6662.5000 21.2501 20.0302 18.3380 135.3593 7.6449 -0.0024 0.2079 4.7993 2.4598 35.7500 0.1848
6663.0000 22.1963 20.7509 18.9296 136.1470 7.6449 -0.0038 0.2012 4.8302 2.4589 36.0804 0.1868
6663.5000 22.7404 21.0888 19.1275 135.1777 7.6449 -0.0058 0.1944 4.8734 2.4558 36.9219 0.1815
6664.0000 23.1172 21.5951 19.6549 142.2032 7.6334 -0.0082 0.1894 4.9373 2.4490 36.9821 0.1784
6664.5000 23.5823 22.3390 20.2076 143.3235 7.6449 -0.0081 0.1766 4.9741 2.4475 36.9766 0.1756
6665.0000 24.0308 22.5983 20.5196 141.3846 7.6449 -0.0057 0.1698 4.9417 2.4509 36.9911 0.1638
6665.5000 24.2158 22.9516 20.8594 153.2252 7.6449 -0.0055 0.1943 4.8990 2.4413 37.9375 0.1660
6666.0000 23.9270 22.9145 20.6997 174.3918 7.6449 -0.0068 0.2218 4.8543 2.4299 38.4464 0.1853
6666.5000 21.5257 20.8351 19.0545 174.2106 7.6449 -0.0077 0.2267 4.8375 2.4300 37.6641 0.2022
6667.0000 19.5686 18.4800 17.0906 158.7363 7.6449 -0.0055 0.2101 4.8289 2.4455 37.6786 0.1893
6667.5000 17.9476 16.9611 15.9154 140.5371 7.6449 -0.0022 0.2026 4.7903 2.4643 38.3438 0.1807
6668.0000 18.4408 17.2752 16.1680 137.0851 7.6449 -0.0000 0.1962 4.7342 2.4772 37.8594 0.1849
6668.5000 18.9211 17.9545 16.7930 137.2967 7.6449 0.0005 0.2033 4.6809 2.4830 38.0446 0.1784
6669.0000 19.9500 18.5471 17.4128 139.0233 7.6449 0.0007 0.1926 4.6741 2.4864 38.3906 0.1859
6669.5000 21.6034 19.6569 18.4922 139.0838 7.6449 -0.0001 0.2106 4.7000 2.4843 38.7768 0.1772
6670.0000 22.4276 20.4792 19.3176 144.6869 7.6449 -0.0010 0.2161 4.7379 2.4774 39.7578 0.1873
6670.5000 22.2964 20.4607 19.5005 152.9226 7.6449 -0.0018 0.2290 4.7569 2.4653 41.0625 0.1981
6671.0000 22.0476 20.6989 19.5326 175.3919 7.6449 -0.0031 0.2312 4.7845 2.4470 42.3281 0.2228
6671.5000 21.9680 20.4603 19.3797 185.4752 7.6449 -0.0015 0.2336 4.7467 2.4451 43.3839 0.2274
6672.0000 19.0639 18.6444 17.5616 188.1402 7.6449 -0.0000 0.2396 4.6640 2.4504 43.9688 0.2338
6672.5000 15.1663 14.8931 14.1612 174.7861 7.6218 0.0030 0.2383 4.5589 2.4686 44.1696 0.2309
6673.0000 11.7367 10.9496 10.4803 150.8938 7.6449 0.0027 0.2292 4.4924 2.4740 44.0469 0.2118
6673.5000 13.7477 11.5758 11.0042 144.8370 7.6680 0.0014 0.2179 4.4980 2.4711 42.7232 0.2003
6674.0000 17.9593 17.4098 15.8690 153.3457 7.6449 -0.0026 0.2156 4.5990 2.4484 41.7031 0.1935
6674.5000 24.8651 23.5013 20.9200 184.2330 7.6680 -0.0040 0.2287 4.6886 2.4302 41.1875 0.2054
6675.0000 24.1998 23.9973 21.2340 199.9812 7.6449 -0.0034 0.2464 4.7373 2.4236 41.2109 0.2200
6675.5000 22.0275 20.9697 19.0248 198.4668 7.6449 -0.0032 0.2440 4.7737 2.4231 40.4286 0.2299
6676.0000 20.1567 18.6942 17.0712 180.1768 7.6680 -0.0026 0.2202 4.8080 2.4258 39.4063 0.2154
6676.5000 22.3505 20.0404 18.7524 174.8158 7.6449 -0.0049 0.2276 4.8756 2.4107 40.2109 0.1993
6677.0000 24.7552 23.5582 22.1474 178.9948 7.6449 -0.0047 0.2329 4.8096 2.4047 41.3482 0.2247
6677.5000 27.4209 25.9321 23.8461 199.4050 7.6680 -0.0050 0.2509 4.7443 2.4015 41.8359 0.2268
6678.0000 25.8185 25.0640 23.2333 199.4348 7.6449 -0.0039 0.2363 4.6878 2.4087 41.7768 0.2299
6678.5000 22.7683 21.9378 20.3021 206.7031 7.6680 -0.0044 0.2363 4.7280 2.4102 41.4063 0.2171
6679.0000 20.7272 19.9467 18.5048 198.4055 7.6680 -0.0065 0.2395 4.8239 2.4011 40.6786 0.2160
6679.5000 19.1330 18.2674 17.1682 196.0443 7.6680 -0.0068 0.2345 4.8457 2.4022 39.8828 0.2180
6680.0000 18.0524 17.5809 16.7500 197.4965 7.6449 -0.0068 0.2411 4.8660 2.3999 38.8929 0.2198
6680.5000 17.9145 16.8122 16.2760 204.7347 7.6449 -0.0050 0.2414 4.8228 2.4072 37.7734 0.2222
6681.0000 18.9067 17.8199 16.8523 199.3444 7.6449 -0.0038 0.2475 4.8050 2.4184 36.7143 0.2203
6681.5000 18.7622 18.0404 17.0682 172.8782 7.6449 -0.0029 0.2203 4.8081 2.4372 34.5391 0.2125
6682.0000 17.9577 17.1955 16.2928 149.4090 7.6449 -0.0032 0.1897 4.8574 2.4481 33.6607 0.1753
6682.5000 18.4429 16.9722 16.1103 146.3204 7.6449 -0.0031 0.1740 4.9004 2.4447 34.6641 0.1634
6683.0000 19.2034 18.1738 17.0219 163.0971 7.6449 -0.0014 0.2062 4.8912 2.4351 36.2500 0.1743
6683.5000 18.8766 18.5458 17.3427 182.5378 7.6449 -0.0003 0.2339 4.8749 2.4241 38.0234 0.2095
6684.0000 17.6437 16.5466 15.7509 194.3479 7.6449 -0.0005 0.2467 4.8717 2.4203 38.6607 0.2276
6684.5000 18.8506 17.0465 16.1360 188.3822 7.6449 -0.0014 0.2344 4.8546 2.4307 37.2031 0.2173
6685.0000 19.3778 18.6973 17.1150 181.7815 7.6449 -0.0027 0.2165 4.8406 2.4473 36.1071 0.1927
6685.5000 19.0320 18.6838 17.2335 168.9118 7.6449 -0.0040 0.2020 4.8280 2.4597 35.3203 0.1848
6686.0000 18.1410 17.5238 16.4945 163.0075 7.6449 -0.0047 0.2016 4.8270 2.4612 35.9453 0.1836
6686.5000 17.7856 16.6952 15.6463 150.3184 7.6449 -0.0057 0.2122 4.8804 2.4479 36.4911 0.1912
6687.0000 18.6441 17.7740 16.6955 152.0445 7.6449 -0.0056 0.2191 4.9597 2.4338 35.9844 0.2058
6687.5000 18.2870 17.7917 16.5381 161.9756 7.6449 -0.0052 0.2283 5.0443 2.4234 36.3571 0.2077
6688.0000 17.2287 16.5393 15.6377 162.0670 7.6449 -0.0022 0.2170 5.0193 2.4351 35.6250 0.2105
6688.5000 16.4081 15.6940 14.8162 153.7701 7.6680 -0.0004 0.2097 4.9866 2.4478 34.4732 0.1930
6689.0000 15.8967 15.3568 14.5632 142.1429 7.6449 0.0001 0.1924 4.9763 2.4540 33.8828 0.1863
6689.5000 16.1716 15.2394 14.4519 144.3834 7.6449 -0.0019 0.2071 5.0396 2.4441 34.2969 0.1714
6690.0000 16.6456 15.6972 14.8878 150.7422 7.6449 -0.0029 0.2122 5.0744 2.4389 34.0982 0.1863
6690.5000 16.4962 15.2562 14.5826 146.0488 7.6449 -0.0025 0.2044 5.0304 2.4487 33.6696 0.1868
6691.0000 15.0093 13.9936 13.5297 127.5772 7.6449 -0.0009 0.1818 4.9336 2.4673 33.8984 0.1791
6691.5000 13.1421 12.0961 11.6880 117.4022 7.6449 -0.0008 0.1887 4.8849 2.4749 35.4063 0.1688
6692.0000 11.0246 10.4363 10.0320 107.0755 7.6449 -0.0014 0.1990 4.8775 2.4742 36.1339 0.1774
6692.5000 9.3435 8.7077 8.4441 97.3548 7.6449 -0.0035 0.2004 4.9011 2.4697 35.1250 0.1776
6693.0000 8.1917 7.7625 7.5054 77.2482 7.6449 -0.0015 0.1815 4.8682 2.4703 35.1429 0.1694
6693.5000 8.5967 7.9849 7.6347 70.4047 7.6449 0.0080 0.1804 4.7999 2.4717 36.2969 0.1651
6694.0000 8.8362 8.1375 7.7021 80.6098 7.6449 0.0209 0.2003 4.7227 2.4710 38.1786 0.1835
6694.5000 8.6010 7.9651 7.5484 102.6240 7.6449 0.0178 0.2035 4.7358 2.4603 39.0703 0.2047
6695.0000 8.8807 7.9459 7.5234 118.4314 7.6218 0.0065 0.2234 4.8151 2.4455 38.2768 0.1914
6695.5000 9.1945 8.0028 7.5423 117.5532 7.6449 -0.0067 0.2078 4.9213 2.4353 36.8281 0.1920
6696.0000 8.6017 7.8013 7.3340 101.8377 7.6449 -0.0070 0.2132 4.9521 2.4403 34.8571 0.1746
6696.5000 7.8918 7.3310 6.9432 88.9982 7.6449 -0.0074 0.1902 4.9872 2.4445 33.9063 0.1776
6697.0000 7.3556 6.9083 6.5680 86.2428 7.6449 -0.0071 0.1742 4.9946 2.4466 32.2411 0.1615
6697.5000 7.4307 6.9660 6.5973 88.8163 7.6449 -0.0073 0.1682 4.9650 2.4470 32.4219 0.1578
6698.0000 8.0364 7.5732 7.1024 107.4696 7.6449 -0.0070 0.1875 4.9128 2.4416 35.0536 0.1639
6698.5000 9.0073 8.2430 7.6762 134.1780 7.6680 -0.0074 0.2189 4.8453 2.4332 37.3516 0.1902
6699.0000 10.0498 9.1266 8.4341 155.5871 7.6449 -0.0081 0.2299 4.8112 2.4243 37.9732 0.2142
6699.5000 11.4822 10.4458 9.5841 156.4349 7.6449 -0.0079 0.2293 4.7798 2.4277 36.8438 0.2078
