~VERSION INFORMATION
VERS.           1.2   :CWLS Log ASCII Standard - VERSION 1.2
WRAP.           NO    :One Line per depth step
PROD.  Schlumberger   :LAS Producer
PROG.  DLIS to ASCII 17C0-152                          :LAS Program name and version
CREA.        2013/11/03 06:14                          :LAS Creation date {YYYY/MM/DD hh:mm}
DLIS_CREA.  2013-Nov-02 20:25                          :DLIS Creation date and time {YYYY-MMM-DD hh:mm}
SOURCE.     36f617ea-a8f9-4f31-9cfe-b4906ac6e0fc       :DLIS File Name
#--------------------------------------------------
~WELL INFORMATION
#MNEM.UNIT      DATA             DESCRIPTION
#---- ------ --------------   -----------------------------
STRT .F      1000.5000       :START DEPTH        # original; data subset to 5500-8000
STOP .F      7745.0000       :STOP DEPTH        # original; data subset to 5500-8000
STEP .F       0.5000         :STEP       
NULL .          -999.25      :NULL VALUE
COMP .                 COMPANY:  Bear Oil & Gas, Inc.               
WELL .                    WELL:  Marquardt 34-31                    
FLD  .                   FIELD:  Wildcat                            
LOC  .                LOCATION:  SWSE, Sec. 31, T16N, R60W          
CNTY .                  COUNTY:  Laramie                            
STAT .                   STATE:  Wyoming                            
CTRY .                 COUNTRY:                                     
SRVC .         SERVICE COMPANY:  Schlumberger                       
LATI .DEG             LATITUDE:  41.305550 degrees                  
LONG .DEG            LONGITUDE:  -104.12401 degrees                 
API  .              API NUMBER:  49-021-21046-0000                  
DATE .                LOG DATE:  02-Nov-2013
UWI  .          UNIQUE WELL ID:                                     
#-----------------------------------------------------------------------------
~PARAMETER INFORMATION
#MNEM.UNIT    VALUE                      DESCRIPTION
#---- -----   --------------------       ------------------------
CN   .        Bear Oil & Gas  Inc.       :Company Name
WN   .        Marquardt 34-31            :Well Name
FN   .        Wildcat                    :Field Name
FL   .        SWSE  Sec. 31  T16N  R60W  :Field Location
FL1  .        SHL  1265' FSL X 1340' FEL :Field Location, Line 1
COUN .        Laramie                    :County or Parish
STAT .        Wyoming                    :State or Province
NATI .                                   :Nation
DATE .        02-Nov-2013                :Tools Above Rotary Table Date
APIN .        49-021-21046-0000          :API Well Number
SECT .        31                         :Section
TOWN .        16N                        :Township
RANG .        60W                        :Range
DMF  .        KB                         :Drilling Measured From (Name of Drilling Elevation Reference)
LMF  .        KB                         :Logging Measured From (Name of Logging Elevation Reference)
PDAT .        GL                         :Permanent Datum
ENGI .        Heather Hoffman            :Engineer s Name
WITN .        Terry Eittreim             :Witness s Name
LATI .        41.305550 degrees          :Latitude
LONG .        -104.12401 degrees         :Longitude
LUL  .        Fort Morgan  CO            :Logging Unit Location
LUN  .        2135                       :Logging Unit Number
RUN  .        PEX BHC AIT                :Run Number
SON  .        CQQL-00004                 :Service Order Number
BHT  .DEGF     185.00000                 :Bottom Hole Temperature
BS   .IN         7.87500                 :Bit Size
MDEN .G/C3       2.65000                 :Matrix Density for Density Porosity
DFD  .LB/G       9.10000                 :Drilling Fluid Density
DFV  .S         82.00000                 :Drilling Fluid Viscosity
DFL  .C3      -999.25000                 :Drilling Fluid Loss
RMFS .OHMM       1.18400                 :Resistivity of Mud Filtrate Sample
EKB  .F       10594.00000                :Elevation of Kelly Bushing
EGL  .F       5291.00000                 :Elevation of Ground Level
BLI  .F       7724.00000                 :Bottom Log Interval
BSAL .PPM        0.00000                 :Borehole Salinity
FLEV .F         50.00000                 :Depth of Drilling Fluid Level to LMF (Log Measured From)
MCST .DEGF      85.00000                 :Mudcake Sample Temperature
MFST .DEGF      85.00000                 :Mud Filtrate Sample Temperature
MRT  .DEGF     185.00000                 :Maximum Recorded Temperature
MST  .DEGF      85.00000                 :Mud Sample Temperature
RMCS .OHMM       1.77600                 :Resistivity of Mud Cake Sample
RMS  .OHMM       1.48000                 :Resistivity of Mud Sample
RW   .OHMM       1.00000                 :Connate Water Resistivity
TDD  .F       7719.99951                 :Driller Total Depth
TDL  .F       7724.00000                 :Logger Total Depth
TLI  .F       1024.00000                 :Top Log Interval
HIDE .        Wildcat                    :Header Identifier
MATR .        SAND                       :Rock Matrix for Neutron Porosity Corrections
FNUM .           1.00000                 :F-Numerator for Formation Factor Formula
FEXP .           2.00000                 :Exponent "m" for Formation Factor Formula
DFT  .        WATER                      :Drilling Fluid Type
DFPH .        -999.25000                 :Drilling Fluid pH
MCSS .        Calculated                 :Mudcake Sample Source
MFSS .        Calculated                 :Mud Filtrate Sample Source
FD   .G/C3       1.00000                 :Fluid Density
MSS  .        Active Tank                :Mud Sample Source
OS1  .                                   :Other Services Line 1
OS2  .                                   :Other Services Line 2
OS3  .                                   :Other Services Line 3
OS4  .                                   :Other Services Line 4
OS5  .                                   :Other Services Line 5
R1   .                                   :Remarks Line 1
R2   .                                   :Remarks Line 2
R3   .                                   :Remarks Line 3
R4   .                                   :Remarks Line 4
R5   .                                   :Remarks Line 5
R6   .                                   :Remarks Line 6
R7   .                                   :Remarks Line 7
R8   .        This is first run in hole. :Remarks Line 8
TCS  .        09 55 00                   :Time Circulation Stopped
TLAB .        20 18 33                   :Time Logger At Bottom
NMT  .        NOBARITE                   :HRDD Mud Type for Nuclear Devices
EPD  .C3         5291.000000             :Elevation of Permanent Datum above Mean Sea Level
APD  .F         5303.000000              :Elevation of Depth Reference (LMF) above Permanent Datum
#-----------------------------------------------------------------------------
~CURVE INFORMATION
#MNEM.UNIT   API CODE                                  DESCRIPTION
#---- -----  --------                                  -----------------------
DEPT .F                                                :DEPTH (BOREHOLE) {F12.4}
AT10 .OHMM                                             :Array Induction Two Foot Resistivity A10 {F11.4}
AT30 .OHMM                                             :Array Induction Two Foot Resistivity A30 {F11.4}
AT90 .OHMM                                             :Array Induction Two Foot Resistivity A90 {F11.4}
DT   .US/F                                             :Delta-T (also called Slowness or Interval Transit Time) {F11.4}
GR   .GAPI                                             :Gamma Ray {F11.4}
HCAL .IN                                               :HRCC Caliper Calibrated {F11.4}
HDRA .G/C3                                             :Density Standoff Correction {F11.4}
NPHI .CFCF                                             :Thermal Neutron Porosity (original Ratio Method) in Selected Lithology {F11.4}
PEFZ .                                                 :Standard Resolution Formation Photoelectric Factor {F11.4}
RHOZ .G/C3                                             :Standard Resolution Formation Density {F11.4}
SP   .MV                                               :Spontaneous Potential {F11.4}
TNPH .CFCF                                             :Thermal Neutron Porosity (Ratio Method) in Selected Lithology {F11.4}
#-----------------------------------------------------------------------------
# 
#      DEPT        AF10       AF20       AF30       AF60       AF90       AO10       AO20       AO30       AO60       AO90       AT10       AT20       AT30       AT60       AT90     AHFCO60      AHMF      AHORT      AHORX      AHSCA     AHTCO10    AHTCO20    AHTCO30    AHTCO60    AHTCO90     AHTD1      AHTD2      AHTRT      AHTRX       CDF        CFTC       CNTC       CTEM       DCAL       DNPH       DPHZ       DSOZ        DT        ECGR        ED        GDEV        GR        GTEM       HCAL       HDRA       HDRB       HGR        HMIN       HMNO       HNPO       HPRA       HTNP       ITT         ND        NPHI       NPOR       PEFZ    PXND_HILT     RHOZ       RSOZ     RWA_HILT     RXO8       RXOZ        SP        SPAR       SPHI       STIT       TENS       TNPH     HTNP_SAN
#
~A  DEPT AT10 AT30 AT90 DT GR HCAL HDRA NPHI PEFZ RHOZ SP TNPH
# ...
5781.0000 2.2520 2.0876 2.0149 94.0164 108.7013 8.0261 0.0040 0.3120 3.1027 2.4999 -197.6964 0.2997
5781.5000 2.2360 2.0803 2.0091 94.2461 111.3754 8.0038 0.0034 0.2961 3.1107 2.5024 -198.0703 0.3040
5782.0000 2.2287 2.0828 2.0109 95.0434 115.8128 8.0038 0.0057 0.3095 3.1259 2.5184 -198.5357 0.2956
5782.5000 2.1942 2.0527 1.9889 95.1353 114.2263 8.0261 0.0098 0.3228 3.0968 2.5359 -198.3750 0.3054
5783.0000 2.1163 1.9990 1.9389 95.9637 116.4891 8.0261 0.0087 0.3399 3.0848 2.5256 -198.1071 0.3126
5783.5000 2.0442 1.9371 1.8857 96.3680 118.3992 8.0261 0.0073 0.3354 3.0458 2.5129 -197.8125 0.3329
5784.0000 1.9994 1.9271 1.8792 97.6439 118.5459 8.0484 0.0043 0.3378 3.0543 2.5049 -197.8571 0.3269
5784.5000 2.0418 1.9205 1.8722 95.7857 113.9323 8.0038 0.0057 0.3343 3.0943 2.5175 -197.7969 0.3242
5785.0000 2.1347 1.9890 1.9345 95.9740 107.7022 8.0038 0.0097 0.3350 3.1558 2.5139 -197.9018 0.3212
5785.5000 2.1231 1.9852 1.9228 96.3379 104.4989 8.0261 0.0315 0.3436 3.1778 2.5205 -197.9063 0.3320
5786.0000 1.9855 1.8635 1.8176 96.5733 103.3528 8.0038 0.0542 0.3610 3.1426 2.5180 -197.8393 0.3443
5786.5000 1.8953 1.8088 1.7673 98.0843 104.1757 7.9592 0.0655 0.3579 3.1123 2.5219 -197.9688 0.3564
5787.0000 1.9748 1.8533 1.8019 97.7351 105.3509 7.9481 0.0554 0.3452 3.1128 2.5181 -198.1250 0.3442
5787.5000 2.0474 1.9264 1.8641 97.4020 105.9680 7.9592 0.0447 0.3302 3.1407 2.5257 -198.0313 0.3341
5788.0000 2.0254 1.9151 1.8553 97.0470 106.3796 7.8924 0.0371 0.3202 3.1204 2.5158 -197.9821 0.3279
5788.5000 1.9885 1.8712 1.8171 97.3234 112.4922 7.9370 0.0389 0.3264 3.0800 2.5129 -197.9766 0.3212
5789.0000 1.9881 1.8814 1.8344 97.3699 113.9618 7.9370 0.0300 0.3232 3.0580 2.4967 -198.2589 0.3229
5789.5000 2.0445 1.9196 1.8707 97.7554 111.9042 7.9370 0.0307 0.3148 3.0919 2.5168 -198.4688 0.3089
5790.0000 2.0827 1.9583 1.9099 96.7525 109.3182 8.0038 0.0200 0.3193 3.1028 2.5153 -198.3929 0.2968
5790.5000 2.1177 1.9945 1.9452 96.3013 109.4948 7.9815 0.0167 0.3094 3.0832 2.5203 -198.1875 0.3034
5791.0000 2.1347 2.0095 1.9638 96.4012 108.7897 8.0261 0.0075 0.3271 3.0578 2.5103 -197.8750 0.3008
5791.5000 2.1629 2.0243 1.9809 95.4762 108.5252 7.9815 0.0070 0.3016 3.0718 2.5181 -198.0982 0.3145
5792.0000 2.2196 2.0762 2.0292 95.2872 105.2924 7.9815 0.0147 0.3100 3.1047 2.5351 -198.1484 0.2936
5792.5000 2.2198 2.0777 2.0256 95.3495 104.5580 7.9370 0.0150 0.3122 3.0938 2.5271 -198.2411 0.3120
5793.0000 2.1224 2.0019 1.9564 95.5688 105.7626 7.9815 0.0147 0.3165 3.0544 2.5160 -197.9375 0.3114
5793.5000 2.0576 1.9538 1.9112 95.9357 106.7323 8.0484 0.0128 0.3176 3.0356 2.5123 -197.9732 0.3104
5794.0000 2.0564 1.9425 1.8961 96.1160 101.1197 8.0038 0.0129 0.3144 3.0631 2.5288 -197.9297 0.3029
5794.5000 2.0507 1.9305 1.8824 96.5925 95.1841 8.0261 0.0112 0.3269 3.1048 2.5363 -198.0536 0.3033
5795.0000 1.9975 1.8861 1.8423 96.6043 98.2110 8.0484 0.0059 0.3416 3.1074 2.5191 -198.1719 0.3206
5795.5000 1.9496 1.8436 1.7997 97.2214 98.6810 8.0484 0.0052 0.3560 3.0724 2.4928 -198.0000 0.3337
5796.0000 1.9196 1.8286 1.7851 98.0841 99.9145 8.0484 0.0076 0.3797 3.0433 2.4831 -197.9141 0.3464
5796.5000 1.9274 1.8244 1.7789 98.0578 98.5333 8.0261 0.0084 0.3820 3.0416 2.4888 -197.8839 0.3596
5797.0000 1.9743 1.8520 1.8058 97.2379 107.7018 8.0261 0.0067 0.3643 3.0759 2.4966 -198.0000 0.3598
5797.5000 2.0288 1.8959 1.8449 96.7111 105.6451 8.0038 0.0064 0.3445 3.1057 2.4993 -198.0268 0.3492
5798.0000 2.0369 1.8885 1.8335 97.2181 106.0854 7.9370 0.0211 0.3372 3.1224 2.5101 -197.9063 0.3423
5798.5000 1.9621 1.8390 1.7901 96.9796 99.1799 8.0261 0.0363 0.3496 3.1212 2.5238 -197.7500 0.3371
5799.0000 1.9043 1.7963 1.7430 97.8500 104.5283 8.0484 0.0373 0.3528 3.1113 2.5265 -197.5859 0.3408
5799.5000 1.9006 1.7960 1.7384 98.6635 102.6479 8.0038 0.0226 0.3503 3.1053 2.5196 -197.4688 0.3354
5800.0000 1.9345 1.8101 1.7451 97.1967 104.6165 8.0038 0.0062 0.3423 3.1036 2.5071 -197.7768 0.3328
5800.5000 1.9829 1.8505 1.7770 96.6065 103.9992 8.0038 -0.0002 0.3258 3.1613 2.4966 -198.1071 0.3282
5801.0000 1.9680 1.8449 1.7698 95.5595 104.2341 8.0038 -0.0032 0.3381 3.2039 2.4780 -198.2109 0.3189
5801.5000 1.9135 1.7927 1.7157 95.7183 101.4424 7.9370 0.0043 0.3489 3.2325 2.4738 -198.1161 0.3407
5802.0000 1.8323 1.7185 1.6460 96.8902 104.1756 7.9147 0.0197 0.3569 3.1979 2.4834 -197.6953 0.3573
5802.5000 1.7706 1.6616 1.6021 97.6408 103.1179 7.9592 0.0243 0.3624 3.1471 2.4760 -197.8125 0.3497
5803.0000 1.7384 1.6375 1.5828 100.1434 104.4992 7.9815 0.0225 0.3656 3.1054 2.4694 -198.0234 0.3439
5803.5000 1.7586 1.6535 1.5972 99.4170 104.9690 7.9815 0.0114 0.3735 3.0643 2.4560 -198.2232 0.3457
5804.0000 1.8072 1.6931 1.6353 99.6239 104.7632 7.9815 0.0120 0.3649 3.0639 2.4717 -198.1563 0.3546
5804.5000 1.8449 1.7316 1.6723 98.6589 105.7039 7.9592 0.0148 0.3639 3.0939 2.4885 -198.0625 0.3490
5805.0000 1.8957 1.7596 1.6992 97.1177 99.6213 7.9147 0.0252 0.3694 3.1825 2.5026 -198.1786 0.3514
5805.5000 1.9145 1.7911 1.7300 98.4552 98.2991 7.9258 0.0410 0.3537 3.2739 2.5173 -198.2679 0.3592
5806.0000 1.8754 1.7590 1.6998 97.9500 98.0345 7.8924 0.0485 0.3668 3.2830 2.5072 -198.1563 0.3482
5806.5000 1.8323 1.7262 1.6705 98.5750 101.5311 7.8701 0.0549 0.3633 3.2190 2.5049 -197.9609 0.3494
5807.0000 1.8169 1.7092 1.6529 99.2235 102.4420 8.0038 0.0484 0.3621 3.1459 2.4974 -197.8482 0.3430
5807.5000 1.7965 1.6918 1.6345 98.8461 102.4712 7.9927 0.0423 0.3524 3.1296 2.5001 -197.6328 0.3461
5808.0000 1.7739 1.6731 1.6161 99.0087 99.7975 8.0038 0.0315 0.3570 3.1306 2.5011 -197.4643 0.3479
5808.5000 1.7641 1.6637 1.6062 99.3744 102.8831 7.9927 0.0280 0.3677 3.1215 2.5059 -197.5391 0.3522
5809.0000 1.7814 1.6720 1.6111 99.0361 102.6480 8.0038 0.0293 0.3597 3.1148 2.5082 -197.5804 0.3562
5809.5000 1.7986 1.6828 1.6191 99.1435 99.4443 7.9927 0.0278 0.3507 3.1072 2.4984 -197.3438 0.3489
5810.0000 1.7648 1.6544 1.5919 99.3169 99.8560 7.9370 0.0196 0.3452 3.0915 2.4753 -197.2946 0.3385
5810.5000 1.7350 1.6287 1.5710 98.6457 100.0907 8.0038 0.0117 0.3279 3.0843 2.4677 -197.4688 0.3392
5811.0000 1.7489 1.6382 1.5778 98.9977 103.4997 8.0261 0.0073 0.3451 3.1069 2.4686 -197.9464 0.3296
5811.5000 1.7633 1.6549 1.5930 99.6703 99.7968 8.0038 0.0218 0.3628 3.1526 2.4954 -198.3438 0.3461
5812.0000 1.7297 1.6211 1.5625 98.6375 103.6762 8.0261 0.0360 0.3950 3.1580 2.5047 -198.4821 0.3505
5812.5000 1.7008 1.5992 1.5433 99.6797 102.1480 8.0038 0.0523 0.3807 3.1357 2.5117 -198.0938 0.3631
5813.0000 1.6753 1.5716 1.5175 100.7491 100.0905 7.9592 0.0423 0.3980 3.0810 2.4892 -197.8839 0.3495
5813.5000 1.6713 1.5800 1.5254 100.4936 100.6785 7.9370 0.0251 0.3872 3.0321 2.4670 -197.8516 0.3688
5814.0000 1.7336 1.6295 1.5728 100.3586 102.2067 8.0038 0.0080 0.3761 3.0182 2.4608 -198.1964 0.3688
5814.5000 1.7879 1.6688 1.6109 98.1008 105.9099 7.9815 0.0070 0.3488 3.0759 2.4803 -198.2734 0.3645
5815.0000 1.8663 1.7258 1.6641 98.1714 100.1793 7.9592 0.0178 0.3514 3.1639 2.5164 -198.2679 0.3429
5815.5000 1.8358 1.7192 1.6587 98.3171 100.2968 7.9592 0.0284 0.3680 3.2031 2.5288 -197.9453 0.3404
5816.0000 1.7688 1.6599 1.6071 97.9299 98.6513 7.9370 0.0391 0.3734 3.1751 2.5263 -197.7054 0.3503
5816.5000 1.7266 1.6235 1.5742 100.2912 102.0307 7.9592 0.0443 0.3753 3.1430 2.5079 -197.6875 0.3654
5817.0000 1.7111 1.6132 1.5600 99.8562 102.3246 7.9370 0.0495 0.3621 3.1420 2.4983 -197.5714 0.3683
5817.5000 1.7240 1.6245 1.5699 99.6724 104.6756 7.9592 0.0493 0.3577 3.1557 2.4988 -197.6719 0.3523
5818.0000 1.7628 1.6541 1.5966 99.5837 102.5302 7.9592 0.0437 0.3655 3.1500 2.5090 -197.5714 0.3370
5818.5000 1.8049 1.6867 1.6249 98.7954 107.8785 7.9147 0.0363 0.3804 3.1408 2.5174 -197.6797 0.3412
5819.0000 1.8455 1.6965 1.6320 98.2280 109.4359 7.9592 0.0263 0.3672 3.1289 2.5166 -197.7054 0.3580
5819.5000 1.8131 1.6902 1.6272 98.8318 113.2271 7.9815 0.0175 0.3373 3.1160 2.5105 -197.6641 0.3485
5820.0000 1.7547 1.6292 1.5698 99.2430 105.4691 7.9147 0.0041 0.3292 3.0942 2.5034 -197.4643 0.3402
5820.5000 1.7130 1.6036 1.5428 99.0525 99.0918 7.9815 0.0007 0.3314 3.1312 2.4925 -197.4609 0.3346
5821.0000 1.7415 1.6300 1.5652 99.3170 95.0949 7.9592 0.0089 0.3704 3.1989 2.4838 -197.8929 0.3313
