~VERSION INFORMATION
VERS.           1.2   :CWLS Log ASCII Standard - VERSION 1.2
WRAP.           NO    :One Line per depth step
PROD.  Schlumberger   :LAS Producer
PROG.  DLIS to ASCII 17C0-152                          :LAS Program name and version
CREA.        2013/11/03 06:14                          :LAS Creation date {YYYY/MM/DD hh:mm}
DLIS_CREA.  2013-Nov-02 20:25                          :DLIS Creation date and time {YYYY-MMM-DD hh:mm}
SOURCE.     36f617ea-a8f9-4f31-9cfe-b4906ac6e0fc       :DLIS File Name
#--------------------------------------------------
~WELL INFORMATION
#MNEM.UNIT      DATA             DESCRIPTION
#---- ------ --------------   -----------------------------
STRT .F      1000.5000       :START DEPTH        # original; data subset to 5500-8000
STOP .F      7745.0000       :STOP DEPTH        # original; data subset to 5500-8000
STEP .F       0.5000         :STEP       
NULL .          -999.25      :NULL VALUE
COMP .                 COMPANY:  Bear Oil & Gas, Inc.               
WELL .                    WELL:  Marquardt 34-31                    
FLD  .                   FIELD:  Wildcat                            
LOC  .                LOCATION:  SWSE, Sec. 31, T16N, R60W          
CNTY .                  COUNTY:  Laramie                            
STAT .                   STATE:  Wyoming                            
CTRY .                 COUNTRY:                                     
SRVC .         SERVICE COMPANY:  Schlumberger                       
LATI .DEG             LATITUDE:  41.305550 degrees                  
LONG .DEG            LONGITUDE:  -104.12401 degrees                 
API  .              API NUMBER:  49-021-21046-0000                  
DATE .                LOG DATE:  02-Nov-2013
UWI  .          UNIQUE WELL ID:                                     
#-----------------------------------------------------------------------------
~PARAMETER INFORMATION
#MNEM.UNIT    VALUE                      DESCRIPTION
#---- -----   --------------------       ------------------------
CN   .        Bear Oil & Gas  Inc.       :Company Name
WN   .        Marquardt 34-31            :Well Name
FN   .        Wildcat                    :Field Name
FL   .        SWSE  Sec. 31  T16N  R60W  :Field Location
FL1  .        SHL  1265' FSL X 1340' FEL :Field Location, Line 1
COUN .        Laramie                    :County or Parish
STAT .        Wyoming                    :State or Province
NATI .                                   :Nation
DATE .        02-Nov-2013                :Tools Above Rotary Table Date
APIN .        49-021-21046-0000          :API Well Number
SECT .        31                         :Section
TOWN .        16N                        :Township
RANG .        60W                        :Range
DMF  .        KB                         :Drilling Measured From (Name of Drilling Elevation Reference)
LMF  .        KB                         :Logging Measured From (Name of Logging Elevation Reference)
PDAT .        GL                         :Permanent Datum
ENGI .        Heather Hoffman            :Engineer s Name
WITN .        Terry Eittreim             :Witness s Name
LATI .        41.305550 degrees          :Latitude
LONG .        -104.12401 degrees         :Longitude
LUL  .        Fort Morgan  CO            :Logging Unit Location
LUN  .        2135                       :Logging Unit Number
RUN  .        PEX BHC AIT                :Run Number
SON  .        CQQL-00004                 :Service Order Number
BHT  .DEGF     185.00000                 :Bottom Hole Temperature
BS   .IN         7.87500                 :Bit Size
MDEN .G/C3       2.65000                 :Matrix Density for Density Porosity
DFD  .LB/G       9.10000                 :Drilling Fluid Density
DFV  .S         82.00000                 :Drilling Fluid Viscosity
DFL  .C3      -999.25000                 :Drilling Fluid Loss
RMFS .OHMM       1.18400                 :Resistivity of Mud Filtrate Sample
EKB  .F       10594.00000                :Elevation of Kelly Bushing
EGL  .F       5291.00000                 :Elevation of Ground Level
BLI  .F       7724.00000                 :Bottom Log Interval
BSAL .PPM        0.00000                 :Borehole Salinity
FLEV .F         50.00000                 :Depth of Drilling Fluid Level to LMF (Log Measured From)
MCST .DEGF      85.00000                 :Mudcake Sample Temperature
MFST .DEGF      85.00000                 :Mud Filtrate Sample Temperature
MRT  .DEGF     185.00000                 :Maximum Recorded Temperature
MST  .DEGF      85.00000                 :Mud Sample Temperature
RMCS .OHMM       1.77600                 :Resistivity of Mud Cake Sample
RMS  .OHMM       1.48000                 :Resistivity of Mud Sample
RW   .OHMM       1.00000                 :Connate Water Resistivity
TDD  .F       7719.99951                 :Driller Total Depth
TDL  .F       7724.00000                 :Logger Total Depth
TLI  .F       1024.00000                 :Top Log Interval
HIDE .        Wildcat                    :Header Identifier
MATR .        SAND                       :Rock Matrix for Neutron Porosity Corrections
FNUM .           1.00000                 :F-Numerator for Formation Factor Formula
FEXP .           2.00000                 :Exponent "m" for Formation Factor Formula
DFT  .        WATER                      :Drilling Fluid Type
DFPH .        -999.25000                 :Drilling Fluid pH
MCSS .        Calculated                 :Mudcake Sample Source
MFSS .        Calculated                 :Mud Filtrate Sample Source
FD   .G/C3       1.00000                 :Fluid Density
MSS  .        Active Tank                :Mud Sample Source
OS1  .                                   :Other Services Line 1
OS2  .                                   :Other Services Line 2
OS3  .                                   :Other Services Line 3
OS4  .                                   :Other Services Line 4
OS5  .                                   :Other Services Line 5
R1   .                                   :Remarks Line 1
R2   .                                   :Remarks Line 2
R3   .                                   :Remarks Line 3
R4   .                                   :Remarks Line 4
R5   .                                   :Remarks Line 5
R6   .                                   :Remarks Line 6
R7   .                                   :Remarks Line 7
R8   .        This is first run in hole. :Remarks Line 8
TCS  .        09 55 00                   :Time Circulation Stopped
TLAB .        20 18 33                   :Time Logger At Bottom
NMT  .        NOBARITE                   :HRDD Mud Type for Nuclear Devices
EPD  .C3         5291.000000             :Elevation of Permanent Datum above Mean Sea Level
APD  .F         5303.000000              :Elevation of Depth Reference (LMF) above Permanent Datum
#-----------------------------------------------------------------------------
~CURVE INFORMATION
#MNEM.UNIT   API CODE                                  DESCRIPTION
#---- -----  --------                                  -----------------------
DEPT .F                                                :DEPTH (BOREHOLE) {F12.4}
AT10 .OHMM                                             :Array Induction Two Foot Resistivity A10 {F11.4}
AT30 .OHMM                                             :Array Induction Two Foot Resistivity A30 {F11.4}
AT90 .OHMM                                             :Array Induction Two Foot Resistivity A90 {F11.4}
DT   .US/F                                             :Delta-T (also called Slowness or Interval Transit Time) {F11.4}
GR   .GAPI                                             :Gamma Ray {F11.4}
HCAL .IN                                               :HRCC Caliper Calibrated {F11.4}
HDRA .G/C3                                             :Density Standoff Correction {F11.4}
NPHI .CFCF                                             :Thermal Neutron Porosity (original Ratio Method) in Selected Lithology {F11.4}
PEFZ .                                                 :Standard Resolution Formation Photoelectric Factor {F11.4}
RHOZ .G/C3                                             :Standard Resolution Formation Density {F11.4}
SP   .MV                                               :Spontaneous Potential {F11.4}
TNPH .CFCF                                             :Thermal Neutron Porosity (Ratio Method) in Selected Lithology {F11.4}
#-----------------------------------------------------------------------------
# 
#      DEPT        AF10       AF20       AF30       AF60       AF90       AO10       AO20       AO30       AO60       AO90       AT10       AT20       AT30       AT60       AT90     AHFCO60      AHMF      AHORT      AHORX      AHSCA     AHTCO10    AHTCO20    AHTCO30    AHTCO60    AHTCO90     AHTD1      AHTD2      AHTRT      AHTRX       CDF        CFTC       CNTC       CTEM       DCAL       DNPH       DPHZ       DSOZ        DT        ECGR        ED        GDEV        GR        GTEM       HCAL       HDRA       HDRB       HGR        HMIN       HMNO       HNPO       HPRA       HTNP       ITT         ND        NPHI       NPOR       PEFZ    PXND_HILT     RHOZ       RSOZ     RWA_HILT     RXO8       RXOZ        SP        SPAR       SPHI       STIT       TENS       TNPH     HTNP_SAN
#
~A  DEPT AT10 AT30 AT90 DT GR HCAL HDRA NPHI PEFZ RHOZ SP TNPH
# ...
7100.5000 4.2595 3.9759 3.7392 91.2531 128.5377 7.7364 -0.0041 0.2590 3.5711 2.5038 -198.3359 0.2365
7101.0000 4.3593 4.0094 3.7686 90.5584 131.4170 7.7141 -0.0045 0.2687 3.5754 2.5097 -197.7679 0.2306
7101.5000 4.4755 4.1262 3.8670 89.8896 128.1555 7.7141 -0.0070 0.2627 3.6395 2.5090 -197.5000 0.2395
7102.0000 4.5578 4.2216 3.9484 88.6251 123.6884 7.6918 -0.0075 0.2505 3.6829 2.5120 -197.8482 0.2400
7102.5000 4.5247 4.2094 3.9312 88.6085 125.9514 7.7364 -0.0056 0.2558 3.6790 2.5199 -198.1172 0.2384
7103.0000 4.5026 4.1991 3.9244 88.7616 128.7429 7.7364 -0.0007 0.2529 3.6440 2.5330 -198.4643 0.2432
7103.5000 4.5203 4.2145 3.9250 88.8908 132.2695 7.7252 0.0016 0.2525 3.6262 2.5313 -198.2500 0.2430
7104.0000 4.5581 4.2318 3.9424 88.8608 126.9209 7.7141 0.0004 0.2416 3.6675 2.5185 -198.2143 0.2365
7104.5000 4.6870 4.3534 4.0600 88.2733 125.5105 7.7029 -0.0043 0.2467 3.7181 2.5009 -198.2422 0.2188
7105.0000 5.0440 4.6576 4.3286 86.9176 125.6280 7.7364 -0.0049 0.2570 3.7471 2.5111 -198.2232 0.2202
7105.5000 5.3875 5.0063 4.5912 84.0650 127.5385 7.7141 -0.0016 0.2510 3.7560 2.5423 -198.0703 0.2234
7106.0000 5.9398 5.5569 5.0755 83.7767 118.9574 7.7141 0.0023 0.2376 3.8306 2.5712 -197.8036 0.2154
7106.5000 5.7807 5.5752 5.2227 83.2227 112.4924 7.6918 0.0026 0.2281 3.8878 2.5759 -197.7344 0.2104
7107.0000 5.6321 5.3630 5.1205 82.4315 108.2603 7.7364 0.0010 0.2260 3.8986 2.5644 -197.8214 0.2102
7107.5000 5.7017 5.3270 5.0628 85.0424 122.2484 7.7141 0.0006 0.2299 3.8243 2.5587 -197.8482 0.2176
7108.0000 5.5869 5.2900 5.0759 86.0221 123.1888 7.7141 0.0004 0.2351 3.7569 2.5587 -197.8125 0.2207
7108.5000 5.5126 5.1801 4.9695 85.4055 125.5106 7.7141 -0.0026 0.2285 3.7662 2.5533 -197.5982 0.2209
7109.0000 5.6560 5.2877 5.0505 85.2612 121.2790 7.7141 -0.0060 0.2265 3.8273 2.5457 -197.2969 0.2086
7109.5000 5.8050 5.4670 5.1674 84.5576 120.6321 7.6918 -0.0051 0.2117 3.8678 2.5481 -197.2679 0.2022
7110.0000 5.5751 5.3180 5.0409 84.8898 129.1246 7.6918 -0.0001 0.2308 3.8305 2.5553 -197.5391 0.1996
7110.5000 5.3089 5.0128 4.7780 87.2021 140.3503 7.7141 0.0048 0.2357 3.7276 2.5552 -197.8304 0.2275
7111.0000 5.0660 4.7345 4.4887 89.5836 151.5765 7.6918 0.0059 0.2562 3.6177 2.5469 -197.8984 0.2314
7111.5000 4.9228 4.5888 4.3109 89.9529 152.0468 7.6918 0.0062 0.2533 3.5498 2.5458 -197.9732 0.2445
7112.0000 4.8114 4.5326 4.2432 89.8763 150.4011 7.7029 0.0105 0.2508 3.5550 2.5395 -198.0234 0.2348
7112.5000 4.3663 4.2186 3.9233 91.1264 148.2849 7.7141 0.0370 0.2485 3.6262 2.5593 -198.3304 0.2395
7113.0000 3.8233 3.5654 3.3551 92.4171 144.0535 7.6918 0.0591 0.2674 3.6414 2.5569 -198.3750 0.2390
7113.5000 3.4258 3.3234 3.1296 94.7454 136.8242 7.7141 0.0650 0.2885 3.5839 2.5570 -198.5234 0.2579
7114.0000 3.8328 3.4873 3.2827 93.5672 133.4742 7.7141 0.0356 0.2843 3.5232 2.5241 -198.4297 0.2600
7114.5000 4.3034 4.0265 3.7376 90.7136 124.7753 7.7141 0.0081 0.2609 3.6089 2.5117 -198.0089 0.2400
7115.0000 5.2065 4.7229 4.3503 88.7810 125.0108 7.6918 -0.0076 0.2531 3.7471 2.5066 -197.8672 0.2265
7115.5000 5.3413 4.8461 4.4982 86.0445 121.5140 7.6918 -0.0059 0.2474 3.7935 2.5205 -197.7143 0.2295
7116.0000 5.0944 4.7193 4.4196 86.8918 135.8546 7.7141 -0.0026 0.2463 3.7072 2.5295 -197.5156 0.2348
7116.5000 4.7782 4.4547 4.2125 88.9505 130.5059 7.7029 0.0001 0.2448 3.5963 2.5303 -197.3393 0.2342
7117.0000 4.5099 4.1807 3.9738 89.5389 136.1772 7.7141 -0.0014 0.2501 3.5451 2.5128 -197.2679 0.2385
7117.5000 4.4455 4.1745 3.9600 90.3584 122.5123 7.7029 0.0008 0.2631 3.4977 2.5046 -197.4766 0.2392
7118.0000 4.4081 4.1508 3.9193 90.0912 127.1556 7.6472 0.0190 0.2617 3.4992 2.5113 -197.7054 0.2405
7118.5000 4.1177 3.9332 3.7243 90.8067 124.3348 7.6695 0.0405 0.2581 3.4914 2.5234 -197.9609 0.2486
7119.0000 3.8098 3.6574 3.4625 91.2300 128.8607 7.6472 0.0621 0.2576 3.4886 2.5409 -198.3036 0.2433
7119.5000 3.9948 3.6496 3.4394 90.7557 128.6257 7.7141 0.0664 0.2495 3.4494 2.5459 -198.2969 0.2383
7120.0000 4.1699 3.9576 3.6917 90.7237 125.9810 7.6918 0.0498 0.2462 3.4038 2.5438 -198.0446 0.2276
7120.5000 4.2582 4.0084 3.7500 90.2780 127.5971 7.6918 0.0250 0.2428 3.4095 2.5210 -197.9922 0.2269
7121.0000 4.1788 3.9022 3.6739 90.7525 128.1258 7.6695 0.0009 0.2514 3.4169 2.5009 -198.0982 0.2347
7121.5000 4.1327 3.8728 3.6559 91.4521 132.4160 7.7587 -0.0032 0.2655 3.4289 2.5003 -198.2344 0.2365
7122.0000 4.1802 3.8973 3.6824 91.0406 128.4195 7.7252 -0.0032 0.2681 3.4230 2.5073 -198.3393 0.2336
7122.5000 4.2834 3.9888 3.7557 89.8406 123.8940 7.7364 -0.0005 0.2619 3.4246 2.5135 -198.0268 0.2328
7123.0000 4.3876 4.1186 3.8859 89.9712 120.1329 7.7252 0.0150 0.2530 3.4929 2.5200 -197.8516 0.2388
7123.5000 4.2456 3.9691 3.7464 90.2163 120.4564 7.7364 0.0387 0.2478 3.5479 2.5379 -198.1607 0.2428
7124.0000 4.1251 3.8249 3.6050 89.3131 118.5755 7.7141 0.0575 0.2572 3.5660 2.5465 -198.3906 0.2376
7124.5000 4.1740 3.8903 3.6734 89.9925 118.2524 7.7364 0.0651 0.2524 3.5297 2.5493 -198.3750 0.2445
7125.0000 4.0648 3.8782 3.6471 90.2197 115.8130 7.6918 0.0646 0.2504 3.4816 2.5430 -198.4688 0.2351
7125.5000 3.8092 3.5571 3.3810 90.2596 117.9292 7.7364 0.0648 0.2533 3.4327 2.5397 -198.3661 0.2349
7126.0000 3.5900 3.3499 3.1655 91.2339 112.7860 7.6918 0.0611 0.2573 3.3806 2.5401 -198.3125 0.2391
7126.5000 3.6234 3.3701 3.1749 91.8972 110.6705 7.8032 0.0552 0.2567 3.3396 2.5432 -198.3304 0.2441
7127.0000 3.6099 3.3615 3.1632 91.9092 111.6694 7.7141 0.0364 0.2490 3.2997 2.5309 -198.4766 0.2392
7127.5000 3.6127 3.3640 3.1596 92.0004 115.2541 7.7364 0.0194 0.2686 3.2824 2.5122 -198.4018 0.2269
7128.0000 3.6217 3.3702 3.1599 92.4082 120.8378 7.7364 0.0139 0.2702 3.2980 2.4829 -198.4375 0.2418
7128.5000 3.6304 3.3792 3.1634 92.5965 127.5967 7.6918 0.0469 0.2775 3.3944 2.5008 -198.4688 0.2487
7129.0000 3.5996 3.3471 3.1431 92.5879 132.0642 7.7029 0.0791 0.2763 3.4722 2.5218 -198.7109 0.2597
7129.5000 3.6159 3.3595 3.1600 92.3403 127.9500 7.6918 0.0971 0.2765 3.5173 2.5427 -198.8304 0.2640
7130.0000 3.6423 3.3887 3.1719 92.5822 124.6585 7.7029 0.0927 0.2910 3.5071 2.5352 -198.6094 0.2629
7130.5000 3.6286 3.3896 3.1896 92.2968 120.3092 7.6918 0.0911 0.2964 3.5061 2.5374 -198.5446 0.2700
7131.0000 3.6790 3.4205 3.2263 91.9986 126.1272 7.7141 0.0803 0.3005 3.4814 2.5291 -198.4554 0.2765
7131.5000 3.7458 3.4939 3.2796 92.3327 119.5745 7.7364 0.0731 0.2942 3.4554 2.5371 -198.5625 0.2850
7132.0000 3.6501 3.4103 3.2141 92.2041 126.2746 7.7364 0.0654 0.2766 3.4074 2.5321 -198.7589 0.2786
7132.5000 3.6031 3.3496 3.1678 93.1155 122.9248 7.7364 0.0758 0.2857 3.3746 2.5376 -198.8672 0.2598
7133.0000 3.6199 3.3623 3.1728 93.0130 126.4212 7.7141 0.0867 0.2757 3.3623 2.5382 -198.7500 0.2686
7133.5000 3.6460 3.3851 3.1891 92.8381 126.7151 7.7029 0.0856 0.2926 3.3626 2.5339 -198.7813 0.2572
7134.0000 3.6774 3.4177 3.2164 93.0668 133.3563 7.7141 0.0764 0.3126 3.3751 2.5305 -198.8393 0.2712
7134.5000 3.6737 3.4154 3.2129 93.0349 135.8252 7.7252 0.0621 0.3251 3.3818 2.5273 -198.9554 0.2993
7135.0000 3.6972 3.4340 3.2311 93.5217 131.5346 7.7364 0.0548 0.3151 3.4021 2.5308 -198.9219 0.3140
7135.5000 3.7345 3.4655 3.2551 93.6578 129.0076 7.7587 0.0509 0.2886 3.4309 2.5365 -198.8482 0.2958
7136.0000 3.7672 3.4963 3.2876 93.0863 136.4132 7.7364 0.0453 0.2781 3.4562 2.5372 -198.8672 0.2708
7136.5000 3.8297 3.5515 3.3334 92.6338 137.5889 7.7587 0.0428 0.2718 3.4983 2.5291 -198.7768 0.2660
7137.0000 3.8993 3.6223 3.3904 92.5345 138.8225 7.7364 0.0443 0.2709 3.5735 2.5247 -198.5469 0.2610
7137.5000 3.8426 3.6011 3.3932 91.5693 123.7763 7.7364 0.0485 0.2689 3.6548 2.5158 -198.6786 0.2498
7138.0000 3.8421 3.5713 3.3783 91.4360 119.4857 7.7252 0.0572 0.2737 3.7021 2.5289 -198.8359 0.2415
7138.5000 3.8479 3.5719 3.3659 90.6858 115.3720 7.7141 0.0636 0.2635 3.6848 2.5424 -198.6518 0.2421
7139.0000 3.8385 3.5678 3.3610 90.1596 118.8987 7.7921 0.0667 0.2586 3.6369 2.5557 -198.6607 0.2389
7139.5000 3.8041 3.5346 3.3330 90.7343 114.9608 7.7364 0.0598 0.2485 3.5760 2.5511 -198.6563 0.2437
7140.0000 3.7790 3.5095 3.3077 90.9606 111.1992 7.7809 0.0467 0.2568 3.5185 2.5387 -198.4554 0.2362
