~VERSION INFORMATION
VERS.           1.2   :CWLS Log ASCII Standard - VERSION 1.2
WRAP.           NO    :One Line per depth step
PROD.  Schlumberger   :LAS Producer
PROG.  DLIS to ASCII 17C0-152                          :LAS Program name and version
CREA.        2013/08/16 09:04                          :LAS Creation date {YYYY/MM/DD hh:mm}
DLIS_CREA.  2013-Aug-16 00:16                          :DLIS Creation date and time {YYYY-MMM-DD hh:mm}
SOURCE.     960568ea-4174-41e0-a405-0f32a02141a6       :DLIS File Name
#--------------------------------------------------
~WELL INFORMATION
#MNEM.UNIT      DATA             DESCRIPTION
#---- ------ --------------   -----------------------------
STRT .F      457.0000        :START DEPTH        # original; data subset to 5500-8000
STOP .F      7701.0000       :STOP DEPTH        # original; data subset to 5500-8000
STEP .F       0.5000         :STEP       
NULL .          -999.25      :NULL VALUE
COMP .                 COMPANY:  Bear Oil & Gas, Inc.               
WELL .                    WELL:  Fornstrom 13-32A                   
FLD  .                   FIELD:  Wildcat                            
LOC  .                LOCATION:  SHL: NWSW 1925' FSL & 540" FWL     
CNTY .                  COUNTY:  Laramie                            
STAT .                   STATE:  Wyoming                            
CTRY .                 COUNTRY:  United States                      
SRVC .         SERVICE COMPANY:  Schlumberger                       
LATI .DEG             LATITUDE:  41.307320 degrees                  
LONG .DEG            LONGITUDE:  -104.11715 degrees                 
API  .              API NUMBER:  49-021-21022                       
DATE .                LOG DATE:  15-Aug-2013
UWI  .          UNIQUE WELL ID:  49021210220000                     
#-----------------------------------------------------------------------------
~PARAMETER INFORMATION
#MNEM.UNIT    VALUE                      DESCRIPTION
#---- -----   --------------------       ------------------------
CN   .        Bear Oil & Gas  Inc.       :Company Name
WN   .        Fornstrom 13-32A           :Well Name
FN   .        Wildcat                    :Field Name
FL   .        SHL  NWSW 1925' FSL & 540  FWL :Field Location
FL1  .        Sec. 32  T. 16N  R. 60W    :Field Location, Line 1
COUN .        Laramie                    :County or Parish
STAT .        Wyoming                    :State or Province
NATI .        United States              :Nation
DATE .        15-Aug-2013                :Tools Above Rotary Table Date
APIN .        49-021-21022               :API Well Number
SECT .        32                         :Section
TOWN .        16N                        :Township
RANG .        60W                        :Range
DMF  .        KB                         :Drilling Measured From (Name of Drilling Elevation Reference)
LMF  .        KB                         :Logging Measured From (Name of Logging Elevation Reference)
PDAT .        GL                         :Permanent Datum
ENGI .        Max Pace                   :Engineer s Name
WITN .        Tery Eittreim              :Witness s Name
LATI .        41.307320 degrees          :Latitude
LONG .        -104.11715 degrees         :Longitude
LUL  .        Fort Morgan  CO            :Logging Unit Location
LUN  .        3030                       :Logging Unit Number
RUN  .        Run 1                      :Run Number
SON  .        CA0R-00040                 :Service Order Number
BHT  .DEGF     168.00000                 :Bottom Hole Temperature
BS   .IN         7.87500                 :Bit Size
MDEN .G/C3       2.65000                 :Matrix Density for Density Porosity
DFD  .LB/G       8.80000                 :Drilling Fluid Density
DFV  .S         36.00000                 :Drilling Fluid Viscosity
DFL  .C3         5.00000                 :Drilling Fluid Loss
RMFS .OHMM       1.11000                 :Resistivity of Mud Filtrate Sample
EKB  .F       5298.00000                 :Elevation of Kelly Bushing
EGL  .F       5286.00000                 :Elevation of Ground Level
BLI  .F       7687.00000                 :Bottom Log Interval
BSAL .PPM     3295.90967                 :Borehole Salinity
FLEV .F          8.00000                 :Depth of Drilling Fluid Level to LMF (Log Measured From)
MCST .DEGF      84.00000                 :Mudcake Sample Temperature
MFST .DEGF      84.00000                 :Mud Filtrate Sample Temperature
MRT  .DEGF     168.00000                 :Maximum Recorded Temperature
MST  .DEGF      84.00000                 :Mud Sample Temperature
RMCS .OHMM       1.85000                 :Resistivity of Mud Cake Sample
RMS  .OHMM       1.48000                 :Resistivity of Mud Sample
RW   .OHMM       1.00000                 :Connate Water Resistivity
TDD  .F       7680.00000                 :Driller Total Depth
TDL  .F       7687.00000                 :Logger Total Depth
TLI  .F       1026.25000                 :Top Log Interval
HIDE .        Wildcat                    :Header Identifier
MATR .        SAND                       :Rock Matrix for Neutron Porosity Corrections
FNUM .           1.00000                 :F-Numerator for Formation Factor Formula
FEXP .           2.00000                 :Exponent "m" for Formation Factor Formula
DFT  .        Fresh Water                :Drilling Fluid Type
DFPH .           8.50000                 :Drilling Fluid pH
MCSS .        Calculated                 :Mudcake Sample Source
MFSS .        Calculated                 :Mud Filtrate Sample Source
FD   .G/C3       1.00000                 :Fluid Density
MSS  .        Active Tank                :Mud Sample Source
OS1  .                                   :Other Services Line 1
OS2  .                                   :Other Services Line 2
OS3  .                                   :Other Services Line 3
OS4  .                                   :Other Services Line 4
OS5  .                                   :Other Services Line 5
R1   .                                   :Remarks Line 1
R2   .                                   :Remarks Line 2
R3   .                                   :Remarks Line 3
R4   .                                   :Remarks Line 4
R5   .                                   :Remarks Line 5
R6   .                                   :Remarks Line 6
R7   .                                   :Remarks Line 7
R8   .                                   :Remarks Line 8
TCS  .        14 00 00                   :Time Circulation Stopped
TLAB .        22 20 59                   :Time Logger At Bottom
NMT  .        NOBARITE                   :HRDD Mud Type for Nuclear Devices
EPD  .F         5286.000000              :Elevation of Permanent Datum above Mean Sea Level
APD  .F          12.000000               :Elevation of Depth Reference (LMF) above Permanent Datum
#-----------------------------------------------------------------------------
~CURVE INFORMATION
#MNEM.UNIT   API CODE                                  DESCRIPTION
#---- -----  --------                                  -----------------------
DEPT .F                                                :DEPTH (BOREHOLE) {F12.4}
AT10 .OHMM                                             :Array Induction Two Foot Resistivity A10 {F11.4}
AT30 .OHMM                                             :Array Induction Two Foot Resistivity A30 {F11.4}
AT90 .OHMM                                             :Array Induction Two Foot Resistivity A90 {F11.4}
GR   .GAPI                                             :Gamma Ray {F11.4}
HCAL .IN                                               :HRCC Caliper Calibrated {F11.4}
HDRA .G/C3                                             :Density Standoff Correction {F11.4}
NPHI .CFCF                                             :Thermal Neutron Porosity (original Ratio Method) in Selected Lithology {F11.4}
PEFZ .                                                 :Standard Resolution Formation Photoelectric Factor {F11.4}
RHOZ .G/C3                                             :Standard Resolution Formation Density {F11.4}
SP   .MV                                               :Spontaneous Potential {F11.4}
TNPH .CFCF                                             :Thermal Neutron Porosity (Ratio Method) in Selected Lithology {F11.4}
#-----------------------------------------------------------------------------
# 
#      DEPT        AF10       AF20       AF30       AF60       AF90       AO10       AO20       AO30       AO60       AO90       AT10       AT20       AT30       AT60       AT90     AHFCO60      AHMF      AHORT      AHORX      AHSCA     AHTCO10    AHTCO20    AHTCO30    AHTCO60    AHTCO90     AHTD1      AHTD2      AHTRT      AHTRX       CDF        CFTC       CNTC       CTEM       DCAL       DNPH       DPHZ       DSOZ       ECGR        ED        GDEV        GR        GTEM       HCAL       HDRA       HDRB       HGR        HMIN       HMNO       HNPO       HPRA       HTNP        ND        NPHI       NPOR       PEFZ    PXND_HILT     RHOZ       RSOZ     RWA_HILT     RXO8       RXOZ        SP        SPAR       STIT       TENS       TNPH     HTNP_SAN
#
~A  DEPT AT10 AT30 AT90 GR HCAL HDRA NPHI PEFZ RHOZ SP TNPH
# ...
7100.0000 3.1897 3.0492 2.9288 135.3294 7.8299 0.0110 0.2902 3.5411 2.5212 58.2891 0.2612
7100.5000 3.4191 3.1484 3.0121 143.0813 7.8183 0.0132 0.2897 3.4114 2.5246 58.3125 0.2732
7101.0000 4.0596 3.5860 3.3887 137.1458 7.8530 0.0057 0.2799 3.4200 2.5198 59.1071 0.2438
7101.5000 4.7691 4.3338 4.0442 123.3373 7.8067 0.0019 0.2487 3.5714 2.5316 59.5179 0.2306
7102.0000 5.1032 4.5620 4.2513 112.7082 7.8299 -0.0037 0.2339 3.7117 2.5287 59.7656 0.2227
7102.5000 4.8160 4.3679 4.1049 115.1004 7.8067 -0.0027 0.2343 3.7213 2.5353 59.4375 0.2284
7103.0000 4.5094 4.1661 3.9315 131.3317 7.8067 -0.0016 0.2318 3.6188 2.5385 59.4107 0.2323
7103.5000 4.2185 3.9274 3.7154 138.7507 7.8067 0.0006 0.2497 3.4982 2.5406 59.2969 0.2283
7104.0000 4.1801 3.8810 3.6659 144.3224 7.8299 0.0032 0.2661 3.4558 2.5423 58.3125 0.2363
7104.5000 4.1190 3.8283 3.6065 138.1143 7.8299 0.0042 0.2894 3.4239 2.5316 57.6964 0.2445
7105.0000 3.8348 3.6752 3.4595 139.8709 7.8299 0.0044 0.3112 3.3835 2.5217 62.7344 0.2726
7105.5000 3.5769 3.3874 3.1955 136.9949 7.8761 0.0027 0.3137 3.2958 2.5017 59.4107 0.2973
7106.0000 3.5167 3.2084 3.0229 134.2388 7.8299 0.0012 0.3086 3.2628 2.4929 58.9821 0.2985
7106.5000 3.8042 3.4408 3.2154 128.6674 7.8530 -0.0012 0.2814 3.2944 2.4963 59.2734 0.2860
7107.0000 3.9903 3.6736 3.4283 124.5176 7.8761 -0.0025 0.2681 3.3606 2.5088 60.0391 0.2657
7107.5000 3.9008 3.6469 3.4090 132.5729 7.8876 -0.0032 0.2678 3.3987 2.5161 60.5268 0.2532
7108.0000 3.9074 3.6028 3.3927 136.2066 7.9223 0.0004 0.2744 3.3724 2.5271 60.2734 0.2539
7108.5000 3.8318 3.6064 3.3903 134.0267 7.9223 0.0050 0.2758 3.3357 2.5275 60.1786 0.2586
7109.0000 3.9154 3.6118 3.4059 126.6078 7.9223 0.0082 0.2682 3.2943 2.5283 59.8393 0.2582
7109.5000 4.0898 3.7581 3.5369 121.0358 7.9454 0.0075 0.2601 3.3102 2.5260 59.9375 0.2486
7110.0000 4.2662 3.9575 3.7043 121.4296 7.9223 0.0058 0.2487 3.3455 2.5349 59.8661 0.2429
7110.5000 4.1347 3.8217 3.6048 123.2161 7.9223 0.0061 0.2549 3.3819 2.5468 59.3359 0.2284
7111.0000 4.0247 3.6925 3.4880 125.5781 7.8761 0.0054 0.2660 3.3932 2.5396 59.2946 0.2394
7111.5000 3.9326 3.6584 3.4450 124.4575 7.8530 0.0178 0.2736 3.4362 2.5406 58.7656 0.2519
7112.0000 3.6628 3.4673 3.2731 122.2775 7.8761 0.0327 0.2689 3.4552 2.5303 58.7768 0.2602
7112.5000 3.4144 3.1750 3.0099 127.7883 7.8992 0.0478 0.2628 3.4384 2.5320 58.8594 0.2662
7113.0000 3.2647 3.0854 2.9135 132.6334 7.8761 0.0427 0.2745 3.3441 2.5147 58.6607 0.2638
7113.5000 3.2656 3.0495 2.8656 130.6953 7.8761 0.0291 0.2749 3.2582 2.5127 59.1875 0.2686
7114.0000 3.2992 3.0409 2.8558 124.2751 7.8530 0.0167 0.2676 3.2087 2.5169 58.8672 0.2628
7114.5000 3.3732 3.0831 2.8852 118.0073 7.8530 0.0145 0.2768 3.2097 2.5336 59.1786 0.2483
7115.0000 3.4032 3.1286 2.9138 121.8827 7.8761 0.0120 0.2745 3.2042 2.5358 59.2813 0.2483
7115.5000 3.5024 3.2006 2.9898 118.7643 7.8530 0.0081 0.2725 3.1891 2.5288 59.3929 0.2506
7116.0000 3.4380 3.1965 2.9914 126.0011 7.8530 -0.0001 0.2622 3.1804 2.5090 59.4219 0.2604
7116.5000 3.3894 3.1160 2.9327 121.4895 7.8530 0.0004 0.2764 3.2071 2.5092 58.8661 0.2493
7117.0000 3.3681 3.1063 2.9197 128.0002 7.8761 0.0090 0.2772 3.2957 2.5198 59.0625 0.2636
7117.5000 3.3450 3.0890 2.9016 119.0373 7.8761 0.0238 0.2821 3.3847 2.5352 59.2321 0.2626
7118.0000 3.3170 3.0565 2.8769 119.2492 7.8992 0.0372 0.2758 3.4458 2.5426 59.2813 0.2669
7118.5000 3.4223 3.1539 2.9668 114.4037 7.9454 0.0356 0.2822 3.4189 2.5359 59.4821 0.2559
7119.0000 3.5258 3.2488 3.0365 120.5811 7.8992 0.0219 0.2748 3.3293 2.5246 59.0703 0.2550
7119.5000 3.4807 3.2087 3.0011 119.0673 7.8992 0.0072 0.2840 3.2437 2.5137 59.0893 0.2515
7120.0000 3.4600 3.1969 2.9926 121.6412 7.8761 0.0128 0.2643 3.2102 2.5259 58.9063 0.2723
7120.5000 3.4479 3.1936 2.9925 121.5198 7.8761 0.0282 0.2706 3.2275 2.5364 58.5714 0.2522
7121.0000 3.4205 3.1572 2.9876 130.4831 7.8761 0.0487 0.2548 3.2774 2.5494 58.6875 0.2647
7121.5000 3.3910 3.1327 2.9580 128.3638 7.8992 0.0521 0.2970 3.3117 2.5376 58.6641 0.2415
7122.0000 3.4708 3.1695 2.9798 136.6008 7.8992 0.0408 0.2920 3.3239 2.5275 59.0982 0.2738
7122.5000 3.4733 3.2111 3.0086 138.0543 7.9801 0.0297 0.2916 3.3366 2.5288 59.3906 0.2715
7123.0000 3.4973 3.2319 3.0339 137.1161 7.8530 0.0141 0.2851 3.3308 2.5292 59.3661 0.2784
7123.5000 3.5049 3.2322 3.0403 134.0878 7.8530 0.0101 0.2889 3.3064 2.5318 59.6328 0.2783
7124.0000 3.4833 3.2258 3.0347 132.8767 7.8530 0.0007 0.2854 3.2796 2.5137 59.4018 0.2688
7124.5000 3.5698 3.2827 3.0894 133.6026 7.8761 0.0006 0.2734 3.2938 2.5078 59.6641 0.2534
7125.0000 3.6374 3.3602 3.1535 130.2109 7.8761 -0.0001 0.2830 3.3705 2.5026 59.9464 0.2462
7125.5000 3.6634 3.3789 3.1724 125.6080 7.8530 0.0021 0.2904 3.4567 2.5113 59.8571 0.2612
7126.0000 3.6433 3.3624 3.1645 125.3965 7.8530 0.0056 0.2950 3.5133 2.5228 60.2578 0.2691
7126.5000 3.6135 3.3472 3.1526 123.0948 7.7836 0.0133 0.2679 3.5145 2.5414 60.0179 0.2826
7127.0000 3.5848 3.3176 3.1317 119.1579 7.7836 0.0144 0.2650 3.4726 2.5440 59.9453 0.2576
7127.5000 3.5538 3.2820 3.0988 112.5867 7.7836 0.0180 0.2622 3.4281 2.5465 59.8036 0.2452
7128.0000 3.5498 3.2801 3.0949 110.2251 7.8992 0.0111 0.2734 3.3481 2.5338 59.7188 0.2375
7128.5000 3.5454 3.2732 3.0869 113.4350 7.8761 0.0083 0.2593 3.2970 2.5318 60.1339 0.2530
7129.0000 3.4817 3.2306 3.0471 116.1907 7.8530 0.0007 0.2747 3.2632 2.5236 59.8203 0.2463
7129.5000 3.3703 3.1283 2.9552 118.3102 7.8761 0.0001 0.2773 3.2469 2.5279 59.9107 0.2646
7130.0000 3.2796 3.0701 2.9058 115.6456 7.8530 0.0021 0.2950 3.2194 2.5291 60.1172 0.2711
7130.5000 3.2221 3.0208 2.8557 123.4884 7.8299 0.0125 0.2818 3.1820 2.5343 59.6607 0.2893
7131.0000 3.1583 2.9744 2.8222 126.6681 7.8530 0.0279 0.2895 3.1911 2.5359 59.5703 0.2802
7131.5000 3.0812 2.8901 2.7539 137.8116 7.8530 0.0464 0.3003 3.2210 2.5422 59.0714 0.2850
7132.0000 2.9345 2.7395 2.6225 137.6002 7.8761 0.0534 0.3016 3.2570 2.5474 59.1094 0.2832
7132.5000 3.2127 2.8642 2.7390 138.0546 7.8761 0.0544 0.3257 3.2892 2.5536 59.7768 0.2804
7133.0000 3.3848 3.1696 2.9874 132.9368 7.8761 0.0470 0.3081 3.3154 2.5455 60.2734 0.2994
7133.5000 3.6358 3.3658 3.2029 136.8421 7.8299 0.0390 0.3218 3.3588 2.5274 60.7857 0.2823
7134.0000 3.6472 3.4076 3.2285 136.5999 7.8530 0.0263 0.2934 3.3862 2.5055 60.0714 0.3081
7134.5000 3.6803 3.4252 3.2495 137.8416 7.8530 0.0153 0.3344 3.3839 2.4991 60.2500 0.2872
7135.0000 3.7062 3.4346 3.2560 137.5399 7.8645 0.0077 0.3207 3.3380 2.5053 60.3839 0.3175
7135.5000 3.7123 3.4507 3.2709 142.1423 7.8530 0.0053 0.3063 3.3050 2.5224 60.1797 0.2981
7136.0000 3.7498 3.4536 3.2720 143.6566 7.8761 0.0039 0.2801 3.2916 2.5373 61.0714 0.2805
7136.5000 3.7229 3.4431 3.2680 135.7224 7.8761 0.0025 0.2783 3.2718 2.5434 60.9141 0.2641
7137.0000 3.7189 3.4296 3.2457 133.4512 7.8530 0.0007 0.2859 3.2708 2.5365 60.5804 0.2675
7137.5000 3.7407 3.4627 3.2724 132.9062 7.8761 0.0033 0.2771 3.3032 2.5299 60.8594 0.2667
7138.0000 3.7449 3.4926 3.2985 138.9324 7.8761 0.0127 0.2864 3.3935 2.5365 60.5536 0.2631
7138.5000 3.6188 3.3802 3.1964 142.8991 7.8992 0.0175 0.2966 3.4419 2.5326 60.7344 0.2770
7139.0000 3.5385 3.2704 3.1039 138.3571 7.9454 0.0209 0.2985 3.4384 2.5354 60.5804 0.2930
7139.5000 3.4362 3.1772 3.0089 132.0883 7.8992 0.0155 0.2980 3.3793 2.5257 60.5804 0.2892
7140.0000 3.4686 3.1781 3.0108 124.3064 7.9223 0.0113 0.2830 3.3176 2.5246 60.9063 0.2773
7140.5000 3.5285 3.2227 3.0421 124.2457 7.9223 0.0035 0.2740 3.2831 2.5129 60.3839 0.2648
7141.0000 3.5796 3.2903 3.1013 132.4223 7.8992 -0.0021 0.2555 3.2851 2.4999 60.7266 0.2565
7141.5000 3.6158 3.3279 3.1315 128.5762 7.9454 -0.0016 0.2661 3.2828 2.5016 60.9107 0.2420
7142.0000 3.5287 3.2728 3.0727 137.7813 7.9686 0.0034 0.2626 3.2847 2.5117 60.7266 0.2517
7142.5000 3.4670 3.1937 3.0022 139.4769 7.9686 0.0160 0.2897 3.2814 2.5318 60.8036 0.2486
7143.0000 3.3990 3.1328 2.9314 140.3550 7.9223 0.0249 0.2795 3.2834 2.5400 59.9922 0.2805
7143.5000 3.3345 3.1038 2.9202 127.0317 7.9454 0.0229 0.2871 3.2213 2.5245 60.1518 0.2645
7144.0000 3.2834 3.0636 2.8982 120.0363 7.9570 0.0241 0.2850 3.1509 2.5195 59.9688 0.2690
