~VERSION INFORMATION
VERS.           2.0   :CWLS Log ASCII Standard - VERSION 2.0
WRAP.           NO    :One Line per depth step
PROD.  Schlumberger   :LAS Producer
PROG.  DLIS to ASCII 19C2-270                          :LAS Program name and version
CREA.        2013/08/28 17:00                          :LAS Creation date {YYYY/MM/DD hh:mm}
DLIS_CREA.  2013-Aug-28 16:23                          :DLIS Creation date and time {YYYY-MMM-DD hh:mm}
SOURCE.     Bear_Oil_Marquardt_43_31_Main_DLIS.dlis    :DLIS File Name
FILE-ID.     MaxWell_5Dlis                             :File Identification Number
#--------------------------------------------------
~WELL INFORMATION
#MNEM.UNIT      DATA             DESCRIPTION
#---- ------ --------------   -----------------------------
STRT .F      1000.5          :START DEPTH        # original; data subset to 5500-8000
STOP .F      7710.0          :STOP DEPTH        # original; data subset to 5500-8000
STEP .F       0.5            :STEP     
NULL .          -999.25      :NULL VALUE
COMP .        Bear Oil and Gas, Inc.                   :COMPANY
WELL .        Marquardt 43 31                          :WELL
FLD  .        Wildcat                                  :FIELD
LOC  .        NESE 1627' FSL & 170' FEL                :LOCATION
CNTY .        Laramie                                  :COUNTY
STAT .        Wyoming                                  :STATE
CTRY .        United States                            :COUNTRY
API  .        049-021-21034                            :API NUMBER
UWI  .        049021210340000                          :UNIQUE WELL ID
DATE .        28-Aug-2013                              :LOG DATE {DD-MMM-YYYY}
SRVC .        Schlumberger                             :SERVICE COMPANY
LATI .DEG     41.306700 degrees                        :LATITUDE
LONG .DEG     -104.11980 degrees                       :LONGITUDE
GDAT .                                                 :GeoDetic Datum
SECT .        31                                       :Section
RANG .        60W                                      :Range
TOWN .        16N                                      :Township
#-----------------------------------------------------------------------------
~PARAMETER INFORMATION
#MNEM.UNIT    VALUE                      DESCRIPTION
#---- -----   --------------------       ------------------------
CN   .        Bear Oil and Gas  Inc.     :Company Name
WN   .        Marquardt 43 31            :Well Name
FN   .        Wildcat                    :Field Name
FL   .        NESE 1627' FSL & 170' FEL  :Field Location
FL1  .        Sec. 31  T. 16N  R. 60W    :Field Location, Line 1
COUN .        Laramie                    :County or Parish
STAT .        Wyoming                    :State or Province
NATI .        United States              :Nation
DATE .        28-Aug-2013                :Tools Above Rotary Table Date
APIN .        049-021-21034              :API Well Number
SECT .        31                         :Section
TOWN .        16N                        :Township
RANG .        60W                        :Range
DMF  .        KB                         :Drilling Measured From (Name of Drilling Elevation Reference)
LMF  .        KB                         :Logging Measured From (Name of Logging Elevation Reference)
PDAT .        GL                         :Permanent Datum
ENGI .        Max Pace                   :Engineer s Name
WITN .        Terry Eittreim             :Witness s Name
LATI .        41.306700 degrees          :Latitude
LONG .        -104.11980 degrees         :Longitude
LUL  .        Fort Morgan  CO            :Logging Unit Location
LUN  .        3022                       :Logging Unit Number
RUN  .        Run 1                      :Run Number
SON  .        CA0R-00043                 :Service Order Number
BHT  .DEGF     166.00000                 :Bottom Hole Temperature
BS   .IN         7.87500                 :Bit Size
MDEN .G/C3       2.65000                 :Matrix Density for Density Porosity
DFD  .LB/G       8.90000                 :Drilling Fluid Density
DFV  .S         65.00000                 :Drilling Fluid Viscosity
DFL  .C3         9.00000                 :Drilling Fluid Loss
RMFS .OHMM       1.11000                 :Resistivity of Mud Filtrate Sample
EKB  .F       5298.00000                 :Elevation of Kelly Bushing
EGL  .F       5286.00000                 :Elevation of Ground Level
BLI  .F       7686.00000                 :Bottom Log Interval
BSAL .PPM     3335.81519                 :Borehole Salinity
FLEV .F          8.00000                 :Depth of Drilling Fluid Level to LMF (Log Measured From)
MCST .DEGF      83.00000                 :Mudcake Sample Temperature
MFST .DEGF      83.00000                 :Mud Filtrate Sample Temperature
MRT  .DEGF     166.00000                 :Maximum Recorded Temperature
MST  .DEGF      83.00000                 :Mud Sample Temperature
RMCS .OHMM       1.85000                 :Resistivity of Mud Cake Sample
RMS  .OHMM       1.48000                 :Resistivity of Mud Sample
RW   .OHMM       1.00000                 :Connate Water Resistivity
TDD  .F       7680.00000                 :Driller Total Depth
TDL  .F       7686.00000                 :Logger Total Depth
TLI  .F       1025.00000                 :Top Log Interval
HIDE .        Wildcat                    :Header Identifier
MATR .        SAND                       :Rock Matrix for Neutron Porosity Corrections
FNUM .           1.00000                 :F-Numerator for Formation Factor Formula
FEXP .           2.00000                 :Exponent "m" for Formation Factor Formula
DFT  .        WATER                      :Drilling Fluid Type
DFPH .           8.00000                 :Drilling Fluid pH
MCSS .        Calculated                 :Mudcake Sample Source
MFSS .        Calculated                 :Mud Filtrate Sample Source
FD   .G/C3       1.00000                 :Fluid Density
MSS  .        Active Tank                :Mud Sample Source
OS1  .                                   :Other Services Line 1
OS2  .                                   :Other Services Line 2
OS3  .                                   :Other Services Line 3
OS4  .                                   :Other Services Line 4
OS5  .                                   :Other Services Line 5
R1   .                                   :Remarks Line 1
R2   .                                   :Remarks Line 2
R3   .                                   :Remarks Line 3
R4   .                                   :Remarks Line 4
R5   .                                   :Remarks Line 5
R6   .                                   :Remarks Line 6
R7   .                                   :Remarks Line 7
R8   .                                   :Remarks Line 8
TCS  .        05 00 00                   :Time Circulation Stopped
TLAB .        14 30 25                   :Time Logger At Bottom
NMT  .        NOBARITE                   :HRDD Mud Type for Nuclear Devices
EPD  .F         5286.000000              :Elevation of Permanent Datum above Mean Sea Level
APD  .F          12.000000               :Elevation of Depth Reference (LMF) above Permanent Datum
#-----------------------------------------------------------------------------
~CURVE INFORMATION
#MNEM.UNIT   API CODE                                  DESCRIPTION
#---- -----  --------                                  -----------------------
DEPT .F                                                :DEPTH (BOREHOLE) {F10.1}
AT10 .OHMM                                             :Array Induction Two Foot Resistivity A10 {F11.4}
AT30 .OHMM                                             :Array Induction Two Foot Resistivity A30 {F11.4}
AT90 .OHMM                                             :Array Induction Two Foot Resistivity A90 {F11.4}
GR   .GAPI                                             :Gamma Ray {F11.4}
HCAL .IN                                               :HRCC Caliper Calibrated {F11.4}
HDRA .G/C3                                             :Density Standoff Correction {F11.4}
NPHI .CFCF                                             :Thermal Neutron Porosity (original Ratio Method) in Selected Lithology {F11.4}
PEFZ .                                                 :Standard Resolution Formation Photoelectric Factor {F11.4}
RHOZ .G/C3                                             :Standard Resolution Formation Density {F11.4}
SP   .MV                                               :Spontaneous Potential {F11.4}
TNPH .CFCF                                             :Thermal Neutron Porosity (Ratio Method) in Selected Lithology {F11.4}
#-----------------------------------------------------------------------------
# 
#     DEPT       AF10       AF20       AF30       AF60       AF90       AO10       AO20       AO30       AO60       AO90       AT10       AT20       AT30       AT60       AT90     AHFCO60      AHMF      AHORT      AHORX      AHSCA     AHTCO10    AHTCO20    AHTCO30    AHTCO60    AHTCO90     AHTD1      AHTD2      AHTRT      AHTRX       CDF        CFTC       CNTC       CTEM       DCAL       DNPH       DPHZ       DSOZ       ECGR        ED        GDEV        GR        GTEM       HCAL       HDRA       HDRB       HGR        HMIN       HMNO       HNPO       HPRA       HTNP        ND        NPHI       NPOR       PEFZ    PXND_HILT     RHOZ       RSOZ     RWA_HILT     RXO8       RXOZ        SP        SPAR       STIT       TENS       TNPH     HTNP_SAN
#
~A  DEPT AT10 AT30 AT90 GR HCAL HDRA NPHI PEFZ RHOZ SP TNPH
# ...
7682.5 3.8477 3.3029 2.2829 158.3076 7.3383 0.0816 0.3367 2.9727 2.5674 -59.5208 -999.2500
7683.0 3.8064 3.1845 2.1552 158.3076 7.3383 0.0788 0.3367 2.9608 2.5686 -59.5221 -999.2500
7683.5 3.7845 3.1182 2.0775 158.3076 7.3440 0.0810 0.3367 2.9514 2.5687 -59.6493 -999.2500
7684.0 3.7858 3.0754 2.0460 158.3076 7.3383 0.0911 0.3367 2.9572 2.5686 -59.8472 -999.2500
7684.5 3.7250 3.0590 2.0511 158.3076 7.3440 0.0964 0.3367 2.9631 2.5708 -59.9167 -999.2500
7685.0 3.6929 3.0580 2.0798 158.3076 7.3497 0.0924 0.3367 2.9660 2.5709 -59.8993 -999.2500
7685.5 3.6627 3.0709 2.1168 158.3076 7.3383 0.0819 0.3367 2.9584 2.5726 -59.8681 -999.2500
7686.0 3.6461 3.0841 2.1537 158.3076 7.3383 0.0781 0.3367 2.9544 2.5726 -59.8299 -999.2500
7686.5 3.6225 3.0927 2.1828 158.3076 7.3383 0.0709 0.3367 2.9535 2.5728 -60.0313 -999.2500
7687.0 3.6170 3.0997 2.2025 158.3076 7.3440 -5416.7620 0.3367 -5429.5455 -5427.8110 -60.2708 -999.2500
7687.5 3.6192 3.1068 2.2158 158.3076 7.3230 -999.2500 0.3367 -999.2500 -999.2500 -60.0104 -999.2500
7688.0 3.6389 3.1066 2.2190 158.3076 7.3268 -999.2500 0.3367 -999.2500 -999.2500 -60.0625 -999.2500
7688.5 3.6583 3.1093 2.2263 158.3076 7.3440 -999.2500 0.3367 -999.2500 -999.2500 -60.3611 -999.2500
7689.0 3.6691 3.1152 2.2313 158.3076 7.2166 -999.2500 0.3367 -999.2500 -999.2500 -60.4826 -999.2500
7689.5 3.6807 3.1154 2.2333 158.3076 2.5064 -999.2500 0.3367 -999.2500 -999.2500 -60.4375 -999.2500
7690.0 3.6862 3.1144 2.2315 158.3076 2.4436 -999.2500 0.3367 -999.2500 -999.2500 -60.4118 -999.2500
7690.5 3.6899 3.1139 2.2335 158.3076 2.4474 -999.2500 0.3367 -999.2500 -999.2500 -60.4583 -999.2500
7691.0 3.6907 3.1184 2.2352 158.3076 2.4474 -999.2500 0.3367 -999.2500 -999.2500 -60.5278 -999.2500
7691.5 3.6941 3.1236 2.2370 158.3076 2.4493 -999.2500 0.3367 -999.2500 -999.2500 -60.3934 -999.2500
7692.0 3.6937 3.1172 2.2332 158.3076 2.4436 -999.2500 0.3367 -999.2500 -999.2500 -60.4688 -999.2500
7692.5 3.6900 3.1127 2.2301 158.3076 2.4436 -999.2500 0.3367 -999.2500 -999.2500 -61.0110 -999.2500
7693.0 3.6923 3.1139 2.2290 158.3076 2.4436 -999.2500 0.3367 -999.2500 -999.2500 -61.2986 -999.2500
7693.5 3.6906 3.1135 2.2280 158.3076 2.4436 -999.2500 0.3367 -999.2500 -999.2500 -61.2096 -999.2500
7694.0 3.6898 3.1126 2.2269 158.3076 2.4436 -999.2500 0.3367 -999.2500 -999.2500 -61.0208 -999.2500
7694.5 3.6917 3.1187 2.2305 158.3076 2.4436 -999.2500 0.3367 -999.2500 -999.2500 -60.8787 -999.2500
7695.0 3.6926 3.1190 2.2293 158.3076 2.4436 -999.2500 0.3367 -999.2500 -999.2500 -60.7868 -999.2500
7695.5 3.6967 3.1236 2.2323 158.3076 2.4436 -999.2500 0.3367 -999.2500 -999.2500 -60.7604 -999.2500
7696.0 3.6937 3.1187 2.2310 158.3076 2.4436 -999.2500 0.3367 -999.2500 -999.2500 -60.5809 -999.2500
7696.5 3.6926 3.1176 2.2310 158.3076 2.4436 -999.2500 0.3367 -999.2500 -999.2500 -60.3576 -999.2500
7697.0 3.6929 3.1154 2.2301 158.3076 2.4436 -999.2500 0.3367 -999.2500 -999.2500 -59.9485 -999.2500
7697.5 3.6923 3.1128 2.2292 158.3076 2.4436 -999.2500 0.3367 -999.2500 -999.2500 -59.8566 -999.2500
7698.0 3.6948 3.1175 2.2308 158.3076 2.4436 -999.2500 0.3367 -999.2500 -999.2500 -59.8125 -999.2500
7698.5 3.6939 3.1197 2.2315 158.3076 2.4436 -999.2500 0.3367 -999.2500 -999.2500 -59.8382 -999.2500
7699.0 3.6916 3.1184 2.2307 158.3076 2.4436 -999.2500 0.3367 -999.2500 -999.2500 -59.9028 -999.2500
7699.5 3.6932 3.1183 2.2303 158.3076 2.4436 -999.2500 0.3367 -999.2500 -999.2500 -59.9375 -999.2500
7700.0 3.6940 3.1151 2.2288 158.3076 2.4436 -999.2500 0.3367 -999.2500 -999.2500 -59.9137 -999.2500
7700.5 3.6952 3.1197 2.2308 158.3076 2.4436 -999.2500 0.3367 -999.2500 -999.2500 -59.8261 -999.2500
7701.0 3.6959 3.1217 2.2317 158.3076 2.4436 -999.2500 0.3367 -999.2500 -999.2500 -59.7760 -999.2500
7701.5 3.6954 3.1224 2.2318 158.3076 2.4436 -999.2500 0.3367 -999.2500 -999.2500 -59.8641 -999.2500
7702.0 3.6948 3.1217 2.2314 158.3076 2.4436 -999.2500 0.3367 -999.2500 -999.2500 -59.9076 -999.2500
7702.5 3.6948 3.1217 2.2314 158.3076 2.4436 -999.2500 0.3367 -999.2500 -999.2500 -59.9022 -999.2500
7703.0 3.6948 3.1217 2.2314 158.3076 2.4436 -999.2500 0.3367 -999.2500 -999.2500 -59.8261 -999.2500
7703.5 3.6948 3.1217 2.2314 158.3076 2.4436 -999.2500 0.3367 -999.2500 -999.2500 -59.8207 -999.2500
7704.0 3.6948 3.1217 2.2314 158.3076 2.4436 -999.2500 0.3367 -999.2500 -999.2500 -59.8620 -999.2500
7704.5 3.6948 3.1217 2.2314 158.3076 2.4436 -999.2500 0.3367 -999.2500 -999.2500 -59.9076 -999.2500
7705.0 3.6948 3.1217 2.2314 158.3076 2.4436 -999.2500 0.3367 -999.2500 -999.2500 -59.9049 -999.2500
7705.5 3.6948 3.1217 2.2314 158.3076 2.4436 -999.2500 0.3367 -999.2500 -999.2500 -59.8832 -999.2500
7706.0 3.6948 3.1217 2.2314 158.3076 2.4436 -999.2500 0.3367 -999.2500 -999.2500 -60.0136 -999.2500
7706.5 3.6948 3.1217 2.2314 158.3076 2.4436 -999.2500 0.3367 -999.2500 -999.2500 -61.2745 -999.2500
7707.0 3.6948 3.1217 2.2314 158.3076 2.4436 -999.2500 0.3367 -999.2500 -999.2500 -61.3307 -999.2500
7707.5 3.6948 3.1217 2.2314 158.3076 2.4436 -999.2500 0.3367 -999.2500 -999.2500 -61.3071 -999.2500
7708.0 3.6948 3.1217 2.2314 158.3076 2.4436 -999.2500 0.3367 -999.2500 -999.2500 -61.3940 -999.2500
7708.5 3.6948 3.1217 2.2314 158.3076 2.4436 -999.2500 0.3367 -999.2500 -999.2500 -61.5875 -999.2500
7709.0 3.6948 3.1217 2.2314 158.3076 2.4436 -999.2500 0.3367 -999.2500 -999.2500 -61.3000 -999.2500
7709.5 3.6948 3.1217 2.2314 158.3076 2.4436 -999.2500 0.3367 -999.2500 -999.2500 -61.0493 -999.2500
7710.0 3.6948 3.1217 2.2314 158.3076 2.4436 -999.2500 0.3367 -999.2500 -999.2500 -61.0493 -999.2500
