~VERSION INFORMATION
VERS.           2.0   :CWLS Log ASCII Standard - VERSION 2.0
WRAP.           NO    :One Line per depth step
PROD.  Schlumberger   :LAS Producer
PROG.  DLIS to ASCII 19C1-222                          :LAS Program name and version
CREA.        2013/09/09 02:34                          :LAS Creation date {YYYY/MM/DD hh:mm}
DLIS_CREA.  2013-Sep-09 02:29                          :DLIS Creation date and time {YYYY-MMM-DD hh:mm}
SOURCE.     049-021-21038_Marquardt 44-31_Run_PEX-AIT_Mainpass.dlis  :DLIS File Name
FILE-ID.     MaxWell_4Dlis                             :File Identification Number
#--------------------------------------------------
~WELL INFORMATION
#MNEM.UNIT      DATA             DESCRIPTION
#---- ------ --------------   -----------------------------
STRT .F      952.5           :START DEPTH        # original; data subset to 5500-8000
STOP .F      7703.0          :STOP DEPTH        # original; data subset to 5500-8000
STEP .F       0.5            :STEP     
NULL .          -999.25      :NULL VALUE
COMP .        Bear Oil & Gas, Inc                      :COMPANY
WELL .        Marquardt 44-31                          :WELL
FLD  .        Wildcat                                  :FIELD
LOC  .        Lat/Long : 41.3038/-104.1202             :LOCATION
CNTY .        Laramie                                  :COUNTY
STAT .        Wyoming                                  :STATE
CTRY .        USA                                      :COUNTRY
API  .        049-021-21038                            :API NUMBER
UWI  .        049021210380000                          :UNIQUE WELL ID
DATE .        08-Sep-2013                              :LOG DATE {DD-MMM-YYYY}
SRVC .        Schlumberger                             :SERVICE COMPANY
LATI .DEG     41.303800 degrees                        :LATITUDE
LONG .DEG     -104.12020 degrees                       :LONGITUDE
GDAT .                                                 :GeoDetic Datum
SECT .        31                                       :Section
RANG .        60W                                      :Range
TOWN .        16N                                      :Township
#-----------------------------------------------------------------------------
~PARAMETER INFORMATION
#MNEM.UNIT    VALUE                      DESCRIPTION
#---- -----   --------------------       ------------------------
CN   .        Bear Oil & Gas  Inc        :Company Name
WN   .        Marquardt 44-31            :Well Name
FN   .        Wildcat                    :Field Name
FL   .        Lat/Long   41.3038/-104.1202 :Field Location
FL1  .        SHL   766' FSL X 245' FEL SESE :Field Location, Line 1
COUN .        Laramie                    :County or Parish
STAT .        Wyoming                    :State or Province
NATI .        USA                        :Nation
DATE .        08-Sep-2013                :Tools Above Rotary Table Date
APIN .        049-021-21038              :API Well Number
SECT .        31                         :Section
TOWN .        16N                        :Township
RANG .        60W                        :Range
DMF  .        KB                         :Drilling Measured From (Name of Drilling Elevation Reference)
LMF  .        KB                         :Logging Measured From (Name of Logging Elevation Reference)
PDAT .        GL                         :Permanent Datum
ENGI .        Arvin Shi                  :Engineer s Name
WITN .        Terry Eittreim             :Witness s Name
LATI .        41.303800 degrees          :Latitude
LONG .        -104.12020 degrees         :Longitude
LUL  .        Fort Morgan                :Logging Unit Location
LUN  .        3030                       :Logging Unit Number
RUN  .        Run 1                      :Run Number
SON  .        C6VJ-00075                 :Service Order Number
BHT  .DEGF     184.00000                 :Bottom Hole Temperature
BS   .IN         7.87500                 :Bit Size
MDEN .G/C3       2.65000                 :Matrix Density for Density Porosity
DFD  .LB/G       9.00000                 :Drilling Fluid Density
DFV  .S         80.00000                 :Drilling Fluid Viscosity
DFL  .C3      -999.25000                 :Drilling Fluid Loss
RMFS .OHMM       0.80250                 :Resistivity of Mud Filtrate Sample
EKB  .F       5298.00000                 :Elevation of Kelly Bushing
EGL  .F       5286.00000                 :Elevation of Ground Level
BLI  .F       7686.00000                 :Bottom Log Interval
BSAL .PPM     4641.08936                 :Borehole Salinity
FLEV .F          8.00000                 :Depth of Drilling Fluid Level to LMF (Log Measured From)
MCST .DEGF      84.00000                 :Mudcake Sample Temperature
MFST .DEGF      84.00000                 :Mud Filtrate Sample Temperature
MRT  .DEGF     184.00000                 :Maximum Recorded Temperature
MST  .DEGF      84.00000                 :Mud Sample Temperature
RMCS .OHMM       1.33750                 :Resistivity of Mud Cake Sample
RMS  .OHMM       1.07000                 :Resistivity of Mud Sample
RW   .OHMM       1.00000                 :Connate Water Resistivity
TDD  .F       7680.00000                 :Driller Total Depth
TDL  .F       7686.00000                 :Logger Total Depth
TLI  .F       1023.00000                 :Top Log Interval
HIDE .        Wildcat                    :Header Identifier
MATR .        SAND                       :Rock Matrix for Neutron Porosity Corrections
FNUM .           1.00000                 :F-Numerator for Formation Factor Formula
FEXP .           2.00000                 :Exponent "m" for Formation Factor Formula
DFT  .        Fresh Water                :Drilling Fluid Type
DFPH .        -999.25000                 :Drilling Fluid pH
MCSS .        Calculated                 :Mudcake Sample Source
MFSS .        Calculated                 :Mud Filtrate Sample Source
FD   .G/C3       1.00000                 :Fluid Density
MSS  .        Flowline                   :Mud Sample Source
OS1  .                                   :Other Services Line 1
OS2  .                                   :Other Services Line 2
OS3  .                                   :Other Services Line 3
OS4  .                                   :Other Services Line 4
OS5  .                                   :Other Services Line 5
R1   .                                   :Remarks Line 1
R2   .                                   :Remarks Line 2
R3   .                                   :Remarks Line 3
R4   .                                   :Remarks Line 4
R5   .                                   :Remarks Line 5
R6   .                                   :Remarks Line 6
R7   .                                   :Remarks Line 7
R8   .                                   :Remarks Line 8
TCS  .        15 00 00                   :Time Circulation Stopped
TLAB .        00 30 46                   :Time Logger At Bottom
NMT  .        NOBARITE                   :HRDD Mud Type for Nuclear Devices
EPD  .C3         5286.000000             :Elevation of Permanent Datum above Mean Sea Level
APD  .F          12.000000               :Elevation of Depth Reference (LMF) above Permanent Datum
#-----------------------------------------------------------------------------
~CURVE INFORMATION
#MNEM.UNIT   API CODE                                  DESCRIPTION
#---- -----  --------                                  -----------------------
DEPT .F                                                :DEPTH (BOREHOLE) {F10.1}
AT10 .OHMM                                             :Array Induction Two Foot Resistivity A10 {F11.4}
AT30 .OHMM                                             :Array Induction Two Foot Resistivity A30 {F11.4}
AT90 .OHMM                                             :Array Induction Two Foot Resistivity A90 {F11.4}
GR   .GAPI                                             :Gamma Ray {F11.4}
HCAL .IN                                               :HRCC Caliper Calibrated {F11.4}
HDRA .G/C3                                             :Density Standoff Correction {F11.4}
NPHI .CFCF                                             :Thermal Neutron Porosity (original Ratio Method) in Selected Lithology {F11.4}
PEFZ .                                                 :Standard Resolution Formation Photoelectric Factor {F11.4}
RHOZ .G/C3                                             :Standard Resolution Formation Density {F11.4}
SP   .MV                                               :Spontaneous Potential {F11.4}
TNPH .CFCF                                             :Thermal Neutron Porosity (Ratio Method) in Selected Lithology {F11.4}
#-----------------------------------------------------------------------------
# 
#     DEPT       AF10       AF20       AF30       AF60       AF90       AO10       AO20       AO30       AO60       AO90       AT10       AT20       AT30       AT60       AT90     AHFCO60      AHMF      AHORT      AHORX      AHSCA     AHTCO10    AHTCO20    AHTCO30    AHTCO60    AHTCO90     AHTD1      AHTD2      AHTRT      AHTRX       CDF        CFTC       CNTC       CTEM       DCAL       DNPH       DPHZ       DSOZ       ECGR        ED        GDEV        GR        GTEM       HCAL       HDRA       HDRB       HGR        HMIN       HMNO       HNPO       HPRA       HTNP        ND        NPHI       NPOR       PEFZ    PXND_HILT     RHOZ       RSOZ     RWA_HILT     RXO8       RXOZ        SP        SPAR       STIT       TENS       TNPH     HTNP_SAN
#
~A  DEPT AT10 AT30 AT90 GR HCAL HDRA NPHI PEFZ RHOZ SP TNPH
# ...
6944.0 5.2677 5.0737 4.7543 110.2878 7.8241 0.0020 0.1838 3.5689 2.6367 -468.9643 0.1608
6944.5 4.9200 4.7103 4.4122 115.2420 7.7907 0.0043 0.1837 3.4677 2.6416 -469.0703 0.1759
6945.0 5.3294 4.9377 4.6434 115.9216 7.8018 0.0013 0.1913 3.4313 2.6266 -468.9821 0.1690
6945.5 5.4569 5.2224 4.9124 107.8819 7.8018 -0.0050 0.1819 3.4775 2.5971 -469.0625 0.1726
6946.0 5.4825 5.2636 4.9497 106.7780 7.7796 -0.0055 0.1925 3.5236 2.5939 -468.9286 0.1649
6946.5 5.5271 5.2616 4.9670 107.4854 7.7796 -0.0035 0.1829 3.5227 2.6053 -468.7344 0.1730
6947.0 5.5139 5.2856 4.9875 104.8813 7.7796 -0.0006 0.1921 3.4951 2.6219 -468.7500 0.1619
6947.5 5.7100 5.4074 5.0891 103.0127 7.8018 -0.0013 0.1881 3.5717 2.6210 -468.7232 0.1669
6948.0 6.1842 5.8657 5.4944 101.1729 7.8018 -0.0029 0.1860 3.7112 2.6135 -468.7578 0.1640
6948.5 6.8616 6.5753 6.1175 92.8784 7.8018 -0.0029 0.1688 3.8176 2.6124 -469.0179 0.1629
6949.0 6.4207 6.3894 5.9574 93.3882 7.8018 -0.0026 0.1680 3.8454 2.6122 -468.7969 0.1526
6949.5 5.7625 5.4647 5.1622 94.8321 7.8018 -0.0006 0.1869 3.7539 2.6210 -468.6071 0.1606
6950.0 5.2109 5.0177 4.7785 105.3907 7.8130 -0.0019 0.2043 3.6709 2.6301 -468.3906 0.1781
6950.5 5.2803 5.0098 4.7694 102.7014 7.8241 -0.0010 0.2059 3.6131 2.6312 -468.5179 0.1883
6951.0 5.4491 5.1672 4.8685 102.8992 7.8018 -0.0047 0.2079 3.6609 2.6096 -468.8125 0.1863
6951.5 5.6447 5.3507 5.0329 101.0879 7.8018 -0.0053 0.1972 3.6666 2.5965 -468.9453 0.1854
6952.0 5.8398 5.6123 5.2386 100.0970 7.8018 -0.0090 0.1915 3.6717 2.5941 -469.0982 0.1738
6952.5 6.1106 5.9082 5.5049 92.5674 7.8241 -0.0100 0.1689 3.7110 2.5982 -469.1016 0.1684
6953.0 6.2030 6.0765 5.6828 85.0090 7.8018 -0.0109 0.1655 3.8067 2.5938 -468.9911 0.1538
6953.5 6.3243 6.0701 5.7297 83.0273 7.8241 -0.0099 0.1631 3.8990 2.5940 -469.0234 0.1483
6954.0 6.6502 6.2682 5.9001 80.8473 7.8018 -0.0101 0.1660 3.9555 2.6007 -468.8571 0.1424
6954.5 6.9707 6.7478 6.2855 79.3469 7.8018 -0.0106 0.1612 4.0210 2.6048 -468.8906 0.1418
6955.0 7.1348 7.0206 6.5958 73.4024 7.8018 -0.0113 0.1611 4.0824 2.6042 -468.9063 0.1388
6955.5 7.3253 7.1030 6.7348 74.6763 7.8018 -0.0108 0.1608 4.1241 2.6005 -468.7857 0.1442
6956.0 7.4779 7.2270 6.8527 82.3196 7.8018 -0.0087 0.1640 4.1140 2.6031 -468.9141 0.1471
6956.5 7.7012 7.5418 7.0614 87.3585 7.7907 -0.0062 0.1606 4.0754 2.6096 -468.7857 0.1510
6957.0 8.0176 7.8501 7.3571 86.2829 7.8241 -0.0056 0.1583 4.0272 2.6118 -468.8125 0.1462
6957.5 7.3089 7.3316 6.8681 82.5178 7.8130 -0.0078 0.1585 4.0085 2.6024 -468.3929 0.1470
6958.0 6.8249 6.6608 6.2655 86.1410 7.8018 -0.0104 0.1670 3.9902 2.5936 -468.3516 0.1494
6958.5 6.1149 5.9797 5.6177 89.9061 7.8018 -0.0111 0.1787 3.9836 2.5963 -468.6250 0.1543
6959.0 6.5516 6.0316 5.6866 90.3305 7.8018 -0.0101 0.1831 4.0293 2.6090 -468.7143 0.1594
6959.5 7.2754 7.0923 6.4775 83.8480 7.8018 -0.0082 0.1619 4.1352 2.6214 -469.0469 0.1538
6960.0 8.4892 8.0798 7.4107 85.2350 7.7796 -0.0065 0.1427 4.2121 2.6252 -469.0893 0.1340
6960.5 7.1332 7.0784 6.5681 94.3219 7.7796 -0.0046 0.1451 4.1720 2.6195 -468.8828 0.1314
6961.0 6.3129 6.1621 5.8014 110.0895 7.8018 -0.0038 0.1642 4.0350 2.6064 -468.8125 0.1450
6961.5 5.6730 5.4154 5.1497 121.1862 7.8018 -0.0018 0.1865 3.8343 2.6046 -468.3594 0.1707
6962.0 5.5339 5.2526 4.9933 126.3668 7.7796 -0.0031 0.1875 3.7202 2.5983 -468.2891 0.1842
6962.5 5.4759 5.2838 5.0003 119.5162 7.8018 -0.0049 0.1978 3.6507 2.5963 -468.2768 0.1743
6963.0 5.1321 4.9226 4.6584 112.2696 7.8018 -0.0054 0.1937 3.6047 2.5960 -468.0781 0.1854
6963.5 4.7912 4.6425 4.3941 105.7022 7.8018 -0.0036 0.2095 3.5258 2.5995 -468.2232 0.1805
6964.0 5.2264 4.8363 4.5769 104.1736 7.8241 -0.0038 0.2088 3.5092 2.5865 -468.1719 0.1931
6964.5 5.5941 5.2657 4.9175 105.6735 7.8018 -0.0060 0.2086 3.5615 2.5637 -468.2946 0.1874
6965.0 6.2827 5.8186 5.3988 105.6737 7.8018 -0.0077 0.2029 3.6015 2.5597 -468.2969 0.1825
6965.5 5.7714 5.7603 5.4087 109.5799 7.8018 -0.0046 0.1954 3.5815 2.5851 -468.0357 0.1795
6966.0 5.4276 5.1489 4.8628 110.5711 7.8018 -0.0004 0.2125 3.5580 2.6157 -468.2500 0.1736
6966.5 5.6458 5.1434 4.8549 109.3815 7.7796 0.0008 0.2041 3.5762 2.6177 -468.3281 0.1934
6967.0 5.8755 5.7115 5.3683 108.7871 7.8018 -0.0019 0.2009 3.6108 2.5992 -468.3661 0.1880
6967.5 5.8575 5.8341 5.4934 109.2404 7.8018 -0.0045 0.1921 3.5922 2.5806 -468.4844 0.1843
6968.0 5.5252 5.2241 5.0131 111.1092 7.8018 -0.0038 0.2087 3.5089 2.5803 -468.1786 0.1812
6968.5 5.2713 5.0476 4.8309 109.9198 7.7907 -0.0037 0.2256 3.4507 2.5797 -468.3906 0.1898
6969.0 6.4539 5.8129 5.5212 109.0701 7.8018 -0.0039 0.2241 3.4927 2.5703 -468.4821 0.2010
6969.5 7.4949 7.2130 6.7219 97.9734 7.7907 0.0034 0.2029 3.6704 2.5583 -468.5000 0.1937
6970.0 9.0261 8.6698 7.9620 92.2271 7.7796 0.0057 0.1760 3.8927 2.5547 -468.3828 0.1717
6970.5 8.6761 8.6652 8.0004 86.7358 7.7796 0.0041 0.1574 4.0315 2.5635 -468.2321 0.1492
6971.0 7.9842 7.8183 7.3333 93.9823 7.8018 -0.0038 0.1604 4.0359 2.5788 -468.2813 0.1391
6971.5 7.6877 7.5410 7.1015 91.7182 7.8018 -0.0058 0.1735 3.9600 2.5916 -468.2857 0.1494
6972.0 7.3478 7.3663 6.9778 91.0669 7.8018 -0.0054 0.1787 3.9042 2.5987 -468.3203 0.1608
6972.5 6.6889 6.5316 6.3158 88.8027 7.8018 -0.0068 0.1810 3.8969 2.5988 -468.5357 0.1612
6973.0 6.6869 6.4778 6.1493 87.3019 7.8018 -0.0021 0.1781 3.9133 2.5968 -468.3203 0.1613
6973.5 7.0266 6.9440 6.4622 83.6502 7.7796 0.0057 0.1864 3.9009 2.5966 -468.3393 0.1598
6974.0 7.2030 7.1076 6.7182 82.9418 7.8241 0.0053 0.1907 3.8619 2.5928 -468.2891 0.1673
6974.5 7.6421 7.3601 6.9681 89.4811 7.8018 -0.0007 0.1875 3.8145 2.5893 -468.2969 0.1720
6975.0 8.1897 7.9014 7.4747 95.3691 7.8018 -0.0095 0.1702 3.8232 2.5827 -468.6786 0.1661
6975.5 8.3885 8.0927 7.6888 90.6138 7.8018 -0.0081 0.1621 3.8677 2.5849 -468.6172 0.1473
6976.0 8.4601 8.0315 7.7070 86.0280 7.7796 -0.0064 0.1586 3.9345 2.5889 -468.7232 0.1388
6976.5 8.3256 8.4135 7.9772 85.3765 7.7796 -0.0039 0.1601 3.9509 2.5991 -468.7656 0.1402
6977.0 8.1309 8.0262 7.7001 94.4637 7.8018 -0.0021 0.1479 3.9350 2.6024 -468.6161 0.1479
6977.5 6.3092 6.7567 6.5176 104.0032 7.8018 -0.0012 0.1583 3.8935 2.5856 -468.3984 0.1525
6978.0 5.0097 4.9725 4.8472 127.7542 7.8241 0.0022 0.1885 3.8267 2.5694 -468.1429 0.1689
6978.5 4.1459 4.0698 4.0064 141.4548 7.8018 0.0004 0.2116 3.7762 2.5436 -467.9688 0.1817
6979.0 5.3969 4.8907 4.7482 145.2773 7.8018 -0.0017 0.2088 3.7506 2.5503 -467.9453 0.1817
6979.5 6.2238 6.0644 5.6148 122.7154 7.7796 -0.0037 0.1917 3.8053 2.5583 -467.7589 0.1684
6980.0 6.0976 6.0423 5.6962 102.9001 7.8018 -0.0012 0.1805 3.8722 2.5795 -468.0859 0.1624
6980.5 6.0969 5.8376 5.5884 90.7552 7.8018 -0.0005 0.1767 3.9315 2.5882 -468.0893 0.1648
6981.0 5.9451 5.6881 5.4458 89.7644 7.8018 -0.0040 0.1619 3.9567 2.5918 -467.7734 0.1638
6981.5 5.7564 5.4971 5.2806 87.3863 7.8018 -0.0066 0.1606 3.9374 2.5995 -467.9609 0.1506
6982.0 5.4800 5.3186 5.1143 89.5659 7.7796 -0.0070 0.1611 3.8729 2.6040 -467.8839 0.1499
6982.5 5.1758 5.0183 4.8478 90.6987 7.7796 -0.0042 0.1798 3.7379 2.6137 -468.0234 0.1549
6983.0 4.7833 4.6245 4.4511 100.6063 7.8018 -0.0044 0.1922 3.6884 2.6008 -468.2232 0.1681
6983.5 4.8683 4.6244 4.4585 102.1921 7.8130 -0.0032 0.2008 3.6827 2.5888 -468.1328 0.1797
6984.0 4.9678 4.7512 4.5419 100.0688 7.8018 -0.0047 0.2040 3.7486 2.5660 -468.0625 0.1904
6984.5 4.9829 4.7689 4.5729 96.6155 7.8018 -0.0030 0.2078 3.7434 2.5651 -467.9107 0.1871
6985.0 4.9991 4.7475 4.5414 94.6338 7.8241 -0.0025 0.2059 3.7144 2.5697 -467.8571 0.1873
6985.5 4.9695 4.7088 4.4983 94.0394 7.8018 -0.0032 0.2026 3.6936 2.5767 -467.6172 0.1822
6986.0 4.8401 4.6502 4.4426 99.0785 7.8018 -0.0016 0.1952 3.7088 2.5752 -467.3281 0.1781
6986.5 4.6982 4.5253 4.3140 101.7392 7.8018 0.0003 0.1973 3.7246 2.5751 -467.3839 0.1783
6987.0 4.7375 4.5419 4.3283 105.9008 7.7796 -0.0005 0.1947 3.7322 2.5815 -467.4688 0.1795
6987.5 4.9040 4.6600 4.4217 101.5412 7.8018 -0.0042 0.1909 3.7262 2.5948 -467.5357 0.1735
6988.0 5.0301 4.7990 4.5337 102.8434 7.7796 -0.0093 0.1840 3.7812 2.5974 -467.8359 0.1688
6988.5 5.1520 4.8407 4.5739 100.4931 7.8018 -0.0080 0.1829 3.8178 2.6062 -467.7054 0.1624
