~VERSION INFORMATION
VERS.           1.2   :CWLS Log ASCII Standard - VERSION 1.2
WRAP.           NO    :One Line per depth step
PROD.  Schlumberger   :LAS Producer
PROG.  DLIS to ASCII 17C0-152                          :LAS Program name and version
CREA.        2013/10/21 20:50                          :LAS Creation date {YYYY/MM/DD hh:mm}
DLIS_CREA.  2013-Oct-21 08:39                          :DLIS Creation date and time {YYYY-MMM-DD hh:mm}
SOURCE.     9ec8b34d-aca5-43ef-91a8-8c41069c79cd       :DLIS File Name
#--------------------------------------------------
~WELL INFORMATION
#MNEM.UNIT      DATA             DESCRIPTION
#---- ------ --------------   -----------------------------
STRT .F      901.5000        :START DEPTH        # original; data subset to 5500-8000
STOP .F      7746.5000       :STOP DEPTH        # original; data subset to 5500-8000
STEP .F       0.5000         :STEP       
NULL .          -999.25      :NULL VALUE
COMP .                 COMPANY:  Bear Oil and Gas, Inc.             
WELL .                    WELL:  McGahan Farms 32 31                
FLD  .                   FIELD:  Wildcat                            
LOC  .                LOCATION:  SHL: SWNE 2563' FNL & 1423' FEL    
CNTY .                  COUNTY:  Laramie                            
STAT .                   STATE:  Wyoming                            
CTRY .                 COUNTRY:  United States                      
SRVC .         SERVICE COMPANY:  Schlumberger                       
LATI .DEG             LATITUDE:  41.309490 degrees                  
LONG .DEG            LONGITUDE:  -104.12429 degrees                 
API  .              API NUMBER:  49-021-21045                       
DATE .                LOG DATE:  21-Oct-2013
UWI  .          UNIQUE WELL ID:  49021210450000                     
#-----------------------------------------------------------------------------
~PARAMETER INFORMATION
#MNEM.UNIT    VALUE                      DESCRIPTION
#---- -----   --------------------       ------------------------
CN   .        Bear Oil and Gas  Inc.     :Company Name
WN   .        McGahan Farms 32 31        :Well Name
FN   .        Wildcat                    :Field Name
FL   .        SHL  SWNE 2563' FNL & 1423' FEL :Field Location
FL1  .        Section 31  Township 16N  Range 60W :Field Location, Line 1
COUN .        Laramie                    :County or Parish
STAT .        Wyoming                    :State or Province
NATI .        United States              :Nation
DATE .        21-Oct-2013                :Tools Above Rotary Table Date
APIN .        49-021-21045               :API Well Number
SECT .        31                         :Section
TOWN .        16N                        :Township
RANG .        60W                        :Range
DMF  .        KB                         :Drilling Measured From (Name of Drilling Elevation Reference)
LMF  .        KB                         :Logging Measured From (Name of Logging Elevation Reference)
PDAT .        GL                         :Permanent Datum
ENGI .        Max Pace                   :Engineer s Name
WITN .        Terry                      :Witness s Name
LATI .        41.309490 degrees          :Latitude
LONG .        -104.12429 degrees         :Longitude
LUL  .        Fort Morgan  CO            :Logging Unit Location
LUN  .        3022                       :Logging Unit Number
RUN  .        Run 1                      :Run Number
SON  .        CA0R-00056                 :Service Order Number
BHT  .DEGF     166.00000                 :Bottom Hole Temperature
BS   .IN         7.87500                 :Bit Size
MDEN .G/C3       2.65000                 :Matrix Density for Density Porosity
DFD  .LB/G       9.10000                 :Drilling Fluid Density
DFV  .S         63.00000                 :Drilling Fluid Viscosity
DFL  .C3         8.80000                 :Drilling Fluid Loss
RMFS .OHMM       1.24500                 :Resistivity of Mud Filtrate Sample
EKB  .F       5307.00000                 :Elevation of Kelly Bushing
EGL  .F       5295.00000                 :Elevation of Ground Level
BLI  .F       7730.00000                 :Bottom Log Interval
BSAL .PPM        0.00000                 :Borehole Salinity
FLEV .F          8.00000                 :Depth of Drilling Fluid Level to LMF (Log Measured From)
MCST .DEGF      61.00000                 :Mudcake Sample Temperature
MFST .DEGF      61.00000                 :Mud Filtrate Sample Temperature
MRT  .DEGF     166.00000                 :Maximum Recorded Temperature
MST  .DEGF      61.00000                 :Mud Sample Temperature
RMCS .OHMM       2.07500                 :Resistivity of Mud Cake Sample
RMS  .OHMM       1.66000                 :Resistivity of Mud Sample
RW   .OHMM       1.00000                 :Connate Water Resistivity
TDD  .F       7719.99951                 :Driller Total Depth
TDL  .F       7730.00000                 :Logger Total Depth
TLI  .F       1023.75000                 :Top Log Interval
HIDE .        Wildcat                    :Header Identifier
MATR .        SAND                       :Rock Matrix for Neutron Porosity Corrections
FNUM .           1.00000                 :F-Numerator for Formation Factor Formula
FEXP .           2.00000                 :Exponent "m" for Formation Factor Formula
DFT  .        Fresh Water                :Drilling Fluid Type
DFPH .           7.50000                 :Drilling Fluid pH
MCSS .        Calculated                 :Mudcake Sample Source
MFSS .        Calculated                 :Mud Filtrate Sample Source
FD   .G/C3       1.00000                 :Fluid Density
MSS  .        Active Tank                :Mud Sample Source
OS1  .                                   :Other Services Line 1
OS2  .                                   :Other Services Line 2
OS3  .                                   :Other Services Line 3
OS4  .                                   :Other Services Line 4
OS5  .                                   :Other Services Line 5
R1   .        Tool string run as per tool sketch :Remarks Line 1
R2   .        All Schlumberger depth control procedures followed :Remarks Line 2
R3   .        IDW used as primary depth reference :Remarks Line 3
R4   .        Z Chart used as secondary depth reference :Remarks Line 4
R5   .        Matrix Density zoned as per client request :Remarks Line 5
R6   .        Crew  Max Pace  Tyler Riter  Cody Bruns :Remarks Line 6
R7   .                                   :Remarks Line 7
R8   .                                   :Remarks Line 8
TCS  .        19 00 00                   :Time Circulation Stopped
TLAB .        06 35 50                   :Time Logger At Bottom
NMT  .        NOBARITE                   :HRDD Mud Type for Nuclear Devices
EPD  .C3         5295.000000             :Elevation of Permanent Datum above Mean Sea Level
APD  .F          12.000000               :Elevation of Depth Reference (LMF) above Permanent Datum
#-----------------------------------------------------------------------------
~CURVE INFORMATION
#MNEM.UNIT   API CODE                                  DESCRIPTION
#---- -----  --------                                  -----------------------
DEPT .F                                                :DEPTH (BOREHOLE) {F12.4}
AT10 .OHMM                                             :Array Induction Two Foot Resistivity A10 {F11.4}
AT30 .OHMM                                             :Array Induction Two Foot Resistivity A30 {F11.4}
AT90 .OHMM                                             :Array Induction Two Foot Resistivity A90 {F11.4}
DT   .US/F                                             :Delta-T (also called Slowness or Interval Transit Time) {F11.4}
GR   .GAPI                                             :Gamma Ray {F11.4}
HCAL .IN                                               :HRCC Caliper Calibrated {F11.4}
HDRA .G/C3                                             :Density Standoff Correction {F11.4}
NPHI .CFCF                                             :Thermal Neutron Porosity (original Ratio Method) in Selected Lithology {F11.4}
PEFZ .                                                 :Standard Resolution Formation Photoelectric Factor {F11.4}
RHOZ .G/C3                                             :Standard Resolution Formation Density {F11.4}
SP   .MV                                               :Spontaneous Potential {F11.4}
TNPH .CFCF                                             :Thermal Neutron Porosity (Ratio Method) in Selected Lithology {F11.4}
#-----------------------------------------------------------------------------
# 
#      DEPT        AF10       AF20       AF30       AF60       AF90       AO10       AO20       AO30       AO60       AO90       AT10       AT20       AT30       AT60       AT90     AHFCO60      AHMF      AHORT      AHORX      AHSCA     AHTCO10    AHTCO20    AHTCO30    AHTCO60    AHTCO90     AHTD1      AHTD2      AHTRT      AHTRX       CDF        CFTC       CNTC       CTEM       DCAL       DNPH       DPHZ       DSOZ        DT        ECGR        ED        GDEV        GR        GTEM       HCAL       HDRA       HDRB       HGR        HMIN       HMNO       HNPO       HPRA       HTNP       ITT         ND        NPHI       NPOR       PEFZ    PXND_HILT     RHOZ       RSOZ     RWA_HILT     RXO8       RXOZ        SP        SPAR       SPHI       STIT       TENS       TNPH     HTNP_SAN
#
~A  DEPT AT10 AT30 AT90 DT GR HCAL HDRA NPHI PEFZ RHOZ SP TNPH
# ...
6229.0000 3.1520 3.0058 2.8737 86.4927 115.9132 7.8021 0.0069 0.2690 3.0392 2.5462 193.1518 0.2677
6229.5000 3.2371 3.0793 2.9690 86.5173 112.4870 7.7646 0.0029 0.2618 3.0144 2.5390 193.0000 0.2585
6230.0000 3.1540 3.0092 2.9019 85.9044 112.2729 7.8021 -0.0014 0.2564 3.0165 2.5195 192.8750 0.2595
6230.5000 3.1182 2.9743 2.8719 86.9935 109.2745 7.8271 -0.0010 0.2764 2.9912 2.5092 192.9286 0.2555
6231.0000 3.1130 2.9507 2.8451 87.2250 113.1901 7.8021 0.0011 0.2883 2.9864 2.4969 193.1953 0.2679
6231.5000 3.0595 2.9070 2.8038 87.2356 112.1194 7.7771 0.0131 0.2929 3.0186 2.5111 193.1406 0.2740
6232.0000 3.0107 2.8508 2.7520 87.7075 114.2606 7.8271 0.0219 0.2910 3.0954 2.5188 193.0179 0.2817
6232.5000 3.0817 2.8840 2.7774 87.2389 116.7082 7.8146 0.0270 0.2823 3.1347 2.5252 193.1016 0.2803
6233.0000 3.1002 2.9310 2.8142 87.2461 114.3527 7.8520 0.0300 0.2836 3.1266 2.5324 193.0391 0.2689
6233.5000 3.0825 2.9023 2.7782 86.9078 112.5483 7.8021 0.0382 0.2627 3.1349 2.5444 193.0938 0.2728
6234.0000 3.0680 2.8891 2.7664 86.9342 110.8350 7.8271 0.0497 0.2709 3.1575 2.5583 193.1607 0.2508
6234.5000 3.0442 2.8770 2.7439 87.7341 113.1908 7.8021 0.0499 0.2823 3.1546 2.5665 193.1563 0.2602
6235.0000 3.0505 2.8784 2.7349 87.4125 113.6796 7.7896 0.0453 0.2907 3.1586 2.5730 193.1641 0.2673
6235.5000 3.2579 2.9989 2.8285 84.8258 107.4694 7.8021 0.0295 0.2677 3.1531 2.5683 192.9821 0.2657
6236.0000 3.4715 3.2755 3.0519 84.0292 98.7812 7.8021 0.0282 0.2420 3.1748 2.5785 192.9141 0.2450
6236.5000 3.4185 3.2349 3.0462 83.8510 95.3858 7.8271 0.0187 0.2558 3.1129 2.5618 193.1875 0.2358
6237.0000 3.2291 3.0271 2.8783 83.9229 96.2424 7.8271 0.0160 0.2782 3.0505 2.5545 193.3828 0.2512
6237.5000 3.1869 3.0094 2.8469 86.1218 107.0721 7.8271 0.0083 0.2986 3.0189 2.5447 193.3438 0.2720
6238.0000 3.2003 3.0340 2.8745 86.2459 103.3705 7.8520 0.0056 0.3056 3.0372 2.5452 193.3482 0.2916
6238.5000 3.1823 3.0228 2.8780 85.5546 105.2980 7.8770 0.0052 0.3017 3.0631 2.5419 193.2656 0.3015
6239.0000 3.1446 3.0001 2.8682 86.2064 103.5844 7.8645 -0.0003 0.3016 3.0384 2.5147 193.3125 0.2961
6239.5000 3.1092 2.9729 2.8509 85.9059 109.4582 7.8770 0.0019 0.2973 3.0255 2.5146 193.3828 0.2863
6240.0000 3.1232 2.9924 2.8747 86.6491 103.8902 7.8520 0.0039 0.3014 3.0068 2.5181 193.3750 0.2845
6240.5000 3.1190 3.0042 2.8959 86.4471 108.7235 7.8396 0.0126 0.2978 3.0321 2.5430 193.2734 0.2951
6241.0000 3.0949 2.9697 2.8676 86.0508 101.1982 7.8520 0.0118 0.2918 3.0542 2.5431 193.2734 0.2890
6241.5000 3.1028 2.9825 2.8918 86.8080 103.5535 7.8520 0.0135 0.2985 3.0804 2.5489 193.0625 0.2820
6242.0000 3.1497 3.0391 2.9487 86.3443 100.3720 7.8021 0.0072 0.2971 3.0324 2.5306 193.1328 0.2830
6242.5000 3.2148 3.0985 3.0126 85.9628 108.0810 7.8021 0.0109 0.2860 3.0063 2.5345 193.2143 0.2860
6243.0000 3.2633 3.1121 3.0292 85.7238 106.7965 7.8146 0.0122 0.2650 2.9965 2.5340 193.2422 0.2845
6243.5000 3.1997 3.0973 3.0167 85.6458 107.7758 7.8021 0.0184 0.2692 3.0227 2.5375 193.3203 0.2709
6244.0000 3.1571 3.0290 2.9597 86.2306 102.4219 7.8520 0.0183 0.2865 3.0098 2.5368 193.2143 0.2669
6244.5000 3.1300 2.9924 2.9188 86.0000 107.4085 7.8271 0.0128 0.2898 2.9499 2.5404 193.2813 0.2722
6245.0000 3.1412 3.0352 2.9428 86.2423 105.2060 7.8021 0.0068 0.2806 2.8736 2.5441 193.4219 0.2778
6245.5000 3.1085 3.0081 2.9180 87.0068 102.8505 7.7771 0.0008 0.2865 2.8256 2.5318 193.4732 0.2677
6246.0000 3.0885 2.9705 2.8700 85.6820 98.9347 7.8271 0.0049 0.2911 2.8565 2.5253 193.4375 0.2739
6246.5000 3.0877 2.9770 2.8638 86.5213 99.3626 7.8271 0.0139 0.3000 2.9467 2.5347 193.3438 0.2733
6247.0000 3.0733 2.9513 2.8423 86.6227 110.2839 7.8021 0.0251 0.2886 3.0334 2.5423 193.4821 0.2864
6247.5000 2.9973 2.8956 2.7808 86.8758 115.4236 7.8271 0.0412 0.2978 3.1210 2.5434 193.7656 0.2864
6248.0000 2.9243 2.8056 2.7063 87.3567 112.8542 7.8271 0.0498 0.2997 3.1726 2.5338 193.7109 0.2997
6248.5000 2.8835 2.7687 2.6868 87.4578 107.7144 7.8271 0.0580 0.2928 3.2231 2.5388 193.6172 0.2984
6249.0000 2.9330 2.7998 2.7104 87.6811 100.3724 7.8021 0.0576 0.2672 3.2345 2.5511 193.5714 0.2857
6249.5000 2.9454 2.8183 2.7203 87.5807 100.8007 7.8021 0.0538 0.2595 3.2319 2.5600 193.4688 0.2615
6250.0000 2.9626 2.8319 2.7380 86.8183 110.8654 7.8396 0.0469 0.2509 3.2073 2.5484 193.3839 0.2532
6250.5000 2.9839 2.8568 2.7620 86.7772 118.2074 7.7771 0.0417 0.2728 3.1801 2.5338 193.3828 0.2450
6251.0000 2.9557 2.8287 2.7248 87.0405 119.7064 7.7771 0.0437 0.2781 3.1662 2.5314 193.5547 0.2615
6251.5000 2.9417 2.8105 2.6988 86.8109 109.4278 7.8021 0.0427 0.2930 3.1549 2.5322 193.5313 0.2660
6252.0000 2.9514 2.8317 2.7284 87.6884 104.0432 7.8271 0.0360 0.3133 3.1357 2.5333 193.3393 0.2811
6252.5000 2.9476 2.8224 2.7232 87.0680 101.9019 7.8520 0.0305 0.3119 3.1073 2.5387 193.5781 0.2976
6253.0000 2.9307 2.7855 2.6822 87.1934 101.4125 7.8396 0.0244 0.3112 3.0685 2.5316 193.8984 0.3008
6253.5000 2.8226 2.7200 2.6232 87.7897 102.7281 7.8271 0.0327 0.2971 3.0713 2.5275 193.9643 0.3086
6254.0000 2.6932 2.5811 2.4846 88.3617 108.9382 7.8146 0.0356 0.3144 3.0845 2.5124 193.9922 0.2970
6254.5000 2.5825 2.4599 2.3754 88.6330 113.5879 7.8271 0.0511 0.3254 3.1452 2.5291 193.8672 0.3109
6255.0000 2.6289 2.4903 2.4014 89.0940 112.7312 7.7771 0.0582 0.3321 3.2054 2.5452 193.7768 0.3113
6255.5000 2.6226 2.5164 2.4202 89.2635 106.3073 7.7521 0.0687 0.3164 3.2722 2.5614 194.1094 0.3203
6256.0000 2.6239 2.4874 2.3987 88.7657 105.5731 7.7896 0.0729 0.3243 3.2967 2.5574 194.0625 0.3067
6256.5000 2.6923 2.5407 2.4327 88.9852 107.2861 7.8271 0.0799 0.3251 3.2842 2.5527 193.7232 0.3116
6257.0000 2.7347 2.6024 2.4889 89.1546 102.3605 7.7896 0.0717 0.3348 3.2167 2.5387 193.7344 0.3048
6257.5000 2.7506 2.6135 2.4877 88.2918 101.3818 7.7771 0.0598 0.3046 3.1611 2.5397 193.8214 0.3160
6258.0000 2.8080 2.6685 2.5412 87.9413 98.1694 7.9520 0.0522 0.2925 3.1592 2.5413 193.7969 0.2925
6258.5000 2.8655 2.7402 2.6082 87.9089 100.5255 7.8021 0.0620 0.2771 3.2318 2.5560 193.7266 0.2941
6259.0000 2.7979 2.7021 2.5770 87.8141 97.8639 7.8271 0.0719 0.2796 3.3034 2.5586 193.8214 0.2786
6259.5000 2.6658 2.5678 2.4631 88.4855 99.1491 7.7771 0.0708 0.2801 3.3088 2.5528 194.0000 0.2761
6260.0000 2.5541 2.4358 2.3448 89.3987 101.3512 7.7771 0.0706 0.2880 3.2760 2.5355 193.9609 0.2718
6260.5000 2.5204 2.3791 2.2861 90.2329 101.3516 7.8021 0.0724 0.2998 3.2565 2.5178 193.8482 0.2757
6261.0000 2.4530 2.3588 2.2703 90.3135 102.2075 7.8146 0.0826 0.2991 3.2802 2.5199 194.0547 0.2880
6261.5000 2.3940 2.3025 2.2100 90.9154 109.7948 7.9395 0.0907 0.3144 3.2995 2.5268 194.4063 0.2981
6262.0000 2.3539 2.2481 2.1634 91.7454 112.3642 7.9020 0.1061 0.3234 3.3159 2.5323 194.4643 0.3092
6262.5000 2.3300 2.2129 2.1399 91.8515 114.0781 7.8021 0.1176 0.3321 3.3216 2.5214 194.3516 0.3175
6263.0000 2.4061 2.2496 2.1621 91.3259 104.7774 7.7771 0.1254 0.3348 3.3695 2.5210 194.1484 0.3231
6263.5000 2.4475 2.3166 2.2126 90.7565 104.9920 7.9770 0.1342 0.3253 3.4482 2.5400 194.0536 0.3228
6264.0000 2.4652 2.3344 2.2401 90.2404 102.4218 7.8396 0.1382 0.3322 3.4914 2.5669 194.3047 0.3153
6264.5000 2.4602 2.3263 2.2388 89.3294 107.0719 8.1019 0.1204 0.3190 3.4210 2.5684 194.3984 0.3061
6265.0000 2.5848 2.4489 2.3679 89.0482 103.4310 8.0270 0.0883 0.3110 3.2866 2.5567 194.2143 0.3002
6265.5000 2.7287 2.5886 2.4901 89.1530 104.5023 7.8895 0.0588 0.2881 3.1838 2.5403 194.2109 0.3019
6266.0000 2.7281 2.5884 2.4715 87.7986 106.2156 7.8021 0.0544 0.2792 3.1957 2.5531 194.2969 0.2828
6266.5000 2.7568 2.6110 2.5162 87.5495 106.8580 7.8770 0.0535 0.2769 3.2282 2.5491 194.2589 0.2756
6267.0000 2.8486 2.7195 2.6145 87.8377 107.0110 7.9520 0.0657 0.2848 3.2855 2.5485 194.1484 0.2662
6267.5000 2.8429 2.6834 2.5852 86.8753 107.8674 7.7771 0.0749 0.2870 3.3085 2.5373 194.1518 0.2778
6268.0000 2.7399 2.6395 2.5462 87.8865 112.5787 7.7771 0.0954 0.2854 3.3608 2.5474 194.1016 0.2816
6268.5000 2.6843 2.5913 2.5061 88.5040 107.6841 8.0270 0.1041 0.2879 3.3887 2.5589 194.1797 0.2799
6269.0000 2.6396 2.5467 2.4597 88.6594 104.6861 7.7771 0.0995 0.2962 3.3551 2.5567 194.3482 0.2884
