~VERSION INFORMATION
VERS.           2.0   :CWLS Log ASCII Standard - VERSION 2.0
WRAP.           NO    :One Line per depth step
PROD.  Schlumberger   :LAS Producer
PROG.  DLIS to ASCII 19C2-270                          :LAS Program name and version
CREA.        2013/08/28 17:00                          :LAS Creation date {YYYY/MM/DD hh:mm}
DLIS_CREA.  2013-Aug-28 16:23                          :DLIS Creation date and time {YYYY-MMM-DD hh:mm}
SOURCE.     Bear_Oil_Marquardt_43_31_Main_DLIS.dlis    :DLIS File Name
FILE-ID.     MaxWell_5Dlis                             :File Identification Number
#--------------------------------------------------
~WELL INFORMATION
#MNEM.UNIT      DATA             DESCRIPTION
#---- ------ --------------   -----------------------------
STRT .F      1000.5          :START DEPTH        # original; data subset to 5500-8000
STOP .F      7710.0          :STOP DEPTH        # original; data subset to 5500-8000
STEP .F       0.5            :STEP     
NULL .          -999.25      :NULL VALUE
COMP .        Bear Oil and Gas, Inc.                   :COMPANY
WELL .        Marquardt 43 31                          :WELL
FLD  .        Wildcat                                  :FIELD
LOC  .        NESE 1627' FSL & 170' FEL                :LOCATION
CNTY .        Laramie                                  :COUNTY
STAT .        Wyoming                                  :STATE
CTRY .        United States                            :COUNTRY
API  .        049-021-21034                            :API NUMBER
UWI  .        049021210340000                          :UNIQUE WELL ID
DATE .        28-Aug-2013                              :LOG DATE {DD-MMM-YYYY}
SRVC .        Schlumberger                             :SERVICE COMPANY
LATI .DEG     41.306700 degrees                        :LATITUDE
LONG .DEG     -104.11980 degrees                       :LONGITUDE
GDAT .                                                 :GeoDetic Datum
SECT .        31                                       :Section
RANG .        60W                                      :Range
TOWN .        16N                                      :Township
#-----------------------------------------------------------------------------
~PARAMETER INFORMATION
#MNEM.UNIT    VALUE                      DESCRIPTION
#---- -----   --------------------       ------------------------
CN   .        Bear Oil and Gas  Inc.     :Company Name
WN   .        Marquardt 43 31            :Well Name
FN   .        Wildcat                    :Field Name
FL   .        NESE 1627' FSL & 170' FEL  :Field Location
FL1  .        Sec. 31  T. 16N  R. 60W    :Field Location, Line 1
COUN .        Laramie                    :County or Parish
STAT .        Wyoming                    :State or Province
NATI .        United States              :Nation
DATE .        28-Aug-2013                :Tools Above Rotary Table Date
APIN .        049-021-21034              :API Well Number
SECT .        31                         :Section
TOWN .        16N                        :Township
RANG .        60W                        :Range
DMF  .        KB                         :Drilling Measured From (Name of Drilling Elevation Reference)
LMF  .        KB                         :Logging Measured From (Name of Logging Elevation Reference)
PDAT .        GL                         :Permanent Datum
ENGI .        Max Pace                   :Engineer s Name
WITN .        Terry Eittreim             :Witness s Name
LATI .        41.306700 degrees          :Latitude
LONG .        -104.11980 degrees         :Longitude
LUL  .        Fort Morgan  CO            :Logging Unit Location
LUN  .        3022                       :Logging Unit Number
RUN  .        Run 1                      :Run Number
SON  .        CA0R-00043                 :Service Order Number
BHT  .DEGF     166.00000                 :Bottom Hole Temperature
BS   .IN         7.87500                 :Bit Size
MDEN .G/C3       2.65000                 :Matrix Density for Density Porosity
DFD  .LB/G       8.90000                 :Drilling Fluid Density
DFV  .S         65.00000                 :Drilling Fluid Viscosity
DFL  .C3         9.00000                 :Drilling Fluid Loss
RMFS .OHMM       1.11000                 :Resistivity of Mud Filtrate Sample
EKB  .F       5298.00000                 :Elevation of Kelly Bushing
EGL  .F       5286.00000                 :Elevation of Ground Level
BLI  .F       7686.00000                 :Bottom Log Interval
BSAL .PPM     3335.81519                 :Borehole Salinity
FLEV .F          8.00000                 :Depth of Drilling Fluid Level to LMF (Log Measured From)
MCST .DEGF      83.00000                 :Mudcake Sample Temperature
MFST .DEGF      83.00000                 :Mud Filtrate Sample Temperature
MRT  .DEGF     166.00000                 :Maximum Recorded Temperature
MST  .DEGF      83.00000                 :Mud Sample Temperature
RMCS .OHMM       1.85000                 :Resistivity of Mud Cake Sample
RMS  .OHMM       1.48000                 :Resistivity of Mud Sample
RW   .OHMM       1.00000                 :Connate Water Resistivity
TDD  .F       7680.00000                 :Driller Total Depth
TDL  .F       7686.00000                 :Logger Total Depth
TLI  .F       1025.00000                 :Top Log Interval
HIDE .        Wildcat                    :Header Identifier
MATR .        SAND                       :Rock Matrix for Neutron Porosity Corrections
FNUM .           1.00000                 :F-Numerator for Formation Factor Formula
FEXP .           2.00000                 :Exponent "m" for Formation Factor Formula
DFT  .        WATER                      :Drilling Fluid Type
DFPH .           8.00000                 :Drilling Fluid pH
MCSS .        Calculated                 :Mudcake Sample Source
MFSS .        Calculated                 :Mud Filtrate Sample Source
FD   .G/C3       1.00000                 :Fluid Density
MSS  .        Active Tank                :Mud Sample Source
OS1  .                                   :Other Services Line 1
OS2  .                                   :Other Services Line 2
OS3  .                                   :Other Services Line 3
OS4  .                                   :Other Services Line 4
OS5  .                                   :Other Services Line 5
R1   .                                   :Remarks Line 1
R2   .                                   :Remarks Line 2
R3   .                                   :Remarks Line 3
R4   .                                   :Remarks Line 4
R5   .                                   :Remarks Line 5
R6   .                                   :Remarks Line 6
R7   .                                   :Remarks Line 7
R8   .                                   :Remarks Line 8
TCS  .        05 00 00                   :Time Circulation Stopped
TLAB .        14 30 25                   :Time Logger At Bottom
NMT  .        NOBARITE                   :HRDD Mud Type for Nuclear Devices
EPD  .F         5286.000000              :Elevation of Permanent Datum above Mean Sea Level
APD  .F          12.000000               :Elevation of Depth Reference (LMF) above Permanent Datum
#-----------------------------------------------------------------------------
~CURVE INFORMATION
#MNEM.UNIT   API CODE                                  DESCRIPTION
#---- -----  --------                                  -----------------------
DEPT .F                                                :DEPTH (BOREHOLE) {F10.1}
AT10 .OHMM                                             :Array Induction Two Foot Resistivity A10 {F11.4}
AT30 .OHMM                                             :Array Induction Two Foot Resistivity A30 {F11.4}
AT90 .OHMM                                             :Array Induction Two Foot Resistivity A90 {F11.4}
GR   .GAPI                                             :Gamma Ray {F11.4}
HCAL .IN                                               :HRCC Caliper Calibrated {F11.4}
HDRA .G/C3                                             :Density Standoff Correction {F11.4}
NPHI .CFCF                                             :Thermal Neutron Porosity (original Ratio Method) in Selected Lithology {F11.4}
PEFZ .                                                 :Standard Resolution Formation Photoelectric Factor {F11.4}
RHOZ .G/C3                                             :Standard Resolution Formation Density {F11.4}
SP   .MV                                               :Spontaneous Potential {F11.4}
TNPH .CFCF                                             :Thermal Neutron Porosity (Ratio Method) in Selected Lithology {F11.4}
#-----------------------------------------------------------------------------
# 
#     DEPT       AF10       AF20       AF30       AF60       AF90       AO10       AO20       AO30       AO60       AO90       AT10       AT20       AT30       AT60       AT90     AHFCO60      AHMF      AHORT      AHORX      AHSCA     AHTCO10    AHTCO20    AHTCO30    AHTCO60    AHTCO90     AHTD1      AHTD2      AHTRT      AHTRX       CDF        CFTC       CNTC       CTEM       DCAL       DNPH       DPHZ       DSOZ       ECGR        ED        GDEV        GR        GTEM       HCAL       HDRA       HDRB       HGR        HMIN       HMNO       HNPO       HPRA       HTNP        ND        NPHI       NPOR       PEFZ    PXND_HILT     RHOZ       RSOZ     RWA_HILT     RXO8       RXOZ        SP        SPAR       STIT       TENS       TNPH     HTNP_SAN
#
~A  DEPT AT10 AT30 AT90 GR HCAL HDRA NPHI PEFZ RHOZ SP TNPH
# ...
7092.0 3.8808 3.7988 3.6332 137.4558 8.0000 0.0005 0.2753 3.4704 2.5399 -68.6071 0.2617
7092.5 3.8803 3.7880 3.6237 133.8248 8.0000 -0.0011 0.2723 3.5157 2.5326 -68.7054 0.2670
7093.0 3.9175 3.8182 3.6453 126.8227 8.0000 -0.0047 0.2662 3.5840 2.5190 -68.8036 0.2640
7093.5 3.9691 3.8661 3.6952 128.6382 7.9772 -0.0050 0.2687 3.6099 2.5193 -68.9554 0.2483
7094.0 3.9588 3.8598 3.6931 129.4164 8.0000 -0.0046 0.2700 3.6112 2.5240 -69.0313 0.2454
7094.5 3.9422 3.8304 3.6618 135.1215 8.0000 -0.0007 0.2662 3.6323 2.5266 -69.0893 0.2530
7095.0 4.0484 3.9506 3.7640 133.3062 8.0000 0.0033 0.2584 3.7271 2.5203 -69.1875 0.2433
7095.5 4.1521 4.0672 3.8557 128.1196 8.0000 0.0012 0.2397 3.8292 2.5168 -69.2411 0.2329
7096.0 4.2245 4.1325 3.9285 126.8228 8.0000 -0.0027 0.2400 3.8633 2.5190 -69.1953 0.2137
7096.5 4.1306 4.0718 3.8733 124.7802 8.0000 -0.0092 0.2415 3.8599 2.5161 -69.2321 0.2283
7097.0 4.0918 4.0233 3.8371 128.4106 8.0000 -0.0083 0.2685 3.8127 2.5150 -69.2143 0.2351
7097.5 4.0241 3.9760 3.7910 125.5583 8.0000 -0.0073 0.2652 3.7661 2.5190 -69.2857 0.2555
7098.0 4.1297 4.0793 3.8937 124.4887 8.0000 -0.0062 0.2601 3.7371 2.5281 -69.3047 0.2393
7098.5 4.3867 4.3424 4.1308 122.4143 8.0000 -0.0041 0.2500 3.7059 2.5438 -69.3036 0.2354
7099.0 4.6425 4.5875 4.3613 120.8578 8.0000 -0.0021 0.2601 3.6862 2.5575 -69.1786 0.2352
7099.5 4.9474 4.9141 4.6711 123.1917 8.0000 -0.0019 0.2562 3.6877 2.5621 -69.0078 0.2410
7100.0 4.9679 4.9776 4.7549 122.1539 7.9886 -0.0027 0.2434 3.6917 2.5613 -68.8571 0.2258
7100.5 4.9443 4.9401 4.7382 125.9472 8.0000 -0.0034 0.2407 3.7058 2.5600 -68.8125 0.2191
7101.0 5.0183 5.0442 4.8221 124.3914 8.0228 -0.0022 0.2365 3.7214 2.5662 -68.7321 0.2254
7101.5 5.0228 5.0569 4.8966 127.7631 8.0000 -0.0014 0.2346 3.7677 2.5752 -68.5547 0.2254
7102.0 4.9015 4.9809 4.7917 127.8598 8.0228 0.0011 0.2430 3.8017 2.5835 -68.4107 0.2234
7102.5 5.0113 5.0709 4.8962 124.7475 8.0114 0.0032 0.2498 3.8033 2.5917 -68.3036 0.2312
7103.0 5.2572 5.2104 5.0536 120.5980 8.0000 0.0031 0.2439 3.7679 2.5946 -68.2589 0.2308
7103.5 5.1047 5.0917 4.9350 118.5236 8.0000 -0.0007 0.2291 3.7414 2.5804 -68.1518 0.2268
7104.0 4.7820 4.7641 4.6204 136.9371 8.0000 -0.0040 0.2338 3.6670 2.5642 -68.0781 0.2306
7104.5 4.4519 4.5116 4.3467 145.2370 8.0000 -0.0041 0.2654 3.5651 2.5495 -68.0268 0.2442
7105.0 4.4135 4.3469 4.2106 155.6107 8.0000 -0.0021 0.2847 3.4576 2.5502 -68.1161 0.2575
7105.5 4.3126 4.2478 4.1038 147.0522 8.0000 -0.0023 0.2708 3.4788 2.5332 -68.2589 0.2688
7106.0 4.2527 4.2000 4.0583 140.8276 8.0228 0.0031 0.2456 3.5167 2.5130 -68.6953 0.2583
7106.5 3.6810 3.8147 3.6595 140.3090 8.0228 0.0200 0.2559 3.5286 2.5059 -69.0625 0.2514
7107.0 3.2804 3.2222 3.1062 146.3390 8.0000 0.0347 0.3131 3.4192 2.5120 -69.1161 0.2643
7107.5 3.2380 3.1262 3.0250 152.3035 8.0000 0.0361 0.3422 3.3669 2.5269 -69.0000 0.2934
7108.0 3.8793 3.5588 3.4251 144.7822 8.0228 0.0212 0.3206 3.4208 2.5370 -68.6016 0.2876
7108.5 4.4187 4.2976 3.9877 130.9725 7.9544 0.0098 0.2596 3.5943 2.5586 -68.2857 0.2635
7109.0 4.9909 4.7676 4.4821 122.9325 7.9544 0.0056 0.2356 3.7562 2.5770 -68.2589 0.2222
7109.5 4.8278 4.5688 4.3444 125.5263 7.9315 0.0033 0.2299 3.7971 2.5750 -68.2232 0.2216
7110.0 4.4600 4.3753 4.1741 131.2317 7.9544 0.0023 0.2494 3.7172 2.5678 -68.2031 0.2293
7110.5 4.1609 4.0648 3.9019 139.7904 7.9544 -0.0021 0.2521 3.6816 2.5410 -68.2411 0.2522
7111.0 4.0924 3.9641 3.8017 140.8280 7.9544 -0.0023 0.2671 3.6592 2.5328 -68.2768 0.2521
7111.5 4.0051 3.9006 3.7256 143.2593 7.9772 -0.0005 0.2579 3.6358 2.5311 -68.3203 0.2534
7112.0 3.7804 3.7878 3.6083 144.8154 7.9544 0.0032 0.2724 3.4920 2.5318 -68.5357 0.2413
7112.5 3.5308 3.5099 3.3520 148.7052 7.9544 0.0056 0.2748 3.3530 2.5251 -68.6518 0.2707
7113.0 3.4026 3.2986 3.1741 146.6625 7.9544 0.0036 0.2927 3.2818 2.5115 -68.6161 0.2716
7113.5 3.6689 3.4851 3.3136 134.7327 7.9772 -0.0004 0.2856 3.3440 2.5102 -68.3984 0.2708
7114.0 3.7933 3.7075 3.5038 131.8802 7.9772 -0.0030 0.2787 3.4230 2.5206 -68.0446 0.2590
7114.5 3.7822 3.7181 3.5476 125.7856 7.9315 -0.0052 0.2723 3.5142 2.5255 -67.8929 0.2582
7115.0 3.7719 3.6657 3.5288 134.8626 7.9315 -0.0057 0.2813 3.5567 2.5296 -67.9196 0.2522
7115.5 3.7464 3.6747 3.5361 133.2417 7.9315 -0.0087 0.2650 3.6268 2.5207 -68.0078 0.2648
7116.0 3.7936 3.6947 3.5638 138.1697 7.9087 -0.0092 0.2633 3.6416 2.5220 -68.0893 0.2497
7116.5 3.9335 3.7970 3.6539 134.7981 7.9087 -0.0053 0.2504 3.5965 2.5419 -68.1696 0.2405
7117.0 4.0322 3.9195 3.7687 132.7877 7.9315 -0.0011 0.2721 3.5241 2.5614 -68.3214 0.2309
7117.5 3.9492 3.8210 3.6858 128.1189 7.9087 0.0021 0.2639 3.4752 2.5744 -68.5703 0.2492
7118.0 3.8985 3.7564 3.6306 131.0368 7.8973 0.0006 0.2639 3.4630 2.5614 -68.5714 0.2457
7118.5 3.9035 3.7446 3.6138 129.7402 7.8859 0.0026 0.2491 3.4637 2.5531 -68.6875 0.2608
7119.0 3.6357 3.5980 3.4726 135.9651 7.8859 0.0115 0.2489 3.4802 2.5531 -68.8929 0.2487
7119.5 3.3597 3.2578 3.1605 134.6033 7.9087 0.0183 0.2429 3.4734 2.5555 -68.8839 0.2408
7120.0 3.1964 3.1190 2.9864 138.5907 7.8973 0.0258 0.2592 3.4488 2.5526 -68.8516 0.2356
7120.5 3.2371 3.1126 2.9841 135.4780 7.9087 0.0307 0.2817 3.4107 2.5435 -69.0357 0.2482
7121.0 3.2138 3.1152 2.9753 135.7376 7.8859 0.0251 0.2979 3.3456 2.5202 -69.0893 0.2718
7121.5 3.2567 3.1372 2.9902 135.3805 7.8859 0.0222 0.2877 3.3049 2.5248 -69.0357 0.2763
7122.0 3.3167 3.1831 3.0189 141.5088 7.9087 0.0076 0.2663 3.2433 2.5161 -68.8906 0.2627
7122.5 3.3833 3.2061 3.0517 139.4337 7.8859 0.0070 0.2763 3.2566 2.5251 -68.9375 0.2441
7123.0 3.3460 3.2128 3.0683 141.2497 7.8859 0.0068 0.2764 3.2943 2.5225 -69.1875 0.2605
7123.5 3.2988 3.1460 3.0149 138.2337 7.8859 0.0167 0.2866 3.3491 2.5356 -69.3929 0.2669
7124.0 3.2721 3.1341 2.9828 136.1918 7.8859 0.0218 0.2603 3.3674 2.5365 -69.4018 0.2749
7124.5 3.2620 3.1432 2.9919 135.4138 7.9201 0.0185 0.2673 3.3401 2.5360 -69.5446 0.2449
7125.0 3.2963 3.1353 3.0017 136.4513 7.9087 0.0133 0.2710 3.3022 2.5256 -69.5268 0.2457
7125.5 3.4332 3.2905 3.0971 136.1590 7.9315 0.0094 0.2888 3.2882 2.5163 -69.2578 0.2487
7126.0 3.4818 3.3290 3.1520 135.0241 7.9087 0.0208 0.2892 3.3100 2.5150 -69.4643 0.2676
7126.5 3.3761 3.2447 3.0909 129.8381 7.8973 0.0327 0.2856 3.3134 2.5266 -69.4554 0.2772
7127.0 3.3475 3.2079 3.0639 133.9877 7.9315 0.0447 0.2843 3.3034 2.5523 -69.5357 0.2789
7127.5 3.3287 3.2031 3.0591 137.9753 7.9087 0.0356 0.2919 3.2594 2.5541 -69.4688 0.2727
7128.0 3.3039 3.1815 3.0384 145.7547 7.9087 0.0267 0.2846 3.2717 2.5598 -69.6518 0.2815
7128.5 3.2926 3.1700 3.0282 148.9321 7.9315 0.0181 0.2684 3.3060 2.5579 -69.6071 0.2690
7129.0 3.3325 3.2258 3.0767 144.2640 7.9087 0.0170 0.2622 3.3716 2.5616 -69.5625 0.2613
7129.5 3.3689 3.2557 3.1188 143.2270 7.9315 0.0169 0.2815 3.4199 2.5461 -69.5313 0.2561
7130.0 3.4061 3.2408 3.1087 142.3841 7.9087 0.0169 0.3169 3.4259 2.5365 -69.4821 0.2670
7130.5 3.4684 3.2532 3.1147 150.5536 7.9201 0.0130 0.3051 3.3620 2.5287 -69.2768 0.2931
7131.0 3.4599 3.2927 3.1513 143.5505 7.9087 0.0044 0.2882 3.3085 2.5300 -69.2143 0.2788
7131.5 3.5410 3.3640 3.2139 139.9193 7.9315 -0.0007 0.2766 3.2897 2.5360 -68.9531 0.2615
7132.0 3.5355 3.4343 3.2848 132.0093 7.9315 -0.0038 0.2748 3.3535 2.5320 -68.8214 0.2555
7132.5 3.5758 3.4146 3.2684 131.2642 7.9315 -0.0034 0.2755 3.3829 2.5340 -69.0268 0.2598
7133.0 3.5618 3.3996 3.2563 122.4463 7.9087 -0.0031 0.2718 3.3964 2.5344 -69.0446 0.2564
7133.5 3.5320 3.3813 3.2362 119.5931 7.9087 -0.0005 0.2803 3.3552 2.5418 -69.0313 0.2548
7134.0 3.4858 3.3560 3.2150 118.0042 7.9315 0.0007 0.2865 3.3113 2.5404 -69.1875 0.2545
7134.5 3.4404 3.3189 3.1910 127.3415 7.9544 -0.0004 0.2716 3.2981 2.5286 -69.2946 0.2652
7135.0 3.3827 3.2673 3.1462 124.4886 7.9544 -0.0028 0.2768 3.3151 2.5179 -69.2813 0.2641
7135.5 3.3398 3.2261 3.0951 127.3420 7.9315 -0.0027 0.2643 3.3337 2.5171 -69.1786 0.2697
7136.0 3.3073 3.1950 3.0499 126.0770 7.9772 0.0047 0.2528 3.3505 2.5280 -69.3661 0.2530
7136.5 3.2312 3.1069 2.9866 129.7082 7.9544 0.0166 0.2541 3.3653 2.5421 -69.7679 0.2403
7137.0 3.1903 3.0502 2.9404 131.0044 7.9544 0.0236 0.2702 3.3911 2.5502 -69.8750 0.2490
