~VERSION INFORMATION
VERS.           2.0   :CWLS Log ASCII Standard - VERSION 2.0
WRAP.           NO    :One Line per depth step
PROD.  Schlumberger   :LAS Producer
PROG.  DLIS to ASCII 19C1-222                          :LAS Program name and version
CREA.        2013/09/09 02:34                          :LAS Creation date {YYYY/MM/DD hh:mm}
DLIS_CREA.  2013-Sep-09 02:29                          :DLIS Creation date and time {YYYY-MMM-DD hh:mm}
SOURCE.     049-021-21038_Marquardt 44-31_Run_PEX-AIT_Mainpass.dlis  :DLIS File Name
FILE-ID.     MaxWell_4Dlis                             :File Identification Number
#--------------------------------------------------
~WELL INFORMATION
#MNEM.UNIT      DATA             DESCRIPTION
#---- ------ --------------   -----------------------------
STRT .F      952.5           :START DEPTH        # original; data subset to 5500-8000
STOP .F      7703.0          :STOP DEPTH        # original; data subset to 5500-8000
STEP .F       0.5            :STEP     
NULL .          -999.25      :NULL VALUE
COMP .        Bear Oil & Gas, Inc                      :COMPANY
WELL .        Marquardt 44-31                          :WELL
FLD  .        Wildcat                                  :FIELD
LOC  .        Lat/Long : 41.3038/-104.1202             :LOCATION
CNTY .        Laramie                                  :COUNTY
STAT .        Wyoming                                  :STATE
CTRY .        USA                                      :COUNTRY
API  .        049-021-21038                            :API NUMBER
UWI  .        049021210380000                          :UNIQUE WELL ID
DATE .        08-Sep-2013                              :LOG DATE {DD-MMM-YYYY}
SRVC .        Schlumberger                             :SERVICE COMPANY
LATI .DEG     41.303800 degrees                        :LATITUDE
LONG .DEG     -104.12020 degrees                       :LONGITUDE
GDAT .                                                 :GeoDetic Datum
SECT .        31                                       :Section
RANG .        60W                                      :Range
TOWN .        16N                                      :Township
#-----------------------------------------------------------------------------
~PARAMETER INFORMATION
#MNEM.UNIT    VALUE                      DESCRIPTION
#---- -----   --------------------       ------------------------
CN   .        Bear Oil & Gas  Inc        :Company Name
WN   .        Marquardt 44-31            :Well Name
FN   .        Wildcat                    :Field Name
FL   .        Lat/Long   41.3038/-104.1202 :Field Location
FL1  .        SHL   766' FSL X 245' FEL SESE :Field Location, Line 1
COUN .        Laramie                    :County or Parish
STAT .        Wyoming                    :State or Province
NATI .        USA                        :Nation
DATE .        08-Sep-2013                :Tools Above Rotary Table Date
APIN .        049-021-21038              :API Well Number
SECT .        31                         :Section
TOWN .        16N                        :Township
RANG .        60W                        :Range
DMF  .        KB                         :Drilling Measured From (Name of Drilling Elevation Reference)
LMF  .        KB                         :Logging Measured From (Name of Logging Elevation Reference)
PDAT .        GL                         :Permanent Datum
ENGI .        Arvin Shi                  :Engineer s Name
WITN .        Terry Eittreim             :Witness s Name
LATI .        41.303800 degrees          :Latitude
LONG .        -104.12020 degrees         :Longitude
LUL  .        Fort Morgan                :Logging Unit Location
LUN  .        3030                       :Logging Unit Number
RUN  .        Run 1                      :Run Number
SON  .        C6VJ-00075                 :Service Order Number
BHT  .DEGF     184.00000                 :Bottom Hole Temperature
BS   .IN         7.87500                 :Bit Size
MDEN .G/C3       2.65000                 :Matrix Density for Density Porosity
DFD  .LB/G       9.00000                 :Drilling Fluid Density
DFV  .S         80.00000                 :Drilling Fluid Viscosity
DFL  .C3      -999.25000                 :Drilling Fluid Loss
RMFS .OHMM       0.80250                 :Resistivity of Mud Filtrate Sample
EKB  .F       5298.00000                 :Elevation of Kelly Bushing
EGL  .F       5286.00000                 :Elevation of Ground Level
BLI  .F       7686.00000                 :Bottom Log Interval
BSAL .PPM     4641.08936                 :Borehole Salinity
FLEV .F          8.00000                 :Depth of Drilling Fluid Level to LMF (Log Measured From)
MCST .DEGF      84.00000                 :Mudcake Sample Temperature
MFST .DEGF      84.00000                 :Mud Filtrate Sample Temperature
MRT  .DEGF     184.00000                 :Maximum Recorded Temperature
MST  .DEGF      84.00000                 :Mud Sample Temperature
RMCS .OHMM       1.33750                 :Resistivity of Mud Cake Sample
RMS  .OHMM       1.07000                 :Resistivity of Mud Sample
RW   .OHMM       1.00000                 :Connate Water Resistivity
TDD  .F       7680.00000                 :Driller Total Depth
TDL  .F       7686.00000                 :Logger Total Depth
TLI  .F       1023.00000                 :Top Log Interval
HIDE .        Wildcat                    :Header Identifier
MATR .        SAND                       :Rock Matrix for Neutron Porosity Corrections
FNUM .           1.00000                 :F-Numerator for Formation Factor Formula
FEXP .           2.00000                 :Exponent "m" for Formation Factor Formula
DFT  .        Fresh Water                :Drilling Fluid Type
DFPH .        -999.25000                 :Drilling Fluid pH
MCSS .        Calculated                 :Mudcake Sample Source
MFSS .        Calculated                 :Mud Filtrate Sample Source
FD   .G/C3       1.00000                 :Fluid Density
MSS  .        Flowline                   :Mud Sample Source
OS1  .                                   :Other Services Line 1
OS2  .                                   :Other Services Line 2
OS3  .                                   :Other Services Line 3
OS4  .                                   :Other Services Line 4
OS5  .                                   :Other Services Line 5
R1   .                                   :Remarks Line 1
R2   .                                   :Remarks Line 2
R3   .                                   :Remarks Line 3
R4   .                                   :Remarks Line 4
R5   .                                   :Remarks Line 5
R6   .                                   :Remarks Line 6
R7   .                                   :Remarks Line 7
R8   .                                   :Remarks Line 8
TCS  .        15 00 00                   :Time Circulation Stopped
TLAB .        00 30 46                   :Time Logger At Bottom
NMT  .        NOBARITE                   :HRDD Mud Type for Nuclear Devices
EPD  .C3         5286.000000             :Elevation of Permanent Datum above Mean Sea Level
APD  .F          12.000000               :Elevation of Depth Reference (LMF) above Permanent Datum
#-----------------------------------------------------------------------------
~CURVE INFORMATION
#MNEM.UNIT   API CODE                                  DESCRIPTION
#---- -----  --------                                  -----------------------
DEPT .F                                                :DEPTH (BOREHOLE) {F10.1}
AT10 .OHMM                                             :Array Induction Two Foot Resistivity A10 {F11.4}
AT30 .OHMM                                             :Array Induction Two Foot Resistivity A30 {F11.4}
AT90 .OHMM                                             :Array Induction Two Foot Resistivity A90 {F11.4}
GR   .GAPI                                             :Gamma Ray {F11.4}
HCAL .IN                                               :HRCC Caliper Calibrated {F11.4}
HDRA .G/C3                                             :Density Standoff Correction {F11.4}
NPHI .CFCF                                             :Thermal Neutron Porosity (original Ratio Method) in Selected Lithology {F11.4}
PEFZ .                                                 :Standard Resolution Formation Photoelectric Factor {F11.4}
RHOZ .G/C3                                             :Standard Resolution Formation Density {F11.4}
SP   .MV                                               :Spontaneous Potential {F11.4}
TNPH .CFCF                                             :Thermal Neutron Porosity (Ratio Method) in Selected Lithology {F11.4}
#-----------------------------------------------------------------------------
# 
#     DEPT       AF10       AF20       AF30       AF60       AF90       AO10       AO20       AO30       AO60       AO90       AT10       AT20       AT30       AT60       AT90     AHFCO60      AHMF      AHORT      AHORX      AHSCA     AHTCO10    AHTCO20    AHTCO30    AHTCO60    AHTCO90     AHTD1      AHTD2      AHTRT      AHTRX       CDF        CFTC       CNTC       CTEM       DCAL       DNPH       DPHZ       DSOZ       ECGR        ED        GDEV        GR        GTEM       HCAL       HDRA       HDRB       HGR        HMIN       HMNO       HNPO       HPRA       HTNP        ND        NPHI       NPOR       PEFZ    PXND_HILT     RHOZ       RSOZ     RWA_HILT     RXO8       RXOZ        SP        SPAR       STIT       TENS       TNPH     HTNP_SAN
#
~A  DEPT AT10 AT30 AT90 GR HCAL HDRA NPHI PEFZ RHOZ SP TNPH
# ...
7663.0 1.9325 1.8701 1.8245 130.6430 7.5571 0.0354 0.3476 3.1234 2.5549 -452.7938 0.3409
7663.5 2.0100 1.9337 1.8846 129.6171 7.5794 0.0350 0.3415 3.1383 2.5591 -452.8875 0.3380
7664.0 2.0805 2.0085 1.9529 122.6237 7.5905 0.0433 0.3382 3.1336 2.5603 -452.9438 0.3350
7664.5 2.1226 2.0424 1.9883 120.7141 7.5645 0.0491 0.3448 3.1127 2.5608 -452.9943 0.3328
7665.0 2.1467 2.0845 2.0327 122.5427 7.5274 0.0519 0.3434 3.0908 2.5622 -452.9000 0.3365
7665.5 2.1652 2.1258 2.0823 124.1865 7.5571 0.0540 0.3416 3.0662 2.5521 -452.8312 0.3345
7666.0 2.1244 2.0690 2.0266 123.5468 7.5237 0.0679 0.3424 3.0605 2.5459 -452.8636 -5432.9516
7666.5 2.0085 1.9482 1.9083 123.5468 7.4162 0.0926 0.3470 3.0767 2.5274 -452.8636 -999.2500
7667.0 1.9221 1.8749 1.8561 123.5468 7.3198 0.1328 0.3524 3.1113 2.5208 -452.8813 -999.2500
7667.5 1.8859 1.8398 1.8312 123.5468 7.2123 0.1754 0.3517 3.1162 2.5252 -453.0000 -999.2500
7668.0 1.8491 1.7829 1.7762 123.5468 7.2160 0.2127 0.3608 3.0966 2.5415 -453.0398 -999.2500
7668.5 1.8413 1.7332 1.7245 123.5468 7.2011 0.2335 0.3623 3.0726 2.5610 -452.8182 -999.2500
7669.0 1.7807 1.6977 1.6732 123.5468 7.2123 0.2357 0.3560 3.0627 2.5652 -452.5057 -999.2500
7669.5 1.6932 1.6329 1.6060 123.5468 7.1937 0.2345 0.3480 3.0620 2.5681 -452.3466 -999.2500
7670.0 1.6030 1.6150 1.5924 123.5468 7.1863 0.2326 0.3458 3.0707 2.5631 -452.2708 -999.2500
7670.5 1.7621 1.7705 1.7092 123.5468 7.1900 0.2345 0.3518 3.0868 2.5587 -452.3750 -999.2500
7671.0 1.9331 2.0171 1.9701 123.5468 7.1789 0.2340 0.3519 3.1143 2.5488 -452.3802 -999.2500
7671.5 2.1349 2.0582 1.9938 123.5468 7.1863 0.2299 0.3436 3.1258 2.5444 -452.3177 -999.2500
7672.0 2.3736 2.2285 2.0564 123.5468 7.1863 0.2238 0.3436 3.1212 2.5417 -452.3558 -999.2500
7672.5 3.1455 2.9213 2.6394 123.5468 7.2011 0.2188 0.3436 3.1055 2.5408 -452.2917 -999.2500
7673.0 4.3196 4.2378 3.5055 123.5468 7.1863 0.2189 0.3436 3.0952 2.5412 -452.3333 -999.2500
7673.5 6.0305 6.0811 4.7036 123.5468 7.2011 0.2198 0.3436 3.1021 2.5335 -452.4471 -999.2500
7674.0 6.1706 8.1323 5.5843 123.5468 7.1863 0.2211 0.3436 3.1058 2.5280 -452.5240 -999.2500
7674.5 5.1337 7.8718 5.2857 123.5468 7.2086 0.2227 0.3436 3.1164 2.5223 -452.5577 -999.2500
7675.0 3.5488 3.8260 2.8147 123.5468 7.1863 0.2248 0.3436 3.1169 2.5261 -452.7009 -999.2500
7675.5 2.2443 2.3825 1.8634 123.5468 7.1900 0.2279 0.3436 3.1302 2.5281 -452.8654 -999.2500
7676.0 1.6996 1.8391 1.5599 123.5468 7.1863 0.2271 0.3436 3.1335 2.5309 -452.8125 -999.2500
7676.5 1.5141 1.8034 1.5252 123.5468 7.1863 0.2211 0.3436 3.1311 2.5285 -452.7054 -999.2500
7677.0 1.5139 1.8690 1.6009 123.5468 7.1863 0.2137 0.3436 3.1170 2.5249 -452.6205 -999.2500
7677.5 1.4815 1.9644 1.7434 123.5468 7.1733 0.2115 0.3436 3.1068 2.5215 -452.4196 -999.2500
7678.0 1.4684 1.9268 1.8183 123.5468 7.1789 0.2136 0.3436 3.1038 2.5201 -452.2000 -999.2500
7678.5 1.4876 1.8238 1.8669 123.5468 7.1900 0.2125 0.3436 3.1015 2.5168 -451.8973 -999.2500
7679.0 1.4482 1.7279 1.9502 123.5468 7.1715 0.2097 0.3436 3.0856 2.5140 -451.6750 -999.2500
7679.5 1.4115 1.8748 2.3841 123.5468 7.1641 0.2050 0.3436 3.0816 2.5089 -451.5792 -999.2500
7680.0 1.4578 2.0751 2.7360 123.5468 7.1715 -5422.2739 0.3436 -5435.0805 -5432.4698 -451.4667 -999.2500
7680.5 1.5107 2.2703 3.2562 123.5468 7.1455 -999.2500 0.3436 -999.2500 -999.2500 -451.3320 -999.2500
7681.0 1.5024 2.4511 3.6706 123.5468 7.1566 -999.2500 0.3436 -999.2500 -999.2500 -451.2125 -999.2500
7681.5 1.4602 2.4192 3.5818 123.5468 7.1641 -999.2500 0.3436 -999.2500 -999.2500 -451.2617 -999.2500
7682.0 1.4488 2.3589 3.0758 123.5468 7.1418 -999.2500 0.3436 -999.2500 -999.2500 -451.4805 -999.2500
7682.5 1.4317 2.2996 2.9093 123.5468 7.1270 -999.2500 0.3436 -999.2500 -999.2500 -451.6602 -999.2500
7683.0 1.4137 2.2827 2.6672 123.5468 7.0676 -999.2500 0.3436 -999.2500 -999.2500 -451.9083 -999.2500
7683.5 1.4102 2.2353 2.5093 123.5468 5.4287 -999.2500 0.3436 -999.2500 -999.2500 -451.8867 -999.2500
7684.0 1.4111 2.2287 2.4258 123.5468 3.2910 -999.2500 0.3436 -999.2500 -999.2500 -451.9297 -999.2500
7684.5 1.4124 2.2368 2.3966 123.5468 3.2966 -999.2500 0.3436 -999.2500 -999.2500 -452.0742 -999.2500
7685.0 1.4128 2.2450 2.4088 123.5468 3.3077 -999.2500 0.3436 -999.2500 -999.2500 -451.9375 -999.2500
7685.5 1.4134 2.2445 2.4074 123.5468 3.3077 -999.2500 0.3436 -999.2500 -999.2500 -452.1765 -999.2500
7686.0 1.4135 2.2433 2.4117 123.5468 3.3077 -999.2500 0.3436 -999.2500 -999.2500 -452.6719 -999.2500
7686.5 1.4128 2.2457 2.4164 123.5468 3.3077 -999.2500 0.3436 -999.2500 -999.2500 -453.1597 -999.2500
7687.0 1.4121 2.2442 2.4142 123.5468 3.3077 -999.2500 0.3436 -999.2500 -999.2500 -453.1581 -999.2500
7687.5 1.4114 2.2425 2.4107 123.5468 3.3077 -999.2500 0.3436 -999.2500 -999.2500 -453.0590 -999.2500
7688.0 1.4115 2.2454 2.4123 123.5468 3.3077 -999.2500 0.3436 -999.2500 -999.2500 -453.0066 -999.2500
7688.5 1.4117 2.2442 2.4108 123.5468 3.3077 -999.2500 0.3436 -999.2500 -999.2500 -452.7604 -999.2500
7689.0 1.4114 2.2449 2.4108 123.5468 3.3077 -999.2500 0.3436 -999.2500 -999.2500 -452.6645 -999.2500
7689.5 1.4114 2.2440 2.4103 123.5468 3.3077 -999.2500 0.3436 -999.2500 -999.2500 -452.4445 -999.2500
7690.0 1.4114 2.2436 2.4105 123.5468 3.3077 -999.2500 0.3436 -999.2500 -999.2500 -452.4934 -999.2500
7690.5 1.4114 2.2426 2.4103 123.5468 3.3077 -999.2500 0.3436 -999.2500 -999.2500 -452.3454 -999.2500
7691.0 1.4111 2.2441 2.4125 123.5468 3.3077 -999.2500 0.3436 -999.2500 -999.2500 -452.1563 -999.2500
7691.5 1.4114 2.2433 2.4119 123.5468 3.3077 -999.2500 0.3436 -999.2500 -999.2500 -452.0729 -999.2500
7692.0 1.4114 2.2430 2.4117 123.5468 3.3077 -999.2500 0.3436 -999.2500 -999.2500 -451.9549 -999.2500
7692.5 1.4111 2.2447 2.4141 123.5468 3.3077 -999.2500 0.3436 -999.2500 -999.2500 -451.7639 -999.2500
7693.0 1.4111 2.2442 2.4143 123.5468 3.3077 -999.2500 0.3436 -999.2500 -999.2500 -451.5757 -999.2500
7693.5 1.4111 2.2460 2.4156 123.5468 3.3077 -999.2500 0.3436 -999.2500 -999.2500 -451.5592 -999.2500
7694.0 1.4111 2.2446 2.4144 123.5468 3.3077 -999.2500 0.3436 -999.2500 -999.2500 -451.4342 -999.2500
7694.5 1.4110 2.2425 2.4124 123.5468 3.3077 -999.2500 0.3436 -999.2500 -999.2500 -451.3618 -999.2500
7695.0 1.4111 2.2417 2.4113 123.5468 3.3077 -999.2500 0.3436 -999.2500 -999.2500 -451.2188 -999.2500
7695.5 -999.2500 -999.2500 -999.2500 123.5468 3.3077 -999.2500 0.3436 -999.2500 -999.2500 -451.0788 -999.2500
7696.0 -999.2500 -999.2500 -999.2500 123.5468 3.3077 -999.2500 0.3436 -999.2500 -999.2500 -450.8771 -999.2500
7696.5 -999.2500 -999.2500 -999.2500 123.5468 3.3077 -999.2500 0.3436 -999.2500 -999.2500 -450.6034 -999.2500
7697.0 -999.2500 -999.2500 -999.2500 123.5468 3.3077 -999.2500 0.3436 -999.2500 -999.2500 -450.5326 -999.2500
7697.5 -999.2500 -999.2500 -999.2500 123.5468 3.3077 -999.2500 0.3436 -999.2500 -999.2500 -450.3690 -999.2500
7698.0 -999.2500 -999.2500 -999.2500 123.5468 3.3077 -999.2500 0.3436 -999.2500 -999.2500 -450.2778 -999.2500
7698.5 -999.2500 -999.2500 -999.2500 123.5468 3.3077 -999.2500 0.3436 -999.2500 -999.2500 -450.1875 -999.2500
7699.0 -999.2500 -999.2500 -999.2500 123.5468 3.3077 -999.2500 0.3436 -999.2500 -999.2500 -449.9706 -999.2500
7699.5 -999.2500 -999.2500 -999.2500 123.5468 3.3077 -999.2500 0.3436 -999.2500 -999.2500 -449.8945 -999.2500
7700.0 -999.2500 -999.2500 -999.2500 123.5468 3.3077 -999.2500 0.3436 -999.2500 -999.2500 -449.7257 -999.2500
7700.5 -999.2500 -999.2500 -999.2500 123.5468 3.3077 -999.2500 0.3436 -999.2500 -999.2500 -449.3713 -999.2500
7701.0 -999.2500 -999.2500 -999.2500 123.5468 3.3077 -999.2500 0.3436 -999.2500 -999.2500 -449.1875 -999.2500
7701.5 -999.2500 -999.2500 -999.2500 123.5468 3.3077 -999.2500 0.3436 -999.2500 -999.2500 -448.8750 -999.2500
7702.0 -999.2500 -999.2500 -999.2500 123.5468 3.3077 -999.2500 0.3436 -999.2500 -999.2500 -449.0208 -999.2500
7702.5 -999.2500 -999.2500 -999.2500 123.5468 3.3077 -999.2500 0.3436 -999.2500 -999.2500 -448.6588 -999.2500
7703.0 -999.2500 -999.2500 -999.2500 123.5468 3.3077 -999.2500 0.3436 -999.2500 -999.2500 -448.5268 -999.2500
