~VERSION INFORMATION
VERS.           2.0   :CWLS Log ASCII Standard - VERSION 2.0
WRAP.           NO    :One Line per depth step
PROD.  Schlumberger   :LAS Producer
PROG.  DLIS to ASCII 19C2-270                          :LAS Program name and version
CREA.        2013/09/21 19:52                          :LAS Creation date {YYYY/MM/DD hh:mm}
DLIS_CREA.  2013-Sep-21 19:47                          :DLIS Creation date and time {YYYY-MMM-DD hh:mm}
SOURCE.     49-021-21035_McGahan Farms 42-31_Run_PEX_Mainpass.dlis  :DLIS File Name
FILE-ID.     MaxWell_3Dlis                             :File Identification Number
#--------------------------------------------------
~WELL INFORMATION
#MNEM.UNIT      DATA             DESCRIPTION
#---- ------ --------------   -----------------------------
STRT .F      1000.5          :START DEPTH        # original; data subset to 5500-8000
STOP .F      7716.5          :STOP DEPTH        # original; data subset to 5500-8000
STEP .F       0.5            :STEP     
NULL .          -999.25      :NULL VALUE
COMP .        Bear Oil & Gas, Inc                      :COMPANY
WELL .        McGahan Farms 42-31                      :WELL
FLD  .        Wildcat                                  :FIELD
LOC  .        Lat/Long: 41.3098/-104.1197              :LOCATION
CNTY .        Laramie                                  :COUNTY
STAT .        Wyoming                                  :STATE
CTRY .        USA                                      :COUNTRY
API  .        49-021-21035                             :API NUMBER
UWI  .        49021210350000                           :UNIQUE WELL ID
DATE .        21-Sep-2013                              :LOG DATE {DD-MMM-YYYY}
SRVC .        Schlumberger                             :SERVICE COMPANY
LATI .DEG     41.309800 degrees                        :LATITUDE
LONG .DEG     -104.11970 degrees                       :LONGITUDE
GDAT .                                                 :GeoDetic Datum
SECT .        31                                       :Section
RANG .        60W                                      :Range
TOWN .        16N                                      :Township
#-----------------------------------------------------------------------------
~PARAMETER INFORMATION
#MNEM.UNIT    VALUE                      DESCRIPTION
#---- -----   --------------------       ------------------------
CN   .        Bear Oil & Gas  Inc        :Company Name
WN   .        McGahan Farms 42-31        :Well Name
FN   .        Wildcat                    :Field Name
FL   .        Lat/Long  41.3098/-104.1197 :Field Location
FL1  .        SHL   2375' FNL X 190' FEL SENE :Field Location, Line 1
COUN .        Laramie                    :County or Parish
STAT .        Wyoming                    :State or Province
NATI .        USA                        :Nation
DATE .        21-Sep-2013                :Tools Above Rotary Table Date
APIN .        49-021-21035               :API Well Number
SECT .        31                         :Section
TOWN .        16N                        :Township
RANG .        60W                        :Range
DMF  .        KB                         :Drilling Measured From (Name of Drilling Elevation Reference)
LMF  .        KB                         :Logging Measured From (Name of Logging Elevation Reference)
PDAT .        GL                         :Permanent Datum
ENGI .        Arvin Shi                  :Engineer s Name
WITN .        Terry Eittreim             :Witness s Name
LATI .        41.309800 degrees          :Latitude
LONG .        -104.11970 degrees         :Longitude
LUL  .        Fort Morgan                :Logging Unit Location
LUN  .        3022                       :Logging Unit Number
RUN  .        Run 1                      :Run Number
SON  .        C6VJ-00079                 :Service Order Number
BHT  .DEGF     175.00000                 :Bottom Hole Temperature
BS   .IN         7.87500                 :Bit Size
MDEN .G/C3       2.65000                 :Matrix Density for Density Porosity
DFD  .LB/G       9.20000                 :Drilling Fluid Density
DFV  .S         80.00000                 :Drilling Fluid Viscosity
DFL  .C3      -999.25000                 :Drilling Fluid Loss
RMFS .OHMM       0.96000                 :Resistivity of Mud Filtrate Sample
EKB  .F       5307.00000                 :Elevation of Kelly Bushing
EGL  .F       5295.00000                 :Elevation of Ground Level
BLI  .F       7700.00000                 :Bottom Log Interval
BSAL .PPM     3275.14868                 :Borehole Salinity
FLEV .F          8.00000                 :Depth of Drilling Fluid Level to LMF (Log Measured From)
MCST .DEGF      98.00000                 :Mudcake Sample Temperature
MFST .DEGF      98.00000                 :Mud Filtrate Sample Temperature
MRT  .DEGF     175.00000                 :Maximum Recorded Temperature
MST  .DEGF      98.00000                 :Mud Sample Temperature
RMCS .OHMM       1.60000                 :Resistivity of Mud Cake Sample
RMS  .OHMM       1.28000                 :Resistivity of Mud Sample
RW   .OHMM       1.00000                 :Connate Water Resistivity
TDD  .F       7697.00000                 :Driller Total Depth
TDL  .F       7700.00000                 :Logger Total Depth
TLI  .F       1018.00000                 :Top Log Interval
HIDE .        Wildcat                    :Header Identifier
MATR .        SAND                       :Rock Matrix for Neutron Porosity Corrections
FNUM .           1.00000                 :F-Numerator for Formation Factor Formula
FEXP .           2.00000                 :Exponent "m" for Formation Factor Formula
DFT  .        Chemical Gel               :Drilling Fluid Type
DFPH .        -999.25000                 :Drilling Fluid pH
MCSS .        Calculated                 :Mudcake Sample Source
MFSS .        Calculated                 :Mud Filtrate Sample Source
FD   .G/C3       1.00000                 :Fluid Density
MSS  .        Flowline                   :Mud Sample Source
OS1  .                                   :Other Services Line 1
OS2  .                                   :Other Services Line 2
OS3  .                                   :Other Services Line 3
OS4  .                                   :Other Services Line 4
OS5  .                                   :Other Services Line 5
R1   .                                   :Remarks Line 1
R2   .                                   :Remarks Line 2
R3   .                                   :Remarks Line 3
R4   .                                   :Remarks Line 4
R5   .                                   :Remarks Line 5
R6   .                                   :Remarks Line 6
R7   .                                   :Remarks Line 7
R8   .                                   :Remarks Line 8
TCS  .        11 00 00                   :Time Circulation Stopped
TLAB .        17 20 49                   :Time Logger At Bottom
NMT  .        NOBARITE                   :HRDD Mud Type for Nuclear Devices
EPD  .C3         5295.000000             :Elevation of Permanent Datum above Mean Sea Level
APD  .F          12.000000               :Elevation of Depth Reference (LMF) above Permanent Datum
#-----------------------------------------------------------------------------
~CURVE INFORMATION
#MNEM.UNIT   API CODE                                  DESCRIPTION
#---- -----  --------                                  -----------------------
DEPT .F                                                :DEPTH (BOREHOLE) {F10.1}
AT10 .OHMM                                             :Array Induction Two Foot Resistivity A10 {F11.4}
AT30 .OHMM                                             :Array Induction Two Foot Resistivity A30 {F11.4}
AT90 .OHMM                                             :Array Induction Two Foot Resistivity A90 {F11.4}
GR   .GAPI                                             :Gamma Ray {F11.4}
HCAL .IN                                               :HRCC Caliper Calibrated {F11.4}
HDRA .G/C3                                             :Density Standoff Correction {F11.4}
NPHI .CFCF                                             :Thermal Neutron Porosity (original Ratio Method) in Selected Lithology {F11.4}
PEFZ .                                                 :Standard Resolution Formation Photoelectric Factor {F11.4}
RHOZ .G/C3                                             :Standard Resolution Formation Density {F11.4}
SP   .MV                                               :Spontaneous Potential {F11.4}
TNPH .CFCF                                             :Thermal Neutron Porosity (Ratio Method) in Selected Lithology {F11.4}
#-----------------------------------------------------------------------------
# 
#     DEPT       AF10       AF20       AF30       AF60       AF90       AO10       AO20       AO30       AO60       AO90       AT10       AT20       AT30       AT60       AT90     AHFCO60      AHMF      AHORT      AHORX      AHSCA     AHTCO10    AHTCO20    AHTCO30    AHTCO60    AHTCO90     AHTD1      AHTD2      AHTRT      AHTRX       CDF        CFTC       CNTC       CTEM       DCAL       DNPH       DPHZ       DSOZ       ECGR        ED        GDEV        GR        GTEM       HCAL       HDRA       HDRB       HGR        HMIN       HMNO       HNPO       HPRA       HTNP        ND        NPHI       NPOR       PEFZ    PXND_HILT     RHOZ       RSOZ     RWA_HILT     RXO8       RXOZ        SP        SPAR       STIT       TENS       TNPH     HTNP_SAN
#
~A  DEPT AT10 AT30 AT90 GR HCAL HDRA NPHI PEFZ RHOZ SP TNPH
5500.0 2.3079 2.2183 2.1882 97.0660 7.9062 0.0198 0.3332 3.1834 2.4976 -359.3125 0.3347
5500.5 2.2751 2.1889 2.1497 96.5366 7.9062 0.0264 0.3384 3.1554 2.4927 -359.1875 0.3243
5501.0 2.3105 2.2161 2.1730 92.3581 7.9282 0.0269 0.3484 3.1007 2.4965 -359.1354 0.3257
5501.5 2.3462 2.2518 2.2047 97.9121 7.9722 0.0211 0.3636 3.0668 2.4977 -359.1875 0.3335
5502.0 2.3740 2.2862 2.2352 100.5572 7.8622 0.0152 0.3475 3.0384 2.4971 -359.1458 0.3340
5502.5 2.4076 2.3128 2.2560 109.4967 7.8842 0.0111 0.3404 3.0159 2.5036 -359.0875 0.3202
5503.0 2.4331 2.3432 2.2937 106.0582 7.9722 0.0076 0.3304 2.9821 2.5110 -358.9792 0.3308
5503.5 2.4637 2.3741 2.3256 97.4362 7.8842 0.0061 0.3248 2.9641 2.5144 -359.0104 0.3270
5504.0 2.4748 2.3708 2.3254 91.8821 7.8402 0.0061 0.3179 2.9771 2.5078 -359.2083 0.3218
5504.5 2.4478 2.3712 2.3283 94.7913 7.8842 0.0086 0.3133 3.0211 2.5066 -359.2500 0.3189
5505.0 2.4295 2.3513 2.3115 103.6779 7.9062 0.0152 0.3305 3.0596 2.5144 -359.0417 0.3136
5505.5 2.4221 2.3279 2.2882 106.5869 7.8842 0.0226 0.3179 3.0706 2.5190 -359.0500 0.3185
5506.0 2.4290 2.3409 2.3035 108.1738 7.8622 0.0305 0.3136 3.0488 2.5247 -359.2708 0.3049
5506.5 2.4168 2.3351 2.2909 102.3551 7.8622 0.0379 0.3241 3.0239 2.5219 -359.3021 0.3074
5507.0 2.3912 2.3010 2.2658 103.4136 7.9062 0.0306 0.3301 2.9925 2.4986 -359.4479 0.3163
5507.5 2.3805 2.2927 2.2501 95.1620 7.8622 0.0199 0.3358 2.9817 2.4656 -359.3750 0.3176
5508.0 2.3968 2.3062 2.2510 91.7235 7.8842 0.0084 0.3136 2.9998 2.4556 -359.1458 0.3237
5508.5 2.3943 2.3007 2.2449 92.7809 7.8842 0.0099 0.3069 3.0983 2.4927 -359.1875 0.3099
5509.0 2.4130 2.3162 2.2561 94.4205 7.8402 -0.0018 0.3111 3.2207 2.5197 -359.4125 0.3006
5509.5 2.4232 2.3329 2.2600 101.2975 7.9502 0.0068 0.3087 3.3556 2.5524 -359.3854 0.3040
5510.0 2.3465 2.2602 2.2050 96.2723 7.8842 0.0174 0.3348 3.3758 2.5405 -359.2292 0.3022
5510.5 2.2928 2.1968 2.1530 98.1240 7.9062 0.0416 0.3464 3.3110 2.5388 -359.1979 0.3240
5511.0 2.2404 2.1486 2.1023 99.5518 7.9502 0.0431 0.3421 3.1918 2.5088 -359.0313 0.3338
5511.5 2.1992 2.0971 2.0423 100.8744 7.9062 0.0466 0.3301 3.1417 2.5044 -358.9583 0.3390
5512.0 2.1585 2.0716 2.0162 101.4036 7.9282 0.0468 0.3279 3.1503 2.4930 -358.9896 0.3302
5512.5 2.1177 2.0376 1.9792 91.2475 7.9502 0.0480 0.3583 3.2205 2.4914 -359.0250 0.3248
5513.0 2.1614 2.0452 1.9832 86.4869 8.0821 0.0307 0.3545 3.2665 2.4811 -359.1042 0.3285
5513.5 2.3058 2.2136 2.1335 77.3883 7.8842 0.0164 0.3450 3.2968 2.4910 -359.0625 0.3309
5514.0 2.4379 2.3138 2.2362 85.8517 7.8622 0.0015 0.3159 3.2391 2.4909 -359.1042 0.3295
5514.5 2.4470 2.3241 2.2436 92.7282 7.8842 0.0040 0.3082 3.1413 2.4974 -359.3542 0.3160
5515.0 2.4580 2.3386 2.2599 94.9501 7.8622 0.0076 0.3073 3.0470 2.4914 -359.4375 0.3118
5515.5 2.4594 2.3461 2.2723 97.8601 7.8842 0.0116 0.3175 2.9974 2.5053 -359.4583 0.2997
5516.0 2.4688 2.3555 2.2865 102.3559 7.9062 0.0106 0.3479 2.9852 2.5109 -359.5125 0.3122
5516.5 2.4784 2.3763 2.3084 105.2125 7.9282 0.0107 0.3501 2.9936 2.5193 -359.3750 0.3295
5517.0 2.4767 2.3737 2.3079 99.9217 7.9502 0.0090 0.3575 3.0171 2.5099 -359.4063 0.3354
5517.5 2.4270 2.3402 2.2869 93.5745 7.9282 0.0103 0.3255 3.0536 2.5031 -359.4271 0.3450
5518.0 2.3885 2.3054 2.2503 94.4206 7.9062 0.0087 0.3524 3.0533 2.4884 -359.3854 0.3295
5518.5 2.3783 2.2790 2.2250 94.1566 7.9502 0.0096 0.3459 3.0232 2.4818 -359.2604 0.3458
5519.0 2.3943 2.2923 2.2335 91.7232 7.9722 0.0233 0.3363 3.0094 2.4951 -359.3854 0.3304
5519.5 2.4055 2.3043 2.2430 94.3678 7.9062 0.0339 0.3239 3.0204 2.5078 -359.2604 0.3240
5520.0 2.3912 2.2912 2.2388 98.8641 7.8622 0.0406 0.3277 3.0507 2.5186 -359.1750 0.3109
5520.5 2.3658 2.2671 2.2091 99.9752 7.9282 0.0338 0.3428 3.0669 2.5111 -359.0625 0.3171
5521.0 2.4376 2.3198 2.2595 102.1970 7.9062 0.0327 0.3190 3.0839 2.5194 -359.1042 0.3270
5521.5 2.4726 2.3671 2.2993 101.9322 7.8842 0.0296 0.3111 3.0723 2.5107 -359.3646 0.3006
5522.0 2.4729 2.3791 2.3169 104.3127 7.8842 0.0279 0.2899 3.0424 2.5086 -359.4479 0.3026
5522.5 2.4857 2.3766 2.3248 104.2067 7.9722 0.0199 0.2932 3.0011 2.4944 -359.3125 0.2822
5523.0 2.4990 2.3878 2.3319 95.7434 7.9062 0.0193 0.2774 3.0146 2.4996 -359.4500 0.2789
5523.5 2.5085 2.3993 2.3428 93.0980 7.9062 0.0235 0.2726 3.0448 2.5051 -359.6458 0.2672
5524.0 2.5094 2.4018 2.3529 88.8665 7.8842 0.0361 0.3011 3.0723 2.5110 -359.8542 0.2695
5524.5 2.5044 2.4005 2.3502 91.4058 7.8622 0.0435 0.3257 3.0566 2.5082 -359.7188 0.2953
5525.0 2.4847 2.3763 2.3245 90.8771 7.9282 0.0468 0.3352 3.0533 2.5052 -359.4271 0.3100
5525.5 2.4506 2.3445 2.2915 92.9928 7.9062 0.0456 0.3113 3.0784 2.4959 -359.3438 0.3185
5526.0 2.4178 2.3158 2.2570 94.1564 7.9282 0.0512 0.3062 3.1208 2.4877 -359.5208 0.3130
5526.5 2.3786 2.2771 2.2172 100.5039 8.0161 0.0585 0.3192 3.1429 2.4724 -359.4000 0.3120
5527.0 2.3409 2.2423 2.1811 100.1874 7.9062 0.0736 0.3349 3.1405 2.4714 -359.2083 0.3243
5527.5 2.3307 2.2240 2.1598 98.3356 7.9722 0.0852 0.3519 3.1280 2.4787 -359.2500 0.3261
5528.0 2.3658 2.2629 2.1927 89.3436 7.9502 0.0866 0.3603 3.1002 2.4950 -359.1042 0.3309
5528.5 2.4076 2.3027 2.2225 87.5443 7.9282 0.0737 0.3370 3.0628 2.5091 -358.9896 0.3382
5529.0 2.3845 2.2832 2.2104 86.6456 7.9722 0.0630 0.3220 3.0367 2.5163 -358.8333 0.3201
5529.5 2.3659 2.2495 2.1803 89.0255 7.8402 0.0629 0.3062 3.0449 2.5022 -358.8854 0.3240
5530.0 2.3501 2.2383 2.1745 90.0833 7.9282 0.0746 0.3142 3.0673 2.5018 -359.0729 0.3066
5530.5 2.4109 2.2796 2.2176 93.6274 7.9062 0.0776 0.3176 3.0772 2.5039 -358.9792 0.3053
5531.0 2.4629 2.3462 2.2843 103.4133 7.9722 0.0703 0.3118 3.0582 2.5184 -358.9625 0.3028
5531.5 2.5218 2.3900 2.3292 102.8844 7.9941 0.0652 0.2972 3.0502 2.5225 -359.0521 0.3041
5532.0 2.4801 2.3604 2.3099 105.5294 8.0161 0.0599 0.2862 3.0491 2.5184 -359.2813 0.2883
5532.5 2.4610 2.3305 2.2871 102.3555 7.9502 0.0636 0.2807 3.0888 2.5339 -359.3229 0.2745
5533.0 2.4471 2.3038 2.2621 102.0916 8.0381 0.0581 0.2990 3.1415 2.5356 -359.3958 0.2673
5533.5 2.4189 2.2862 2.2371 102.5674 7.9282 0.0559 0.3072 3.1813 2.5283 -359.2917 0.2877
5534.0 2.3773 2.2552 2.2119 96.4845 7.9722 0.0564 0.3139 3.1711 2.5074 -359.2500 0.3002
5534.5 2.3308 2.2353 2.1853 100.1870 7.9722 0.0573 0.3104 3.1256 2.4775 -359.2083 0.3068
5535.0 2.3701 2.2248 2.1685 94.4209 7.9722 0.0651 0.3024 3.1024 2.4630 -359.3333 0.3006
5535.5 2.4162 2.2934 2.2144 94.6855 7.9062 0.0733 0.3048 3.1153 2.4600 -359.3542 0.2962
5536.0 2.2984 2.2034 2.1342 89.6602 7.9941 0.0784 0.2969 3.1298 2.4661 -359.0625 0.2949
5536.5 2.2002 2.0710 2.0321 90.1891 8.0601 0.0766 0.3108 3.1415 2.4778 -358.8750 0.2956
5537.0 2.1831 2.0638 1.9961 90.1890 8.0601 0.0621 0.3307 3.1310 2.4580 -358.9479 0.3075
5537.5 2.2325 2.1108 2.0284 95.4789 7.9502 0.0606 0.3411 3.1448 2.4552 -358.8854 0.3232
5538.0 2.2583 2.1310 2.0589 98.9173 8.0161 0.0558 0.3281 3.1363 2.4524 -358.8750 0.3241
5538.5 2.2767 2.1513 2.0728 106.3228 8.0161 0.0589 0.3210 3.1279 2.4830 -359.0417 0.3074
5539.0 2.3019 2.1841 2.1064 105.2643 7.9941 0.0596 0.3152 3.1410 2.5047 -359.0833 0.3046
5539.5 2.3037 2.1994 2.1240 102.6199 8.0821 0.0699 0.3096 3.1941 2.5230 -359.0417 0.3202
5540.0 2.2863 2.1862 2.1150 95.2140 8.0601 0.0805 0.3118 3.2639 2.5134 -359.0417 0.3133
5540.5 2.2509 2.1556 2.0864 92.8869 8.1480 0.0858 0.3071 3.2793 2.5030 -359.1458 0.3082
5541.0 2.2087 2.1276 2.0634 91.8286 8.1480 0.0894 0.3138 3.2526 2.4965 -359.1375 0.3000
5541.5 2.1445 2.0731 2.0093 96.3251 8.1261 0.0833 0.3171 3.2014 2.4902 -359.1563 0.3103
5542.0 2.0764 1.9990 1.9441 95.7433 8.0821 0.0739 0.3169 3.1897 2.4865 -358.8542 0.3116
5542.5 2.0549 1.9734 1.9230 102.6196 8.0601 0.0663 0.3131 3.2295 2.4794 -358.6042 0.3092
5543.0 2.0531 1.9656 1.9217 106.3224 8.1041 0.0795 0.3204 3.3040 2.4970 -358.6771 0.2999
5543.5 2.0626 1.9815 1.9320 109.1261 8.1261 0.0895 0.3280 3.3064 2.5149 -358.8125 0.3150
5544.0 2.1240 2.0183 1.9677 102.2497 8.0601 0.0882 0.3519 3.2377 2.5295 -358.8646 0.3282
5544.5 2.1663 2.0750 2.0193 93.5221 8.0821 0.0822 0.3671 3.1401 2.5283 -358.9167 0.3276
5545.0 2.1682 2.0855 2.0255 89.9249 8.1480 0.0868 0.3500 3.0820 2.5324 -358.8125 0.3442
