~VERSION INFORMATION
VERS.           2.0   :CWLS Log ASCII Standard - VERSION 2.0
WRAP.           NO    :One Line per depth step
PROD.  Schlumberger   :LAS Producer
PROG.  DLIS to ASCII 19C2-270                          :LAS Program name and version
CREA.        2013/08/28 17:00                          :LAS Creation date {YYYY/MM/DD hh:mm}
DLIS_CREA.  2013-Aug-28 16:23                          :DLIS Creation date and time {YYYY-MMM-DD hh:mm}
SOURCE.     Bear_Oil_Marquardt_43_31_Main_DLIS.dlis    :DLIS File Name
FILE-ID.     MaxWell_5Dlis                             :File Identification Number
#--------------------------------------------------
~WELL INFORMATION
#MNEM.UNIT      DATA             DESCRIPTION
#---- ------ --------------   -----------------------------
STRT .F      1000.5          :START DEPTH        # original; data subset to 5500-8000
STOP .F      7710.0          :STOP DEPTH        # original; data subset to 5500-8000
STEP .F       0.5            :STEP     
NULL .          -999.25      :NULL VALUE
COMP .        Bear Oil and Gas, Inc.                   :COMPANY
WELL .        Marquardt 43 31                          :WELL
FLD  .        Wildcat                                  :FIELD
LOC  .        NESE 1627' FSL & 170' FEL                :LOCATION
CNTY .        Laramie                                  :COUNTY
STAT .        Wyoming                                  :STATE
CTRY .        United States                            :COUNTRY
API  .        049-021-21034                            :API NUMBER
UWI  .        049021210340000                          :UNIQUE WELL ID
DATE .        28-Aug-2013                              :LOG DATE {DD-MMM-YYYY}
SRVC .        Schlumberger                             :SERVICE COMPANY
LATI .DEG     41.306700 degrees                        :LATITUDE
LONG .DEG     -104.11980 degrees                       :LONGITUDE
GDAT .                                                 :GeoDetic Datum
SECT .        31                                       :Section
RANG .        60W                                      :Range
TOWN .        16N                                      :Township
#-----------------------------------------------------------------------------
~PARAMETER INFORMATION
#MNEM.UNIT    VALUE                      DESCRIPTION
#---- -----   --------------------       ------------------------
CN   .        Bear Oil and Gas  Inc.     :Company Name
WN   .        Marquardt 43 31            :Well Name
FN   .        Wildcat                    :Field Name
FL   .        NESE 1627' FSL & 170' FEL  :Field Location
FL1  .        Sec. 31  T. 16N  R. 60W    :Field Location, Line 1
COUN .        Laramie                    :County or Parish
STAT .        Wyoming                    :State or Province
NATI .        United States              :Nation
DATE .        28-Aug-2013                :Tools Above Rotary Table Date
APIN .        049-021-21034              :API Well Number
SECT .        31                         :Section
TOWN .        16N                        :Township
RANG .        60W                        :Range
DMF  .        KB                         :Drilling Measured From (Name of Drilling Elevation Reference)
LMF  .        KB                         :Logging Measured From (Name of Logging Elevation Reference)
PDAT .        GL                         :Permanent Datum
ENGI .        Max Pace                   :Engineer s Name
WITN .        Terry Eittreim             :Witness s Name
LATI .        41.306700 degrees          :Latitude
LONG .        -104.11980 degrees         :Longitude
LUL  .        Fort Morgan  CO            :Logging Unit Location
LUN  .        3022                       :Logging Unit Number
RUN  .        Run 1                      :Run Number
SON  .        CA0R-00043                 :Service Order Number
BHT  .DEGF     166.00000                 :Bottom Hole Temperature
BS   .IN         7.87500                 :Bit Size
MDEN .G/C3       2.65000                 :Matrix Density for Density Porosity
DFD  .LB/G       8.90000                 :Drilling Fluid Density
DFV  .S         65.00000                 :Drilling Fluid Viscosity
DFL  .C3         9.00000                 :Drilling Fluid Loss
RMFS .OHMM       1.11000                 :Resistivity of Mud Filtrate Sample
EKB  .F       5298.00000                 :Elevation of Kelly Bushing
EGL  .F       5286.00000                 :Elevation of Ground Level
BLI  .F       7686.00000                 :Bottom Log Interval
BSAL .PPM     3335.81519                 :Borehole Salinity
FLEV .F          8.00000                 :Depth of Drilling Fluid Level to LMF (Log Measured From)
MCST .DEGF      83.00000                 :Mudcake Sample Temperature
MFST .DEGF      83.00000                 :Mud Filtrate Sample Temperature
MRT  .DEGF     166.00000                 :Maximum Recorded Temperature
MST  .DEGF      83.00000                 :Mud Sample Temperature
RMCS .OHMM       1.85000                 :Resistivity of Mud Cake Sample
RMS  .OHMM       1.48000                 :Resistivity of Mud Sample
RW   .OHMM       1.00000                 :Connate Water Resistivity
TDD  .F       7680.00000                 :Driller Total Depth
TDL  .F       7686.00000                 :Logger Total Depth
TLI  .F       1025.00000                 :Top Log Interval
HIDE .        Wildcat                    :Header Identifier
MATR .        SAND                       :Rock Matrix for Neutron Porosity Corrections
FNUM .           1.00000                 :F-Numerator for Formation Factor Formula
FEXP .           2.00000                 :Exponent "m" for Formation Factor Formula
DFT  .        WATER                      :Drilling Fluid Type
DFPH .           8.00000                 :Drilling Fluid pH
MCSS .        Calculated                 :Mudcake Sample Source
MFSS .        Calculated                 :Mud Filtrate Sample Source
FD   .G/C3       1.00000                 :Fluid Density
MSS  .        Active Tank                :Mud Sample Source
OS1  .                                   :Other Services Line 1
OS2  .                                   :Other Services Line 2
OS3  .                                   :Other Services Line 3
OS4  .                                   :Other Services Line 4
OS5  .                                   :Other Services Line 5
R1   .                                   :Remarks Line 1
R2   .                                   :Remarks Line 2
R3   .                                   :Remarks Line 3
R4   .                                   :Remarks Line 4
R5   .                                   :Remarks Line 5
R6   .                                   :Remarks Line 6
R7   .                                   :Remarks Line 7
R8   .                                   :Remarks Line 8
TCS  .        05 00 00                   :Time Circulation Stopped
TLAB .        14 30 25                   :Time Logger At Bottom
NMT  .        NOBARITE                   :HRDD Mud Type for Nuclear Devices
EPD  .F         5286.000000              :Elevation of Permanent Datum above Mean Sea Level
APD  .F          12.000000               :Elevation of Depth Reference (LMF) above Permanent Datum
#-----------------------------------------------------------------------------
~CURVE INFORMATION
#MNEM.UNIT   API CODE                                  DESCRIPTION
#---- -----  --------                                  -----------------------
DEPT .F                                                :DEPTH (BOREHOLE) {F10.1}
AT10 .OHMM                                             :Array Induction Two Foot Resistivity A10 {F11.4}
AT30 .OHMM                                             :Array Induction Two Foot Resistivity A30 {F11.4}
AT90 .OHMM                                             :Array Induction Two Foot Resistivity A90 {F11.4}
GR   .GAPI                                             :Gamma Ray {F11.4}
HCAL .IN                                               :HRCC Caliper Calibrated {F11.4}
HDRA .G/C3                                             :Density Standoff Correction {F11.4}
NPHI .CFCF                                             :Thermal Neutron Porosity (original Ratio Method) in Selected Lithology {F11.4}
PEFZ .                                                 :Standard Resolution Formation Photoelectric Factor {F11.4}
RHOZ .G/C3                                             :Standard Resolution Formation Density {F11.4}
SP   .MV                                               :Spontaneous Potential {F11.4}
TNPH .CFCF                                             :Thermal Neutron Porosity (Ratio Method) in Selected Lithology {F11.4}
#-----------------------------------------------------------------------------
# 
#     DEPT       AF10       AF20       AF30       AF60       AF90       AO10       AO20       AO30       AO60       AO90       AT10       AT20       AT30       AT60       AT90     AHFCO60      AHMF      AHORT      AHORX      AHSCA     AHTCO10    AHTCO20    AHTCO30    AHTCO60    AHTCO90     AHTD1      AHTD2      AHTRT      AHTRX       CDF        CFTC       CNTC       CTEM       DCAL       DNPH       DPHZ       DSOZ       ECGR        ED        GDEV        GR        GTEM       HCAL       HDRA       HDRB       HGR        HMIN       HMNO       HNPO       HPRA       HTNP        ND        NPHI       NPOR       PEFZ    PXND_HILT     RHOZ       RSOZ     RWA_HILT     RXO8       RXOZ        SP        SPAR       STIT       TENS       TNPH     HTNP_SAN
#
~A  DEPT AT10 AT30 AT90 GR HCAL HDRA NPHI PEFZ RHOZ SP TNPH
# ...
5955.0 3.4690 3.3364 3.2656 99.6228 8.0000 -0.0006 0.2662 2.7026 2.5378 -74.5089 0.2716
5955.5 3.4418 3.3356 3.2579 101.2442 7.9544 0.0055 0.2787 2.7268 2.5371 -74.5536 0.2624
5956.0 3.3887 3.3302 3.2609 106.9497 7.9772 0.0111 0.2869 2.8060 2.5417 -74.5089 0.2711
5956.5 3.3918 3.3309 3.2648 109.6732 7.9544 0.0235 0.2944 2.9351 2.5671 -74.1172 0.2819
5957.0 3.3504 3.3097 3.2367 112.7854 7.9544 0.0239 0.3005 3.0021 2.5763 -74.1607 0.2877
5957.5 3.2497 3.2119 3.1367 113.2068 7.9658 0.0214 0.3027 2.9941 2.5750 -74.2321 0.2885
5958.0 3.2980 3.2203 3.1496 109.6085 7.9544 0.0078 0.2920 2.9539 2.5511 -74.5446 0.2907
5958.5 3.4552 3.4122 3.3142 103.2867 7.9544 -0.0008 0.2735 2.9412 2.5267 -74.5234 0.2834
5959.0 3.4786 3.4297 3.3443 107.2737 7.9544 -0.0062 0.2753 2.9431 2.5104 -74.3036 0.2736
5959.5 3.3518 3.2872 3.2158 106.1069 7.9544 -0.0053 0.2715 2.8740 2.5183 -74.2232 0.2693
5960.0 3.3159 3.2382 3.1569 110.6130 7.9087 -0.0035 0.2677 2.8137 2.5322 -74.3304 0.2611
5960.5 3.3722 3.2939 3.2019 118.1345 7.9544 -0.0018 0.2571 2.8123 2.5444 -74.3750 0.2580
5961.0 3.3527 3.2410 3.1459 115.8649 7.9315 -0.0024 0.2709 2.8988 2.5378 -74.1786 0.2559
5961.5 3.1926 3.1202 3.0271 117.4210 7.9544 0.0000 0.2927 2.9505 2.5373 -74.0625 0.2762
5962.0 3.0152 2.9488 2.8619 109.5433 7.9315 0.0017 0.2890 2.9346 2.5365 -73.9141 0.2877
5962.5 3.0809 2.9952 2.8977 116.0920 7.9315 0.0024 0.2851 2.8746 2.5447 -73.6696 0.2813
5963.0 3.0745 3.0097 2.8994 107.3065 7.9315 -0.0014 0.2609 2.8595 2.5407 -73.5804 0.2695
5963.5 3.0456 2.9759 2.8798 105.0698 7.9315 -0.0047 0.2753 2.8934 2.5348 -73.6875 0.2545
5964.0 3.0121 2.9453 2.8492 99.6558 7.9087 -0.0060 0.2849 2.9250 2.5290 -73.5469 0.2719
5964.5 3.0393 2.9472 2.8593 103.7728 7.9087 -0.0045 0.2966 2.9182 2.5302 -73.6071 0.2805
5965.0 3.0315 2.9308 2.8440 106.9177 7.9087 -0.0005 0.2866 2.9095 2.5337 -73.7321 0.2902
5965.5 2.9316 2.8731 2.7970 104.8101 7.8859 0.0037 0.2744 2.9167 2.5251 -73.8571 0.2774
5966.0 2.9217 2.8204 2.7532 110.7754 7.8859 0.0074 0.2738 2.9343 2.5220 -73.9196 0.2713
5966.5 2.9838 2.9010 2.8321 113.4983 7.7604 0.0073 0.2725 2.9297 2.5154 -74.0078 0.2676
5967.0 3.0382 2.9633 2.8903 116.8698 7.8631 0.0069 0.2893 2.9442 2.5195 -74.0000 0.2641
5967.5 2.8878 2.8346 2.7584 116.3193 7.8631 0.0049 0.3150 2.9407 2.5088 -73.9554 0.2829
5968.0 2.8292 2.7574 2.6836 112.7854 7.8403 0.0059 0.3193 2.9376 2.5077 -73.7734 0.3122
5968.5 2.7445 2.6761 2.5961 116.7410 7.8631 0.0080 0.3248 2.9183 2.5141 -73.7679 0.3173
5969.0 2.7190 2.6670 2.5776 119.6255 7.8631 0.0117 0.3040 2.9195 2.5306 -73.5714 0.3197
5969.5 2.7947 2.7158 2.6193 120.2092 7.8631 0.0112 0.2993 2.9362 2.5433 -73.2857 0.3018
5970.0 2.8579 2.7821 2.6827 121.1812 7.8745 0.0134 0.2778 2.9762 2.5515 -73.2054 0.2884
5970.5 2.8222 2.7423 2.6453 116.7080 7.8174 0.0100 0.2757 2.9918 2.5333 -73.2031 0.2690
5971.0 2.7453 2.7150 2.6409 122.3484 7.8060 0.0292 0.2952 3.0347 2.5381 -73.4464 0.2742
5971.5 2.6404 2.5619 2.4976 120.5334 7.7946 0.0371 0.3017 3.0170 2.5321 -73.4821 0.2902
5972.0 2.7068 2.6352 2.5585 118.4906 7.8517 0.0438 0.2992 3.0003 2.5542 -73.4196 0.2868
5972.5 2.8227 2.7622 2.6553 112.0074 7.7490 0.0271 0.2824 2.9494 2.5521 -73.4531 0.2821
5973.0 2.9295 2.8359 2.7391 112.3961 7.8174 0.0198 0.2789 2.9528 2.5586 -73.4821 0.2676
5973.5 2.9794 2.8290 2.7430 114.5037 7.8403 0.0161 0.2782 2.9801 2.5543 -73.4196 0.2720
5974.0 2.9108 2.7936 2.7264 116.0274 7.8403 0.0151 0.2959 3.0081 2.5479 -73.3482 0.2712
5974.5 2.8915 2.7746 2.7014 120.5660 7.8517 0.0076 0.2800 3.0077 2.5492 -73.3750 0.2830
5975.0 2.9521 2.8686 2.7943 117.7775 7.8631 0.0017 0.2991 2.9907 2.5558 -73.3929 0.2719
5975.5 3.0939 2.9794 2.8873 117.5510 7.8403 -0.0072 0.2900 2.9822 2.5687 -73.4018 0.2905
5976.0 3.0717 2.9790 2.9063 111.5857 7.8403 -0.0012 0.3082 2.9945 2.5731 -73.2411 0.2863
5976.5 3.0643 2.9517 2.8988 115.8978 7.8403 0.0029 0.2983 3.0053 2.5714 -73.2656 0.2947
5977.0 3.1177 3.0087 2.9396 115.3783 7.8174 0.0092 0.2955 2.9879 2.5591 -73.2857 0.2864
5977.5 3.1608 3.0693 2.9826 118.1668 7.7946 0.0111 0.3040 3.0175 2.5497 -73.3839 0.2911
5978.0 3.0289 2.9252 2.8544 120.0145 7.7946 0.0242 0.3073 3.1089 2.5563 -73.3750 0.2983
5978.5 2.9059 2.8112 2.7561 125.9795 7.7718 0.0421 0.3320 3.2318 2.5736 -73.3661 0.3019
5979.0 2.8339 2.7570 2.7031 124.7479 7.7832 0.0455 0.3361 3.2958 2.5876 -73.2656 0.3234
5979.5 2.7622 2.6936 2.6407 122.2190 7.8174 0.0286 0.3318 3.3943 2.5972 -73.3839 0.3282
5980.0 2.7256 2.6306 2.5767 110.0302 7.7946 0.0126 0.3266 3.6272 2.6048 -73.5804 0.3259
5980.5 2.8257 2.6894 2.6401 107.8577 7.9315 0.0015 0.3226 3.7492 2.6155 -73.6484 0.3205
5981.0 2.8722 2.7547 2.7123 104.1622 7.9087 0.0012 0.3134 3.6394 2.6031 -73.5536 0.3075
5981.5 2.9475 2.7915 2.7191 113.4981 7.9315 -0.0027 0.2878 3.3186 2.5759 -73.5089 0.3019
5982.0 2.9194 2.7807 2.7048 115.3137 7.9087 0.0019 0.2983 3.1108 2.5329 -73.5804 0.2879
5982.5 2.8150 2.6832 2.6136 119.9821 7.9087 0.0244 0.3019 3.0780 2.5391 -73.5859 0.2946
5983.0 2.7904 2.6691 2.5829 117.1622 7.9315 0.0383 0.3018 3.0656 2.5404 -73.6607 0.2925
5983.5 2.7675 2.6544 2.5711 117.2590 7.9087 0.0367 0.2882 3.0146 2.5464 -73.4844 0.2878
5984.0 2.7282 2.6105 2.5385 115.8326 7.9315 0.0176 0.2933 2.9303 2.5219 -73.6518 0.2896
5984.5 2.7891 2.6774 2.5858 118.3936 7.9658 0.0218 0.2946 2.9170 2.5298 -73.6607 0.2995
5985.0 2.8456 2.7408 2.6330 118.0696 7.9087 0.0429 0.2733 2.9621 2.5409 -73.9688 0.2894
5985.5 2.8156 2.7102 2.6086 112.2340 7.8859 0.0600 0.2695 3.0077 2.5526 -74.1339 0.2645
5986.0 2.7445 2.6447 2.5579 109.8996 7.8859 0.0610 0.2799 3.0159 2.5572 -74.0625 0.2620
5986.5 2.7450 2.6461 2.5606 106.3334 7.9315 0.0400 0.2883 2.9851 2.5516 -74.0547 0.2659
5987.0 2.7990 2.6659 2.5931 111.0020 7.9087 0.0211 0.2981 2.9979 2.5440 -73.8304 0.2764
5987.5 2.7988 2.6880 2.6174 112.3639 7.9087 0.0092 0.3101 3.0410 2.5416 -73.8839 0.2893
5988.0 2.7558 2.6580 2.6038 121.4414 7.9087 0.0095 0.3199 3.0760 2.5422 -74.0859 0.3050
5988.5 2.7434 2.6456 2.5895 121.4738 7.9772 0.0131 0.3280 3.0321 2.5463 -74.0179 0.3122
5989.0 2.7004 2.6293 2.5784 124.7801 7.9544 0.0065 0.3158 2.9716 2.5196 -74.3906 0.3154
5989.5 2.6717 2.6258 2.5798 121.7652 7.9544 0.0029 0.3353 2.9322 2.5058 -74.1964 0.3144
5990.0 2.7336 2.6752 2.6302 130.2911 7.9430 -0.0026 0.3221 2.9519 2.4926 -73.6641 0.3293
5990.5 2.7781 2.6998 2.6443 133.3393 7.9772 0.0003 0.3252 2.9460 2.5148 -73.4018 0.3100
5991.0 2.8004 2.7238 2.7041 129.6110 7.9315 0.0086 0.3165 2.9618 2.5389 -73.4922 0.3200
5991.5 2.8253 2.7620 2.7230 120.5338 7.9087 0.0187 0.3056 2.9445 2.5628 -73.8125 0.3069
5992.0 2.8949 2.8251 2.7590 115.7678 7.9315 0.0175 0.2980 2.9045 2.5686 -73.9453 0.2896
5992.5 2.9974 2.8830 2.8470 114.4711 7.8859 0.0079 0.2728 2.8396 2.5820 -73.8036 0.2854
5993.0 2.9865 2.8773 2.8766 115.7030 7.8859 -0.0026 0.2770 2.8467 2.5794 -73.7411 0.2668
5993.5 3.0219 2.9196 2.9029 116.6431 7.9087 -0.0012 0.2681 2.9351 2.5742 -73.8516 0.2746
5994.0 3.1069 3.0002 2.9628 116.9028 7.8859 0.0119 0.2801 3.0005 2.5648 -73.9554 0.2679
5994.5 3.1476 3.0672 2.9947 117.4863 7.8859 0.0113 0.2755 3.0370 2.5591 -73.8125 0.2708
5995.0 3.1224 3.0357 2.9658 113.5958 7.9087 0.0063 0.2836 2.9934 2.5620 -73.6339 0.2602
5995.5 3.0586 3.0050 2.9531 121.5384 7.9087 -0.0052 0.2731 2.9501 2.5658 -73.4922 0.2710
5996.0 3.0852 2.9964 2.9482 116.3515 7.9087 -0.0021 0.2796 2.9234 2.5742 -73.5089 0.2652
5996.5 3.1444 3.0246 2.9687 113.4015 7.8859 0.0017 0.2784 2.9808 2.5736 -73.6797 0.2766
5997.0 3.0666 3.0147 2.9725 109.5436 7.9087 0.0040 0.2885 3.0761 2.5693 -73.8482 0.2761
5997.5 2.9881 2.9594 2.9123 109.0247 7.8973 0.0056 0.2954 3.1050 2.5664 -73.9375 0.2809
5998.0 3.0695 3.0016 2.9594 110.6782 7.8859 0.0027 0.2947 3.1087 2.5600 -73.9732 0.2799
5998.5 3.1031 3.0466 3.0023 110.9051 7.8859 -0.0019 0.2949 3.1235 2.5475 -73.8594 0.2826
5999.0 3.0633 3.0317 2.9943 114.0179 7.8859 -0.0042 0.2877 3.1189 2.5483 -73.8393 0.2875
5999.5 3.0738 3.0196 2.9855 112.8181 7.9087 -0.0049 0.2972 3.1178 2.5519 -73.9063 0.2813
6000.0 3.0720 3.0217 2.9778 106.6904 7.8859 -0.0057 0.2956 3.0996 2.5585 -73.8661 0.2922
