~VERSION INFORMATION
VERS.           1.2   :CWLS Log ASCII Standard - VERSION 1.2
WRAP.           NO    :One Line per depth step
PROD.  Schlumberger   :LAS Producer
PROG.  DLIS to ASCII 17C0-152                          :LAS Program name and version
CREA.        2013/08/16 09:04                          :LAS Creation date {YYYY/MM/DD hh:mm}
DLIS_CREA.  2013-Aug-16 00:16                          :DLIS Creation date and time {YYYY-MMM-DD hh:mm}
SOURCE.     960568ea-4174-41e0-a405-0f32a02141a6       :DLIS File Name
#--------------------------------------------------
~WELL INFORMATION
#MNEM.UNIT      DATA             DESCRIPTION
#---- ------ --------------   -----------------------------
STRT .F      457.0000        :START DEPTH        # original; data subset to 5500-8000
STOP .F      7701.0000       :STOP DEPTH        # original; data subset to 5500-8000
STEP .F       0.5000         :STEP       
NULL .          -999.25      :NULL VALUE
COMP .                 COMPANY:  Bear Oil & Gas, Inc.               
WELL .                    WELL:  Fornstrom 13-32A                   
FLD  .                   FIELD:  Wildcat                            
LOC  .                LOCATION:  SHL: NWSW 1925' FSL & 540" FWL     
CNTY .                  COUNTY:  Laramie                            
STAT .                   STATE:  Wyoming                            
CTRY .                 COUNTRY:  United States                      
SRVC .         SERVICE COMPANY:  Schlumberger                       
LATI .DEG             LATITUDE:  41.307320 degrees                  
LONG .DEG            LONGITUDE:  -104.11715 degrees                 
API  .              API NUMBER:  49-021-21022                       
DATE .                LOG DATE:  15-Aug-2013
UWI  .          UNIQUE WELL ID:  49021210220000                     
#-----------------------------------------------------------------------------
~PARAMETER INFORMATION
#MNEM.UNIT    VALUE                      DESCRIPTION
#---- -----   --------------------       ------------------------
CN   .        Bear Oil & Gas  Inc.       :Company Name
WN   .        Fornstrom 13-32A           :Well Name
FN   .        Wildcat                    :Field Name
FL   .        SHL  NWSW 1925' FSL & 540  FWL :Field Location
FL1  .        Sec. 32  T. 16N  R. 60W    :Field Location, Line 1
COUN .        Laramie                    :County or Parish
STAT .        Wyoming                    :State or Province
NATI .        United States              :Nation
DATE .        15-Aug-2013                :Tools Above Rotary Table Date
APIN .        49-021-21022               :API Well Number
SECT .        32                         :Section
TOWN .        16N                        :Township
RANG .        60W                        :Range
DMF  .        KB                         :Drilling Measured From (Name of Drilling Elevation Reference)
LMF  .        KB                         :Logging Measured From (Name of Logging Elevation Reference)
PDAT .        GL                         :Permanent Datum
ENGI .        Max Pace                   :Engineer s Name
WITN .        Tery Eittreim              :Witness s Name
LATI .        41.307320 degrees          :Latitude
LONG .        -104.11715 degrees         :Longitude
LUL  .        Fort Morgan  CO            :Logging Unit Location
LUN  .        3030                       :Logging Unit Number
RUN  .        Run 1                      :Run Number
SON  .        CA0R-00040                 :Service Order Number
BHT  .DEGF     168.00000                 :Bottom Hole Temperature
BS   .IN         7.87500                 :Bit Size
MDEN .G/C3       2.65000                 :Matrix Density for Density Porosity
DFD  .LB/G       8.80000                 :Drilling Fluid Density
DFV  .S         36.00000                 :Drilling Fluid Viscosity
DFL  .C3         5.00000                 :Drilling Fluid Loss
RMFS .OHMM       1.11000                 :Resistivity of Mud Filtrate Sample
EKB  .F       5298.00000                 :Elevation of Kelly Bushing
EGL  .F       5286.00000                 :Elevation of Ground Level
BLI  .F       7687.00000                 :Bottom Log Interval
BSAL .PPM     3295.90967                 :Borehole Salinity
FLEV .F          8.00000                 :Depth of Drilling Fluid Level to LMF (Log Measured From)
MCST .DEGF      84.00000                 :Mudcake Sample Temperature
MFST .DEGF      84.00000                 :Mud Filtrate Sample Temperature
MRT  .DEGF     168.00000                 :Maximum Recorded Temperature
MST  .DEGF      84.00000                 :Mud Sample Temperature
RMCS .OHMM       1.85000                 :Resistivity of Mud Cake Sample
RMS  .OHMM       1.48000                 :Resistivity of Mud Sample
RW   .OHMM       1.00000                 :Connate Water Resistivity
TDD  .F       7680.00000                 :Driller Total Depth
TDL  .F       7687.00000                 :Logger Total Depth
TLI  .F       1026.25000                 :Top Log Interval
HIDE .        Wildcat                    :Header Identifier
MATR .        SAND                       :Rock Matrix for Neutron Porosity Corrections
FNUM .           1.00000                 :F-Numerator for Formation Factor Formula
FEXP .           2.00000                 :Exponent "m" for Formation Factor Formula
DFT  .        Fresh Water                :Drilling Fluid Type
DFPH .           8.50000                 :Drilling Fluid pH
MCSS .        Calculated                 :Mudcake Sample Source
MFSS .        Calculated                 :Mud Filtrate Sample Source
FD   .G/C3       1.00000                 :Fluid Density
MSS  .        Active Tank                :Mud Sample Source
OS1  .                                   :Other Services Line 1
OS2  .                                   :Other Services Line 2
OS3  .                                   :Other Services Line 3
OS4  .                                   :Other Services Line 4
OS5  .                                   :Other Services Line 5
R1   .                                   :Remarks Line 1
R2   .                                   :Remarks Line 2
R3   .                                   :Remarks Line 3
R4   .                                   :Remarks Line 4
R5   .                                   :Remarks Line 5
R6   .                                   :Remarks Line 6
R7   .                                   :Remarks Line 7
R8   .                                   :Remarks Line 8
TCS  .        14 00 00                   :Time Circulation Stopped
TLAB .        22 20 59                   :Time Logger At Bottom
NMT  .        NOBARITE                   :HRDD Mud Type for Nuclear Devices
EPD  .F         5286.000000              :Elevation of Permanent Datum above Mean Sea Level
APD  .F          12.000000               :Elevation of Depth Reference (LMF) above Permanent Datum
#-----------------------------------------------------------------------------
~CURVE INFORMATION
#MNEM.UNIT   API CODE                                  DESCRIPTION
#---- -----  --------                                  -----------------------
DEPT .F                                                :DEPTH (BOREHOLE) {F12.4}
AT10 .OHMM                                             :Array Induction Two Foot Resistivity A10 {F11.4}
AT30 .OHMM                                             :Array Induction Two Foot Resistivity A30 {F11.4}
AT90 .OHMM                                             :Array Induction Two Foot Resistivity A90 {F11.4}
GR   .GAPI                                             :Gamma Ray {F11.4}
HCAL .IN                                               :HRCC Caliper Calibrated {F11.4}
HDRA .G/C3                                             :Density Standoff Correction {F11.4}
NPHI .CFCF                                             :Thermal Neutron Porosity (original Ratio Method) in Selected Lithology {F11.4}
PEFZ .                                                 :Standard Resolution Formation Photoelectric Factor {F11.4}
RHOZ .G/C3                                             :Standard Resolution Formation Density {F11.4}
SP   .MV                                               :Spontaneous Potential {F11.4}
TNPH .CFCF                                             :Thermal Neutron Porosity (Ratio Method) in Selected Lithology {F11.4}
#-----------------------------------------------------------------------------
# 
#      DEPT        AF10       AF20       AF30       AF60       AF90       AO10       AO20       AO30       AO60       AO90       AT10       AT20       AT30       AT60       AT90     AHFCO60      AHMF      AHORT      AHORX      AHSCA     AHTCO10    AHTCO20    AHTCO30    AHTCO60    AHTCO90     AHTD1      AHTD2      AHTRT      AHTRX       CDF        CFTC       CNTC       CTEM       DCAL       DNPH       DPHZ       DSOZ       ECGR        ED        GDEV        GR        GTEM       HCAL       HDRA       HDRB       HGR        HMIN       HMNO       HNPO       HPRA       HTNP        ND        NPHI       NPOR       PEFZ    PXND_HILT     RHOZ       RSOZ     RWA_HILT     RXO8       RXOZ        SP        SPAR       STIT       TENS       TNPH     HTNP_SAN
#
~A  DEPT AT10 AT30 AT90 GR HCAL HDRA NPHI PEFZ RHOZ SP TNPH
# ...
5811.5000 1.7331 1.6478 1.6035 94.2064 8.0379 0.0951 0.3552 3.2566 2.4648 52.9219 0.3343
5812.0000 1.7082 1.6244 1.5780 92.9647 8.0841 0.0821 0.4008 3.2031 2.4659 52.9286 0.3444
5812.5000 1.7450 1.6436 1.5929 93.1766 8.2460 0.0685 0.4038 3.1476 2.4638 52.7656 0.3684
5813.0000 1.8001 1.7035 1.6425 97.5366 8.0610 0.0663 0.3997 3.1299 2.4741 53.1339 0.3731
5813.5000 1.8302 1.7275 1.6594 97.5069 7.9686 0.0635 0.3673 3.1189 2.4807 53.0703 0.3801
5814.0000 1.8660 1.7589 1.6973 100.0202 8.0148 0.0663 0.3753 3.1505 2.4973 53.6161 0.3531
5814.5000 1.9043 1.7862 1.7265 97.9013 8.1304 0.0641 0.3730 3.2043 2.5008 53.5234 0.3640
5815.0000 1.8682 1.7671 1.7096 96.2356 8.1304 0.0690 0.3669 3.2485 2.4952 53.0268 0.3667
5815.5000 1.8264 1.7285 1.6794 97.1139 8.0841 0.0725 0.3505 3.2232 2.4757 53.2578 0.3592
5816.0000 1.8085 1.7147 1.6640 101.1709 8.1997 0.0858 0.3576 3.1747 2.4574 52.9643 0.3446
5816.5000 1.7814 1.6947 1.6442 104.1085 8.0841 0.0977 0.3831 3.1507 2.4409 52.8672 0.3472
5817.0000 1.7633 1.6771 1.6300 107.5903 8.0841 0.1114 0.3940 3.1535 2.4481 53.0000 0.3669
5817.5000 1.7481 1.6612 1.6142 106.7128 8.1073 0.1097 0.3658 3.1545 2.4587 52.9453 0.3807
5818.0000 1.7455 1.6536 1.6059 101.8368 8.1073 0.1024 0.3418 3.1616 2.4759 53.5625 0.3520
5818.5000 1.7420 1.6535 1.6030 97.0832 8.1766 0.0931 0.3428 3.1786 2.4887 53.2734 0.3370
5819.0000 1.7430 1.6522 1.6033 95.0542 8.1419 0.0799 0.3570 3.1540 2.4817 52.9911 0.3386
5819.5000 1.7266 1.6298 1.5825 100.5656 8.2691 0.0720 0.3495 3.0941 2.4697 53.2500 0.3439
5820.0000 1.7155 1.6222 1.5693 101.2013 8.2691 0.0614 0.3544 3.0363 2.4570 52.7679 0.3398
5820.5000 1.7155 1.6211 1.5657 100.9590 8.2922 0.0578 0.3518 3.0225 2.4587 53.0703 0.3504
5821.0000 1.7035 1.6068 1.5487 101.8068 8.1766 0.0557 0.3749 3.0306 2.4666 52.9643 0.3439
5821.5000 1.6858 1.5930 1.5343 99.0515 8.2229 0.0590 0.3707 3.0467 2.4656 52.8906 0.3503
5822.0000 1.6892 1.6020 1.5369 100.2629 8.1997 0.0738 0.3876 3.0879 2.4758 53.5089 0.3525
5822.5000 1.7015 1.6079 1.5411 92.8442 8.2691 0.0807 0.3829 3.1232 2.4842 53.3984 0.3777
5823.0000 1.7151 1.6188 1.5502 93.4193 8.3153 0.0817 0.3933 3.1079 2.4972 53.8661 0.3741
5823.5000 1.7270 1.6323 1.5630 93.6308 8.2229 0.0692 0.3663 3.0648 2.4992 53.8125 0.3680
5824.0000 1.7593 1.6531 1.5771 97.3556 8.1997 0.0576 0.3480 3.0749 2.4939 53.4922 0.3377
5824.5000 1.7974 1.6975 1.6252 98.0822 8.1073 0.0636 0.3114 3.1586 2.4853 53.5089 0.3355
5825.0000 1.7846 1.6805 1.6098 94.0551 8.1766 0.0852 0.3024 3.2191 2.4806 52.6161 0.3222
5825.5000 1.7332 1.6320 1.5762 95.9934 8.1419 0.0986 0.3367 3.1654 2.4728 52.9297 0.3083
5826.0000 1.6945 1.6045 1.5485 98.9309 8.1535 0.0969 0.3927 3.0627 2.4730 53.3393 0.3274
5826.5000 1.6717 1.5895 1.5370 107.8331 8.1882 0.0855 0.4112 2.9898 2.4716 53.2578 0.3635
5827.0000 1.6953 1.6141 1.5609 112.1331 8.1997 0.0760 0.3846 2.9619 2.4772 53.5000 0.3705
5827.5000 1.7292 1.6422 1.5886 110.8913 8.2229 0.0667 0.3616 2.9467 2.4737 53.2857 0.3580
5828.0000 1.7634 1.6728 1.6210 113.0110 8.2229 0.0544 0.3767 2.9306 2.4682 53.2188 0.3540
5828.5000 1.7801 1.6844 1.6318 113.0716 8.1766 0.0484 0.3709 2.9305 2.4663 53.3571 0.3717
5829.0000 1.7738 1.6736 1.6278 109.6497 8.1535 0.0522 0.3662 2.9459 2.4725 52.9844 0.3579
5829.5000 1.7180 1.6324 1.5885 106.5616 8.2229 0.0650 0.3633 2.9619 2.4654 53.1875 0.3544
5830.0000 1.6715 1.5876 1.5558 102.6853 8.3616 0.0906 0.3918 3.0103 2.4614 53.0625 0.3558
5830.5000 1.6881 1.5909 1.5515 102.4734 8.2575 0.1037 0.4095 3.0837 2.4488 53.2500 0.3743
5831.0000 1.6813 1.6043 1.5603 97.2948 8.2229 0.1064 0.4328 3.1685 2.4493 53.5938 0.3893
5831.5000 1.6534 1.5739 1.5329 103.5935 8.2691 0.0957 0.4138 3.2059 2.4465 53.2054 0.4175
5832.0000 1.6271 1.5404 1.5021 108.6808 8.2229 0.0840 0.3862 3.1718 2.4428 53.6016 0.3996
5832.5000 1.6556 1.5565 1.5134 106.1374 8.1997 0.0784 0.3641 3.1146 2.4519 53.7143 0.3683
5833.0000 1.6791 1.5877 1.5415 97.9008 8.1766 0.0817 0.3646 3.0857 2.4614 53.4688 0.3539
5833.5000 1.6923 1.6007 1.5517 94.5089 8.2460 0.0870 0.3669 3.0883 2.4780 53.7321 0.3525
5834.0000 1.7030 1.6108 1.5657 103.9262 8.2229 0.0858 0.3728 3.0827 2.4808 53.4911 0.3494
5834.5000 1.7461 1.6447 1.5907 107.9839 8.2691 0.0793 0.3712 3.0722 2.4894 54.1406 0.3511
5835.0000 1.7860 1.6795 1.6237 112.3444 8.1997 0.0719 0.3799 3.0789 2.4921 53.9107 0.3550
5835.5000 1.7929 1.6791 1.6270 110.7700 8.1766 0.0706 0.3710 3.1180 2.4927 53.5000 0.3626
5836.0000 1.7424 1.6452 1.5959 109.3772 8.1535 0.0788 0.3533 3.1739 2.4824 53.6641 0.3637
5836.5000 1.6963 1.5929 1.5483 110.9523 8.2460 0.0857 0.3519 3.2001 2.4751 53.2857 0.3553
5837.0000 1.7112 1.6050 1.5616 106.7128 8.1535 0.0866 0.3537 3.2050 2.4702 53.3750 0.3437
5837.5000 1.7716 1.6650 1.6124 112.7693 8.2229 0.0836 0.3755 3.2051 2.4895 53.5804 0.3421
5838.0000 1.8095 1.6969 1.6415 112.8903 8.2229 0.0828 0.3941 3.2221 2.5085 53.5078 0.3605
5838.5000 1.8256 1.7063 1.6538 114.1624 8.2229 0.0780 0.3986 3.2296 2.5183 53.8750 0.3745
5839.0000 1.8497 1.7330 1.6780 107.3788 8.2691 0.0629 0.3816 3.2296 2.5250 53.8047 0.3721
5839.5000 1.9178 1.7837 1.7254 108.3174 8.2229 0.0461 0.3799 3.2275 2.5397 53.8304 0.3589
5840.0000 1.9794 1.8555 1.7924 101.2312 8.1882 0.0349 0.3661 3.2304 2.5543 53.9297 0.3672
5840.5000 1.9996 1.8808 1.8207 102.5033 8.1766 0.0239 0.3640 3.1910 2.5403 53.5982 0.3560
5841.0000 2.0037 1.8721 1.8159 97.2043 8.1419 0.0169 0.3562 3.1210 2.5155 53.7266 0.3541
5841.5000 1.9772 1.8524 1.8005 108.3480 8.1304 0.0124 0.3492 3.0345 2.5073 53.5982 0.3371
5842.0000 2.0529 1.9173 1.8663 108.9836 8.1419 0.0178 0.3518 2.9836 2.5203 53.5469 0.3249
5842.5000 2.1334 1.9964 1.9399 110.6794 8.1766 0.0176 0.3227 2.9625 2.5173 53.9375 0.3289
5843.0000 2.1192 1.9872 1.9367 107.4696 8.1535 0.0182 0.3369 2.9767 2.5088 53.9219 0.3172
5843.5000 2.1097 1.9812 1.9447 102.4126 8.1304 0.0181 0.3206 3.0320 2.5005 53.7946 0.3389
5844.0000 2.1623 2.0411 1.9939 105.1680 8.0841 0.0294 0.3302 3.1050 2.5208 53.6016 0.3187
5844.5000 2.1883 2.0510 2.0054 105.4708 8.0379 0.0379 0.3254 3.1353 2.5361 53.1161 0.3212
5845.0000 2.0736 1.9724 1.9335 116.2511 8.1073 0.0448 0.3519 3.0919 2.5383 53.2813 0.3129
5845.5000 2.0260 1.9158 1.8772 111.0732 8.1304 0.0495 0.3858 3.0432 2.5251 53.0982 0.3421
5846.0000 1.9824 1.8850 1.8436 113.3138 8.1419 0.0597 0.3748 3.0596 2.5183 53.1484 0.3738
5846.5000 1.9853 1.8888 1.8411 113.9199 8.1766 0.0669 0.3675 3.1164 2.5089 53.3482 0.3666
5847.0000 2.0029 1.9019 1.8485 116.1305 8.1766 0.0709 0.3494 3.1460 2.5094 53.1172 0.3592
5847.5000 2.0236 1.9173 1.8583 111.2246 8.1304 0.0692 0.3790 3.1201 2.5071 53.4554 0.3454
5848.0000 2.0301 1.9227 1.8580 110.9818 8.1535 0.0626 0.3782 3.0846 2.5119 53.5234 0.3592
5848.5000 2.0108 1.9051 1.8374 108.4382 8.1997 0.0549 0.3813 3.1242 2.5238 53.6518 0.3580
5849.0000 1.9895 1.8698 1.8107 110.5885 8.1997 0.0474 0.3710 3.2050 2.5209 53.7266 0.3830
5849.5000 1.9031 1.8348 1.7708 101.1408 8.2113 0.0539 0.3839 3.2920 2.5174 53.0859 0.3797
5850.0000 1.8367 1.7349 1.6924 102.9272 8.2229 0.0623 0.3381 3.3018 2.5075 53.0268 0.3820
5850.5000 1.8132 1.7129 1.6608 102.7153 8.2229 0.0689 0.3442 3.2768 2.5159 52.9732 0.3291
5851.0000 1.8591 1.7461 1.6881 102.4733 8.2691 0.0622 0.3307 3.2220 2.5224 53.3828 0.3267
5851.5000 1.8893 1.7859 1.7168 105.5621 8.2344 0.0491 0.3576 3.1552 2.5160 53.8828 0.3229
5852.0000 1.8695 1.7653 1.6999 108.9538 8.1997 0.0354 0.3352 3.0887 2.5037 53.4643 0.3407
5852.5000 1.8425 1.7353 1.6691 114.6767 8.1997 0.0286 0.3427 3.0426 2.4953 53.3906 0.3233
5853.0000 1.8112 1.7087 1.6496 118.1285 8.1304 0.0285 0.3348 3.0328 2.4982 53.2143 0.3350
5853.5000 1.8883 1.7701 1.7062 115.1606 8.2229 0.0325 0.3573 3.0637 2.5091 52.7656 0.3273
5854.0000 1.9492 1.8396 1.7620 115.4943 8.1997 0.0255 0.3649 3.1295 2.5156 53.1875 0.3421
5854.5000 2.0457 1.8963 1.8243 107.1664 8.1997 0.0242 0.3784 3.2263 2.5155 53.0625 0.3487
5855.0000 2.0103 1.9130 1.8376 106.5007 8.1766 0.0344 0.3779 3.3068 2.5249 53.0804 0.3603
5855.5000 1.9977 1.8742 1.8164 98.5063 8.2460 0.0504 0.3686 3.3039 2.5331 52.9297 0.3591
5856.0000 1.9567 1.8410 1.7742 101.8984 8.1766 0.0550 0.3553 3.2196 2.5447 52.9911 0.3540
