~VERSION INFORMATION
VERS.           2.0   :CWLS Log ASCII Standard - VERSION 2.0
WRAP.           NO    :One Line per depth step
PROD.  Schlumberger   :LAS Producer
PROG.  DLIS to ASCII 19C2-270                          :LAS Program name and version
CREA.        2013/09/21 19:52                          :LAS Creation date {YYYY/MM/DD hh:mm}
DLIS_CREA.  2013-Sep-21 19:47                          :DLIS Creation date and time {YYYY-MMM-DD hh:mm}
SOURCE.     49-021-21035_McGahan Farms 42-31_Run_PEX_Mainpass.dlis  :DLIS File Name
FILE-ID.     MaxWell_3Dlis                             :File Identification Number
#--------------------------------------------------
~WELL INFORMATION
#MNEM.UNIT      DATA             DESCRIPTION
#---- ------ --------------   -----------------------------
STRT .F      1000.5          :START DEPTH        # original; data subset to 5500-8000
STOP .F      7716.5          :STOP DEPTH        # original; data subset to 5500-8000
STEP .F       0.5            :STEP     
NULL .          -999.25      :NULL VALUE
COMP .        Bear Oil & Gas, Inc                      :COMPANY
WELL .        McGahan Farms 42-31                      :WELL
FLD  .        Wildcat                                  :FIELD
LOC  .        Lat/Long: 41.3098/-104.1197              :LOCATION
CNTY .        Laramie                                  :COUNTY
STAT .        Wyoming                                  :STATE
CTRY .        USA                                      :COUNTRY
API  .        49-021-21035                             :API NUMBER
UWI  .        49021210350000                           :UNIQUE WELL ID
DATE .        21-Sep-2013                              :LOG DATE {DD-MMM-YYYY}
SRVC .        Schlumberger                             :SERVICE COMPANY
LATI .DEG     41.309800 degrees                        :LATITUDE
LONG .DEG     -104.11970 degrees                       :LONGITUDE
GDAT .                                                 :GeoDetic Datum
SECT .        31                                       :Section
RANG .        60W                                      :Range
TOWN .        16N                                      :Township
#-----------------------------------------------------------------------------
~PARAMETER INFORMATION
#MNEM.UNIT    VALUE                      DESCRIPTION
#---- -----   --------------------       ------------------------
CN   .        Bear Oil & Gas  Inc        :Company Name
WN   .        McGahan Farms 42-31        :Well Name
FN   .        Wildcat                    :Field Name
FL   .        Lat/Long  41.3098/-104.1197 :Field Location
FL1  .        SHL   2375' FNL X 190' FEL SENE :Field Location, Line 1
COUN .        Laramie                    :County or Parish
STAT .        Wyoming                    :State or Province
NATI .        USA                        :Nation
DATE .        21-Sep-2013                :Tools Above Rotary Table Date
APIN .        49-021-21035               :API Well Number
SECT .        31                         :Section
TOWN .        16N                        :Township
RANG .        60W                        :Range
DMF  .        KB                         :Drilling Measured From (Name of Drilling Elevation Reference)
LMF  .        KB                         :Logging Measured From (Name of Logging Elevation Reference)
PDAT .        GL                         :Permanent Datum
ENGI .        Arvin Shi                  :Engineer s Name
WITN .        Terry Eittreim             :Witness s Name
LATI .        41.309800 degrees          :Latitude
LONG .        -104.11970 degrees         :Longitude
LUL  .        Fort Morgan                :Logging Unit Location
LUN  .        3022                       :Logging Unit Number
RUN  .        Run 1                      :Run Number
SON  .        C6VJ-00079                 :Service Order Number
BHT  .DEGF     175.00000                 :Bottom Hole Temperature
BS   .IN         7.87500                 :Bit Size
MDEN .G/C3       2.65000                 :Matrix Density for Density Porosity
DFD  .LB/G       9.20000                 :Drilling Fluid Density
DFV  .S         80.00000                 :Drilling Fluid Viscosity
DFL  .C3      -999.25000                 :Drilling Fluid Loss
RMFS .OHMM       0.96000                 :Resistivity of Mud Filtrate Sample
EKB  .F       5307.00000                 :Elevation of Kelly Bushing
EGL  .F       5295.00000                 :Elevation of Ground Level
BLI  .F       7700.00000                 :Bottom Log Interval
BSAL .PPM     3275.14868                 :Borehole Salinity
FLEV .F          8.00000                 :Depth of Drilling Fluid Level to LMF (Log Measured From)
MCST .DEGF      98.00000                 :Mudcake Sample Temperature
MFST .DEGF      98.00000                 :Mud Filtrate Sample Temperature
MRT  .DEGF     175.00000                 :Maximum Recorded Temperature
MST  .DEGF      98.00000                 :Mud Sample Temperature
RMCS .OHMM       1.60000                 :Resistivity of Mud Cake Sample
RMS  .OHMM       1.28000                 :Resistivity of Mud Sample
RW   .OHMM       1.00000                 :Connate Water Resistivity
TDD  .F       7697.00000                 :Driller Total Depth
TDL  .F       7700.00000                 :Logger Total Depth
TLI  .F       1018.00000                 :Top Log Interval
HIDE .        Wildcat                    :Header Identifier
MATR .        SAND                       :Rock Matrix for Neutron Porosity Corrections
FNUM .           1.00000                 :F-Numerator for Formation Factor Formula
FEXP .           2.00000                 :Exponent "m" for Formation Factor Formula
DFT  .        Chemical Gel               :Drilling Fluid Type
DFPH .        -999.25000                 :Drilling Fluid pH
MCSS .        Calculated                 :Mudcake Sample Source
MFSS .        Calculated                 :Mud Filtrate Sample Source
FD   .G/C3       1.00000                 :Fluid Density
MSS  .        Flowline                   :Mud Sample Source
OS1  .                                   :Other Services Line 1
OS2  .                                   :Other Services Line 2
OS3  .                                   :Other Services Line 3
OS4  .                                   :Other Services Line 4
OS5  .                                   :Other Services Line 5
R1   .                                   :Remarks Line 1
R2   .                                   :Remarks Line 2
R3   .                                   :Remarks Line 3
R4   .                                   :Remarks Line 4
R5   .                                   :Remarks Line 5
R6   .                                   :Remarks Line 6
R7   .                                   :Remarks Line 7
R8   .                                   :Remarks Line 8
TCS  .        11 00 00                   :Time Circulation Stopped
TLAB .        17 20 49                   :Time Logger At Bottom
NMT  .        NOBARITE                   :HRDD Mud Type for Nuclear Devices
EPD  .C3         5295.000000             :Elevation of Permanent Datum above Mean Sea Level
APD  .F          12.000000               :Elevation of Depth Reference (LMF) above Permanent Datum
#-----------------------------------------------------------------------------
~CURVE INFORMATION
#MNEM.UNIT   API CODE                                  DESCRIPTION
#---- -----  --------                                  -----------------------
DEPT .F                                                :DEPTH (BOREHOLE) {F10.1}
AT10 .OHMM                                             :Array Induction Two Foot Resistivity A10 {F11.4}
AT30 .OHMM                                             :Array Induction Two Foot Resistivity A30 {F11.4}
AT90 .OHMM                                             :Array Induction Two Foot Resistivity A90 {F11.4}
GR   .GAPI                                             :Gamma Ray {F11.4}
HCAL .IN                                               :HRCC Caliper Calibrated {F11.4}
HDRA .G/C3                                             :Density Standoff Correction {F11.4}
NPHI .CFCF                                             :Thermal Neutron Porosity (original Ratio Method) in Selected Lithology {F11.4}
PEFZ .                                                 :Standard Resolution Formation Photoelectric Factor {F11.4}
RHOZ .G/C3                                             :Standard Resolution Formation Density {F11.4}
SP   .MV                                               :Spontaneous Potential {F11.4}
TNPH .CFCF                                             :Thermal Neutron Porosity (Ratio Method) in Selected Lithology {F11.4}
#-----------------------------------------------------------------------------
# 
#     DEPT       AF10       AF20       AF30       AF60       AF90       AO10       AO20       AO30       AO60       AO90       AT10       AT20       AT30       AT60       AT90     AHFCO60      AHMF      AHORT      AHORX      AHSCA     AHTCO10    AHTCO20    AHTCO30    AHTCO60    AHTCO90     AHTD1      AHTD2      AHTRT      AHTRX       CDF        CFTC       CNTC       CTEM       DCAL       DNPH       DPHZ       DSOZ       ECGR        ED        GDEV        GR        GTEM       HCAL       HDRA       HDRB       HGR        HMIN       HMNO       HNPO       HPRA       HTNP        ND        NPHI       NPOR       PEFZ    PXND_HILT     RHOZ       RSOZ     RWA_HILT     RXO8       RXOZ        SP        SPAR       STIT       TENS       TNPH     HTNP_SAN
#
~A  DEPT AT10 AT30 AT90 GR HCAL HDRA NPHI PEFZ RHOZ SP TNPH
# ...
5953.0 3.5714 3.3781 3.2594 97.3306 8.1920 -0.0069 0.2616 2.9700 2.5375 -358.4271 0.2488
5953.5 3.6243 3.4652 3.3261 97.8596 8.2580 -0.0058 0.2487 2.9445 2.5452 -358.1458 0.2507
5954.0 3.6664 3.4561 3.3294 104.2066 8.1920 -0.0052 0.2531 2.9203 2.5429 -358.0000 0.2429
5954.5 3.5078 3.3733 3.2435 94.1565 8.1700 -0.0013 0.2630 2.8989 2.5437 -358.0104 0.2502
5955.0 3.3732 3.2094 3.1089 94.9496 8.1480 0.0006 0.3047 2.9234 2.5325 -358.0208 0.2699
5955.5 3.2672 3.1310 3.0175 87.2800 8.3019 0.0020 0.3063 2.9278 2.5306 -358.0000 0.3121
5956.0 3.4614 3.2332 3.1106 92.8338 8.2360 0.0005 0.3032 2.9121 2.5342 -357.9583 0.3012
5956.5 3.5565 3.4070 3.2482 92.0406 8.1920 -0.0029 0.2754 2.9145 2.5350 -358.0313 0.2833
5957.0 3.5784 3.4554 3.3044 93.3627 8.1920 -0.0032 0.2864 2.9006 2.5455 -358.1563 0.2645
5957.5 3.4800 3.3234 3.1908 99.3405 8.1920 -0.0037 0.2835 2.8833 2.5505 -358.0938 0.2816
5958.0 3.4376 3.2667 3.1248 98.0181 8.1700 -0.0060 0.2741 2.8833 2.5486 -358.0104 0.2855
5958.5 3.4640 3.3136 3.1697 97.2248 8.1261 -0.0068 0.2537 2.8637 2.5516 -358.0625 0.2708
5959.0 3.4751 3.3346 3.1954 97.0661 8.0601 -0.0052 0.2432 2.8615 2.5576 -358.0208 0.2533
5959.5 3.4327 3.3013 3.1705 91.2472 8.0601 -0.0008 0.2488 2.8477 2.5614 -357.9479 0.2407
5960.0 3.4052 3.2645 3.1292 90.4537 8.0381 0.0009 0.2495 2.8823 2.5481 -357.9896 0.2395
5960.5 3.3402 3.2108 3.0928 91.2470 8.0381 -0.0000 0.2680 2.9302 2.5210 -358.3000 0.2408
5961.0 3.3343 3.1919 3.0687 100.7686 7.9722 0.0059 0.2749 2.9594 2.5246 -358.5729 0.2616
5961.5 3.3140 3.1780 3.0594 104.4721 8.0381 0.0205 0.2786 2.9915 2.5297 -358.6667 0.2651
5962.0 3.2391 3.1376 3.0254 97.8594 8.0601 0.0433 0.2872 3.0313 2.5352 -358.3542 0.2753
5962.5 3.1361 3.0194 2.9293 93.8922 8.0601 0.0518 0.2995 3.0405 2.5263 -357.9896 0.2858
5963.0 2.9849 2.8759 2.7907 94.1559 8.0601 0.0440 0.2941 2.9916 2.5174 -358.0625 0.2954
5963.5 3.0468 2.9076 2.7901 94.6852 8.0381 0.0335 0.2879 2.9343 2.5208 -358.1146 0.2819
5964.0 3.0604 2.9354 2.8217 97.0659 8.0381 0.0336 0.2765 2.9050 2.5275 -358.1250 0.2738
5964.5 3.0059 2.8995 2.7950 101.3503 8.1041 0.0371 0.2878 2.9051 2.5445 -357.8333 0.2770
5965.0 2.9952 2.8626 2.7611 109.5492 8.0821 0.0250 0.2735 2.8857 2.5455 -357.6667 0.2851
5965.5 3.0485 2.9029 2.8041 114.3101 8.1261 0.0132 0.2718 2.8781 2.5445 -357.9063 0.2582
5966.0 3.0364 2.9317 2.8306 108.9682 8.0601 0.0060 0.2735 2.8727 2.5335 -357.9688 0.2573
5966.5 3.0142 2.9046 2.8127 106.0589 8.1041 0.0085 0.2708 2.8681 2.5292 -357.9688 0.2576
5967.0 3.0568 2.8861 2.7923 103.9420 8.0381 0.0149 0.2777 2.8785 2.5268 -358.0938 0.2592
5967.5 3.0901 2.9773 2.8820 102.3551 8.0601 0.0267 0.2821 2.9284 2.5223 -358.1146 0.2698
5968.0 3.0500 2.9284 2.8407 100.7682 8.0381 0.0513 0.3043 3.0208 2.5358 -358.0104 0.2823
5968.5 2.9265 2.8213 2.7489 97.8590 8.0381 0.0589 0.3078 3.0713 2.5220 -357.8125 0.3094
5969.0 2.8324 2.7159 2.6549 98.1235 8.0601 0.0642 0.3214 3.0755 2.5236 -357.8438 0.3065
5969.5 2.7349 2.6267 2.5486 101.1388 8.0161 0.0596 0.3128 3.0506 2.5096 -357.8229 0.3219
5970.0 2.8321 2.6538 2.5746 102.1969 8.0381 0.0578 0.3002 3.0234 2.5166 -357.5208 0.3098
5970.5 2.9620 2.8182 2.7062 101.9328 7.9282 0.0460 0.2708 2.9842 2.5297 -357.3333 0.2857
5971.0 3.1560 2.9837 2.8561 96.2722 7.9282 0.0238 0.2722 2.9434 2.5312 -357.4583 0.2605
5971.5 3.1569 3.0231 2.8961 95.2148 7.8622 0.0146 0.2746 2.9511 2.5438 -357.6000 0.2575
5972.0 3.1230 2.9786 2.8603 94.1567 7.9941 0.0144 0.3006 2.9978 2.5428 -357.7708 0.2610
5972.5 3.1488 2.9968 2.8669 96.5369 7.9722 0.0161 0.3017 3.0342 2.5464 -357.8229 0.2924
5973.0 3.2076 3.0686 2.9374 102.0907 7.9941 0.0115 0.2972 2.9884 2.5413 -357.5000 0.2940
5973.5 3.2566 3.0960 2.9655 101.2973 7.9941 0.0091 0.2925 2.9256 2.5473 -357.4375 0.2891
5974.0 3.3348 3.1544 3.0354 101.0332 8.0161 0.0075 0.2932 2.8382 2.5567 -357.7188 0.2824
5974.5 3.4588 3.2816 3.1554 96.8013 7.9941 0.0062 0.2913 2.8045 2.5604 -357.5833 0.2758
5975.0 3.5638 3.3631 3.2261 99.9752 7.9941 0.0005 0.2714 2.7913 2.5504 -357.5833 0.2710
5975.5 3.5402 3.3641 3.2336 103.1483 8.0161 -0.0003 0.2587 2.8629 2.5388 -357.5417 0.2594
5976.0 3.5099 3.3456 3.2243 103.4134 7.9941 -0.0004 0.2609 2.9815 2.5294 -357.3229 0.2588
5976.5 3.4578 3.3253 3.2069 102.3550 8.0821 0.0014 0.2837 3.0634 2.5265 -357.0000 0.2593
5977.0 3.4389 3.3060 3.1774 96.3783 8.0601 0.0041 0.2840 3.0735 2.5244 -356.9375 0.2772
5977.5 3.3213 3.1951 3.0823 98.2298 8.0821 0.0067 0.2966 2.9861 2.5187 -356.9063 0.2745
5978.0 3.1068 2.9709 2.8613 96.6432 8.0821 0.0094 0.2872 2.9024 2.5177 -356.8750 0.2893
5978.5 2.9139 2.7722 2.6768 111.3489 8.1700 0.0104 0.2972 2.8532 2.5256 -356.8333 0.2901
5979.0 2.8794 2.7249 2.6385 115.8448 8.2360 0.0125 0.2883 2.8657 2.5445 -356.7917 0.2964
5979.5 2.9171 2.7298 2.6453 118.4892 8.3019 0.0086 0.2635 2.9156 2.5366 -356.9583 0.2867
5980.0 2.9310 2.7872 2.6878 113.1997 8.2580 0.0117 0.2566 2.9697 2.5246 -357.1146 0.2621
5980.5 2.8725 2.7448 2.6566 105.5295 8.2140 0.0243 0.2561 3.0248 2.5296 -357.3333 0.2543
5981.0 2.8200 2.6615 2.5716 104.4722 8.2140 0.0365 0.2752 3.0546 2.5389 -357.4688 0.2549
5981.5 2.8803 2.7151 2.6144 100.5045 8.1480 0.0433 0.2851 3.0764 2.5436 -357.4375 0.2631
5982.0 2.9287 2.7580 2.6495 103.9426 8.1480 0.0412 0.2789 3.0812 2.5366 -357.5521 0.2727
5982.5 2.8675 2.7182 2.6145 105.0001 8.1041 0.0421 0.2671 3.0573 2.5378 -358.1146 0.2670
5983.0 2.8624 2.6973 2.6007 103.3607 8.1261 0.0507 0.2813 3.0271 2.5512 -359.1875 0.2631
5983.5 2.8412 2.6805 2.5807 106.7991 8.2360 0.0530 0.2906 2.9884 2.5504 -359.5938 0.2794
5984.0 2.8656 2.6847 2.5887 103.8901 8.1700 0.0561 0.2992 2.9852 2.5575 -350.4688 0.2821
5984.5 2.9102 2.7253 2.6341 107.9099 8.4778 0.0508 0.2806 2.9949 2.5633 -353.2604 0.2844
5985.0 2.9542 2.7739 2.6631 102.8847 8.2580 0.0420 0.2836 3.0125 2.5612 -356.9479 0.2736
5985.5 2.9935 2.7950 2.6792 106.0587 8.2800 0.0280 0.2952 3.0161 2.5585 -356.8854 0.2720
5986.0 3.0529 2.8281 2.6977 99.7104 8.4558 0.0116 0.3014 2.9822 2.5452 -357.0500 0.2766
5986.5 3.1065 2.9100 2.7310 100.5043 8.4558 -0.0000 0.2938 2.9775 2.5303 -357.0938 0.2955
5987.0 3.0869 2.8664 2.6991 102.0910 8.2800 -0.0032 0.2897 2.9495 2.5145 -356.6875 0.2926
5987.5 3.0645 2.8566 2.6788 111.8774 8.2580 0.0082 0.2748 2.9500 2.5126 -356.5729 0.2882
5988.0 3.0088 2.8329 2.6394 116.1091 8.3019 0.0348 0.2846 2.9578 2.5371 -356.7708 0.2713
5988.5 3.1041 2.8585 2.6710 116.9028 8.2800 0.0574 0.2827 3.0271 2.5690 -357.1250 0.2716
5989.0 3.4441 3.1304 2.9072 109.4970 8.2580 0.0526 0.2751 3.1416 2.5787 -357.5000 0.2630
5989.5 3.8022 3.5425 3.1314 93.3635 8.2360 0.0267 0.2527 3.2685 2.5718 -357.5000 0.2528
5990.0 3.8552 3.5811 3.2774 85.1643 8.1480 0.0042 0.2420 3.3143 2.5658 -357.2083 0.2451
5990.5 3.5649 3.3269 3.1456 88.3379 8.1920 -0.0052 0.2563 3.2629 2.5567 -357.1875 0.2476
5991.0 3.4977 3.2754 3.0949 99.0227 8.1920 -0.0044 0.2731 3.1088 2.5541 -357.2292 0.2541
5991.5 3.4608 3.2426 3.0710 106.1641 8.1700 -0.0046 0.2787 2.9882 2.5483 -356.8750 0.2645
5992.0 3.4660 3.2714 3.1104 107.4864 8.1920 -0.0017 0.2567 2.9007 2.5667 -357.3333 0.2698
5992.5 3.4702 3.3092 3.1570 108.1742 8.1920 -0.0037 0.2516 2.9335 2.5626 -357.3229 0.2521
5993.0 3.4498 3.3108 3.1853 103.4132 8.1920 -0.0070 0.2688 3.0259 2.5466 -357.3229 0.2478
5993.5 3.4537 3.2953 3.1994 94.1566 8.1920 -0.0109 0.2741 3.1418 2.5209 -357.2708 0.2629
5994.0 3.4859 3.3013 3.1943 95.7435 8.2140 -0.0085 0.2742 3.1673 2.5222 -357.2604 0.2624
5994.5 3.3869 3.2271 3.1433 95.4794 8.1920 -0.0041 0.2614 3.0861 2.5396 -357.1146 0.2644
5995.0 3.2582 3.0943 3.0085 96.8019 8.2140 -0.0010 0.2735 2.9903 2.5526 -357.0750 0.2570
5995.5 3.2033 3.0415 2.9586 96.0083 8.2360 -0.0008 0.2730 2.9315 2.5505 -356.8958 0.2701
5996.0 3.1206 3.0159 2.9260 94.8972 8.2360 -0.0025 0.2657 2.9219 2.5334 -356.6875 0.2764
5996.5 3.0513 2.9147 2.8290 97.8069 8.2140 -0.0016 0.2741 2.8849 2.5268 -356.9063 0.2724
5997.0 2.9780 2.8226 2.7055 91.1947 8.2140 -0.0002 0.2838 2.8408 2.5225 -357.2083 0.2740
5997.5 2.9846 2.8049 2.6960 96.8017 8.1920 0.0035 0.2916 2.8599 2.5178 -357.3125 0.2736
5998.0 2.9446 2.8138 2.6897 94.6854 8.1920 0.0134 0.2965 2.9368 2.5154 -357.2500 0.2829
