~VERSION INFORMATION
VERS.           2.0   :CWLS Log ASCII Standard - VERSION 2.0
WRAP.           NO    :One Line per depth step
PROD.  Schlumberger   :LAS Producer
PROG.  DLIS to ASCII 19C2-270                          :LAS Program name and version
CREA.        2013/08/28 17:00                          :LAS Creation date {YYYY/MM/DD hh:mm}
DLIS_CREA.  2013-Aug-28 16:23                          :DLIS Creation date and time {YYYY-MMM-DD hh:mm}
SOURCE.     Bear_Oil_Marquardt_43_31_Main_DLIS.dlis    :DLIS File Name
FILE-ID.     MaxWell_5Dlis                             :File Identification Number
#--------------------------------------------------
~WELL INFORMATION
#MNEM.UNIT      DATA             DESCRIPTION
#---- ------ --------------   -----------------------------
STRT .F      1000.5          :START DEPTH        # original; data subset to 5500-8000
STOP .F      7710.0          :STOP DEPTH        # original; data subset to 5500-8000
STEP .F       0.5            :STEP     
NULL .          -999.25      :NULL VALUE
COMP .        Bear Oil and Gas, Inc.                   :COMPANY
WELL .        Marquardt 43 31                          :WELL
FLD  .        Wildcat                                  :FIELD
LOC  .        NESE 1627' FSL & 170' FEL                :LOCATION
CNTY .        Laramie                                  :COUNTY
STAT .        Wyoming                                  :STATE
CTRY .        United States                            :COUNTRY
API  .        049-021-21034                            :API NUMBER
UWI  .        049021210340000                          :UNIQUE WELL ID
DATE .        28-Aug-2013                              :LOG DATE {DD-MMM-YYYY}
SRVC .        Schlumberger                             :SERVICE COMPANY
LATI .DEG     41.306700 degrees                        :LATITUDE
LONG .DEG     -104.11980 degrees                       :LONGITUDE
GDAT .                                                 :GeoDetic Datum
SECT .        31                                       :Section
RANG .        60W                                      :Range
TOWN .        16N                                      :Township
#-----------------------------------------------------------------------------
~PARAMETER INFORMATION
#MNEM.UNIT    VALUE                      DESCRIPTION
#---- -----   --------------------       ------------------------
CN   .        Bear Oil and Gas  Inc.     :Company Name
WN   .        Marquardt 43 31            :Well Name
FN   .        Wildcat                    :Field Name
FL   .        NESE 1627' FSL & 170' FEL  :Field Location
FL1  .        Sec. 31  T. 16N  R. 60W    :Field Location, Line 1
COUN .        Laramie                    :County or Parish
STAT .        Wyoming                    :State or Province
NATI .        United States              :Nation
DATE .        28-Aug-2013                :Tools Above Rotary Table Date
APIN .        049-021-21034              :API Well Number
SECT .        31                         :Section
TOWN .        16N                        :Township
RANG .        60W                        :Range
DMF  .        KB                         :Drilling Measured From (Name of Drilling Elevation Reference)
LMF  .        KB                         :Logging Measured From (Name of Logging Elevation Reference)
PDAT .        GL                         :Permanent Datum
ENGI .        Max Pace                   :Engineer s Name
WITN .        Terry Eittreim             :Witness s Name
LATI .        41.306700 degrees          :Latitude
LONG .        -104.11980 degrees         :Longitude
LUL  .        Fort Morgan  CO            :Logging Unit Location
LUN  .        3022                       :Logging Unit Number
RUN  .        Run 1                      :Run Number
SON  .        CA0R-00043                 :Service Order Number
BHT  .DEGF     166.00000                 :Bottom Hole Temperature
BS   .IN         7.87500                 :Bit Size
MDEN .G/C3       2.65000                 :Matrix Density for Density Porosity
DFD  .LB/G       8.90000                 :Drilling Fluid Density
DFV  .S         65.00000                 :Drilling Fluid Viscosity
DFL  .C3         9.00000                 :Drilling Fluid Loss
RMFS .OHMM       1.11000                 :Resistivity of Mud Filtrate Sample
EKB  .F       5298.00000                 :Elevation of Kelly Bushing
EGL  .F       5286.00000                 :Elevation of Ground Level
BLI  .F       7686.00000                 :Bottom Log Interval
BSAL .PPM     3335.81519                 :Borehole Salinity
FLEV .F          8.00000                 :Depth of Drilling Fluid Level to LMF (Log Measured From)
MCST .DEGF      83.00000                 :Mudcake Sample Temperature
MFST .DEGF      83.00000                 :Mud Filtrate Sample Temperature
MRT  .DEGF     166.00000                 :Maximum Recorded Temperature
MST  .DEGF      83.00000                 :Mud Sample Temperature
RMCS .OHMM       1.85000                 :Resistivity of Mud Cake Sample
RMS  .OHMM       1.48000                 :Resistivity of Mud Sample
RW   .OHMM       1.00000                 :Connate Water Resistivity
TDD  .F       7680.00000                 :Driller Total Depth
TDL  .F       7686.00000                 :Logger Total Depth
TLI  .F       1025.00000                 :Top Log Interval
HIDE .        Wildcat                    :Header Identifier
MATR .        SAND                       :Rock Matrix for Neutron Porosity Corrections
FNUM .           1.00000                 :F-Numerator for Formation Factor Formula
FEXP .           2.00000                 :Exponent "m" for Formation Factor Formula
DFT  .        WATER                      :Drilling Fluid Type
DFPH .           8.00000                 :Drilling Fluid pH
MCSS .        Calculated                 :Mudcake Sample Source
MFSS .        Calculated                 :Mud Filtrate Sample Source
FD   .G/C3       1.00000                 :Fluid Density
MSS  .        Active Tank                :Mud Sample Source
OS1  .                                   :Other Services Line 1
OS2  .                                   :Other Services Line 2
OS3  .                                   :Other Services Line 3
OS4  .                                   :Other Services Line 4
OS5  .                                   :Other Services Line 5
R1   .                                   :Remarks Line 1
R2   .                                   :Remarks Line 2
R3   .                                   :Remarks Line 3
R4   .                                   :Remarks Line 4
R5   .                                   :Remarks Line 5
R6   .                                   :Remarks Line 6
R7   .                                   :Remarks Line 7
R8   .                                   :Remarks Line 8
TCS  .        05 00 00                   :Time Circulation Stopped
TLAB .        14 30 25                   :Time Logger At Bottom
NMT  .        NOBARITE                   :HRDD Mud Type for Nuclear Devices
EPD  .F         5286.000000              :Elevation of Permanent Datum above Mean Sea Level
APD  .F          12.000000               :Elevation of Depth Reference (LMF) above Permanent Datum
#-----------------------------------------------------------------------------
~CURVE INFORMATION
#MNEM.UNIT   API CODE                                  DESCRIPTION
#---- -----  --------                                  -----------------------
DEPT .F                                                :DEPTH (BOREHOLE) {F10.1}
AT10 .OHMM                                             :Array Induction Two Foot Resistivity A10 {F11.4}
AT30 .OHMM                                             :Array Induction Two Foot Resistivity A30 {F11.4}
AT90 .OHMM                                             :Array Induction Two Foot Resistivity A90 {F11.4}
GR   .GAPI                                             :Gamma Ray {F11.4}
HCAL .IN                                               :HRCC Caliper Calibrated {F11.4}
HDRA .G/C3                                             :Density Standoff Correction {F11.4}
NPHI .CFCF                                             :Thermal Neutron Porosity (original Ratio Method) in Selected Lithology {F11.4}
PEFZ .                                                 :Standard Resolution Formation Photoelectric Factor {F11.4}
RHOZ .G/C3                                             :Standard Resolution Formation Density {F11.4}
SP   .MV                                               :Spontaneous Potential {F11.4}
TNPH .CFCF                                             :Thermal Neutron Porosity (Ratio Method) in Selected Lithology {F11.4}
#-----------------------------------------------------------------------------
# 
#     DEPT       AF10       AF20       AF30       AF60       AF90       AO10       AO20       AO30       AO60       AO90       AT10       AT20       AT30       AT60       AT90     AHFCO60      AHMF      AHORT      AHORX      AHSCA     AHTCO10    AHTCO20    AHTCO30    AHTCO60    AHTCO90     AHTD1      AHTD2      AHTRT      AHTRX       CDF        CFTC       CNTC       CTEM       DCAL       DNPH       DPHZ       DSOZ       ECGR        ED        GDEV        GR        GTEM       HCAL       HDRA       HDRB       HGR        HMIN       HMNO       HNPO       HPRA       HTNP        ND        NPHI       NPOR       PEFZ    PXND_HILT     RHOZ       RSOZ     RWA_HILT     RXO8       RXOZ        SP        SPAR       STIT       TENS       TNPH     HTNP_SAN
#
~A  DEPT AT10 AT30 AT90 GR HCAL HDRA NPHI PEFZ RHOZ SP TNPH
# ...
6228.0 2.8910 2.8370 2.7841 108.7332 7.8631 0.0134 0.3184 2.9534 2.5234 -72.1429 0.3105
6228.5 2.8928 2.8447 2.7925 107.8253 7.8631 0.0214 0.3206 3.0265 2.5467 -72.6406 0.3150
6229.0 2.9254 2.8675 2.8234 107.7280 7.8403 0.0243 0.3186 3.0678 2.5612 -69.5714 0.3088
6229.5 2.9616 2.8990 2.8590 108.5063 7.9087 0.0144 0.2980 3.0274 2.5587 -71.0156 0.3067
6230.0 2.9077 2.8869 2.8473 108.2792 7.9087 0.0081 0.2985 2.9704 2.5564 -71.6696 0.2957
6230.5 2.8711 2.7925 2.7666 102.6701 7.8859 0.0023 0.2980 2.8863 2.5455 -71.6094 0.2925
6231.0 2.8370 2.7486 2.7176 106.0419 7.8859 0.0007 0.3014 2.8469 2.5339 -71.6161 0.2911
6231.5 2.8172 2.7328 2.6957 106.2694 7.9087 -0.0014 0.3054 2.8388 2.5192 -71.6406 0.2926
6232.0 2.7768 2.7174 2.6813 110.6787 7.8973 -0.0007 0.3196 2.8649 2.5192 -71.8661 0.2935
6232.5 2.7521 2.6845 2.6510 108.8627 7.8859 0.0036 0.3177 2.9259 2.5304 -71.9286 0.3098
6233.0 2.7399 2.6671 2.6264 109.9646 7.9087 0.0075 0.3089 3.0005 2.5350 -71.7813 0.3142
6233.5 2.7509 2.6771 2.6386 109.9649 7.9315 0.0093 0.3063 3.0671 2.5323 -71.8125 0.3089
6234.0 2.8027 2.7460 2.6978 109.5110 7.9315 0.0062 0.2973 3.0691 2.5213 -71.7188 0.3051
6234.5 2.8814 2.8057 2.7541 106.9174 7.9544 0.0010 0.3044 3.0612 2.5148 -71.6518 0.2945
6235.0 3.0087 2.8932 2.8353 103.3512 7.9544 -0.0020 0.2895 3.0001 2.5259 -71.4688 0.2895
6235.5 3.1079 2.9878 2.9286 106.6583 7.9087 -0.0044 0.2861 2.9784 2.5327 -71.3750 0.2736
6236.0 3.0769 2.9885 2.9207 109.5115 7.9087 -0.0042 0.2862 2.9264 2.5407 -71.3906 0.2692
6236.5 3.0498 2.9594 2.8842 111.3269 7.9315 -0.0011 0.2858 2.9180 2.5530 -71.3036 0.2747
6237.0 3.1199 3.0295 2.9510 107.9549 7.9315 0.0021 0.2859 2.8952 2.5633 -71.3516 0.2841
6237.5 3.1547 3.0779 2.9799 113.8553 7.9087 0.0042 0.2768 2.8972 2.5645 -71.4464 0.2794
6238.0 3.0166 2.9244 2.8536 113.0127 7.9201 0.0052 0.2884 2.9583 2.5476 -71.6016 0.2720
6238.5 2.9408 2.8582 2.7942 114.0499 7.9315 0.0076 0.2981 3.0178 2.5335 -71.6518 0.2848
6239.0 2.8639 2.7790 2.7113 113.5961 8.0000 0.0120 0.3153 3.0482 2.5370 -71.5547 0.2883
6239.5 2.7656 2.6933 2.6233 121.8948 7.9544 0.0107 0.3243 3.0097 2.5450 -71.4018 0.3063
6240.0 2.8825 2.7407 2.6825 119.5608 7.9087 0.0087 0.3258 2.9649 2.5686 -71.3393 0.3181
6240.5 2.9627 2.8722 2.7790 114.6326 7.8859 0.0060 0.3140 2.9307 2.5780 -71.3359 0.3153
6241.0 2.9994 2.9093 2.8264 112.8176 7.8859 0.0054 0.2955 2.9095 2.5781 -71.0982 0.3085
6241.5 2.9383 2.8479 2.7798 114.8604 7.8859 0.0015 0.2876 2.9268 2.5540 -71.0156 0.2908
6242.0 2.8985 2.8011 2.7374 113.3044 7.8859 -0.0032 0.2938 2.9611 2.5359 -71.0804 0.2799
6242.5 2.8269 2.7319 2.6662 110.6134 7.8859 -0.0065 0.3032 2.9731 2.5236 -71.0982 0.2903
6243.0 2.7970 2.7063 2.6450 104.6807 7.8859 -0.0055 0.3081 2.9566 2.5257 -71.0547 0.2936
6243.5 2.9046 2.8008 2.7262 106.1718 7.8859 -0.0028 0.2962 2.9387 2.5348 -71.0268 0.3013
6244.0 2.9832 2.8916 2.7989 101.8602 7.8859 -0.0007 0.3010 2.9802 2.5419 -71.1563 0.2956
6244.5 2.9501 2.8602 2.7763 109.3814 7.8859 0.0006 0.2968 2.9770 2.5491 -71.0893 0.3007
6245.0 2.9164 2.8351 2.7577 110.7430 7.8859 -0.0003 0.2881 2.9278 2.5472 -71.0078 0.2885
6245.5 2.9179 2.8194 2.7529 114.3736 7.8859 -0.0025 0.2764 2.8479 2.5429 -70.9911 0.2776
6246.0 2.9655 2.8509 2.7705 109.3811 7.8859 -0.0006 0.2795 2.8139 2.5537 -71.0078 0.2728
6246.5 2.9324 2.8374 2.7487 109.1220 7.8859 0.0014 0.2905 2.8247 2.5623 -70.9286 0.2746
6247.0 2.8793 2.7845 2.7077 107.5336 7.9087 0.0009 0.2875 2.8794 2.5599 -70.4554 0.2800
6247.5 2.8836 2.7934 2.7175 111.4887 7.8859 -0.0027 0.2915 2.9357 2.5465 -70.3359 0.2829
6248.0 2.8844 2.8034 2.7297 112.5257 7.8859 -0.0016 0.2893 2.9932 2.5477 -70.3571 0.2903
6248.5 2.8202 2.7480 2.6768 112.0720 7.8859 0.0051 0.2997 3.0249 2.5621 -70.3125 0.2831
6249.0 2.7412 2.6938 2.6286 114.9249 7.9315 0.0088 0.2983 3.0374 2.5622 -70.3125 0.2894
6249.5 2.7799 2.7085 2.6405 108.7008 7.8745 0.0079 0.2918 3.0547 2.5480 -70.3438 0.2917
6250.0 2.8832 2.7990 2.7198 114.1146 7.8859 0.0051 0.2956 3.0678 2.5395 -70.4732 0.2897
6250.5 2.8145 2.7486 2.6794 111.2618 7.8859 0.0044 0.3168 3.0815 2.5385 -70.5625 0.2904
6251.0 2.7388 2.6640 2.5986 108.3114 7.8174 0.0028 0.3279 3.0727 2.5441 -70.6518 0.3011
6251.5 2.8183 2.7449 2.6837 107.2745 7.8174 0.0008 0.3130 3.0755 2.5459 -70.7031 0.3110
6252.0 2.8943 2.8184 2.7667 104.4538 7.8289 0.0005 0.2891 3.0873 2.5538 -70.7143 0.2988
6252.5 2.8174 2.7500 2.7080 104.8107 7.8859 0.0026 0.2887 3.0931 2.5584 -70.6607 0.2849
6253.0 2.7846 2.7157 2.6711 100.8876 7.9201 0.0084 0.2973 3.0506 2.5633 -70.5938 0.2819
6253.5 2.7906 2.7343 2.6818 98.0023 7.8859 0.0105 0.2933 2.9934 2.5624 -70.3393 0.2921
6254.0 2.8511 2.7575 2.6996 105.2642 7.8631 0.0080 0.2770 2.9568 2.5515 -70.2578 0.2899
6254.5 2.8798 2.7934 2.7370 106.6260 7.8745 0.0017 0.2777 2.9631 2.5338 -70.3304 0.2826
6255.0 2.7660 2.6939 2.6336 111.8134 7.8859 0.0007 0.2970 3.0074 2.5232 -70.3359 0.2815
6255.5 2.7087 2.6261 2.5609 113.0449 7.9315 0.0065 0.3250 3.0539 2.5250 -70.3839 0.2941
6256.0 2.7128 2.6292 2.5537 117.4212 7.9315 0.0089 0.3228 3.0749 2.5233 -70.3516 0.3072
6256.5 2.7069 2.6163 2.5392 115.7997 7.8631 0.0090 0.3167 3.0956 2.5241 -70.3661 0.3049
6257.0 2.6497 2.5682 2.4900 117.9399 7.8631 0.0051 0.3086 3.0905 2.5238 -70.2656 0.3092
6257.5 2.6636 2.5605 2.4859 117.1943 7.8859 0.0064 0.3047 3.1010 2.5403 -70.2411 0.3006
6258.0 2.7242 2.6195 2.5249 118.2967 7.8403 0.0048 0.2931 3.0916 2.5404 -70.1016 0.2963
6258.5 2.7194 2.6583 2.5764 116.4806 7.8403 0.0029 0.2927 3.0979 2.5327 -70.1696 0.2893
6259.0 2.6748 2.5707 2.4997 115.5731 7.8631 0.0003 0.2993 3.0650 2.5139 -70.2054 0.2873
6259.5 2.6274 2.5134 2.4423 115.5731 7.8174 0.0137 0.3145 3.0484 2.5261 -70.2188 0.2913
6260.0 2.5901 2.5143 2.4416 114.7954 7.8403 0.0171 0.3110 3.0064 2.5295 -70.0714 0.3055
6260.5 2.6330 2.5258 2.4548 113.5957 7.8517 0.0285 0.3004 3.0135 2.5513 -70.1563 0.3034
6261.0 2.6669 2.5440 2.4699 110.2243 7.8859 0.0272 0.2819 3.0093 2.5509 -70.2411 0.2887
6261.5 2.6680 2.5537 2.4731 111.2615 7.8403 0.0350 0.2811 3.0149 2.5624 -70.2143 0.2780
6262.0 2.6615 2.5457 2.4664 107.3717 7.8403 0.0300 0.2870 2.9875 2.5512 -70.1641 0.2796
6262.5 2.6541 2.5606 2.4745 110.3214 7.8403 0.0179 0.2993 2.9550 2.5325 -70.0625 0.2849
6263.0 2.6849 2.5523 2.4706 107.9880 7.8174 0.0114 0.2991 2.9790 2.5221 -69.9922 0.2877
6263.5 2.5880 2.4695 2.3892 112.6232 7.8403 0.0176 0.3107 3.0545 2.5257 -70.1696 0.2915
6264.0 2.5031 2.4036 2.3260 115.3789 7.8403 0.0318 0.3237 3.1552 2.5407 -70.2734 0.3032
6264.5 2.4584 2.3507 2.2731 112.2662 7.8403 0.0417 0.3305 3.2223 2.5506 -70.3125 0.3137
6265.0 2.4651 2.3651 2.2859 117.0319 7.8517 0.0454 0.3192 3.2441 2.5498 -70.2891 0.3258
6265.5 2.4928 2.3924 2.3095 115.7351 7.8631 0.0482 0.3288 3.2127 2.5439 -70.1786 0.3151
6266.0 2.5264 2.4312 2.3442 119.0090 7.8631 0.0421 0.3233 3.1280 2.5315 -69.9531 0.3212
6266.5 2.5431 2.4468 2.3608 111.4233 7.8631 0.0279 0.3129 3.0409 2.5245 -69.7500 0.3066
6267.0 2.5690 2.4732 2.3889 110.3862 7.8403 0.0115 0.2956 2.9883 2.5234 -69.8516 0.2970
6267.5 2.5863 2.4976 2.4161 112.2021 7.8631 0.0023 0.2791 3.0142 2.5175 -69.9643 0.2912
6268.0 2.6455 2.5518 2.4721 114.3416 7.8631 -0.0018 0.2955 3.0309 2.5066 -69.9609 0.2804
6268.5 2.7169 2.6251 2.5372 108.3762 7.8631 -0.0017 0.2859 3.0055 2.5010 -69.9821 0.2821
6269.0 2.7094 2.6195 2.5454 105.8794 7.8289 0.0095 0.3096 2.9907 2.5224 -69.9464 0.2740
6269.5 2.7198 2.6372 2.5683 104.5182 7.8174 0.0215 0.3055 2.9987 2.5473 -69.9844 0.2960
6270.0 2.7489 2.6503 2.5865 105.8151 7.8289 0.0402 0.3012 3.0619 2.5761 -70.0893 0.3000
6270.5 2.7043 2.6245 2.5616 105.3616 7.8403 0.0378 0.3132 3.0326 2.5795 -69.9922 0.2928
6271.0 2.6624 2.5760 2.5196 103.2867 7.8403 0.0276 0.3129 2.9566 2.5633 -69.8750 0.3013
6271.5 2.6391 2.5596 2.5024 101.2119 7.5664 0.0188 0.3164 2.9207 2.5504 -69.7734 0.3035
6272.0 2.6084 2.5331 2.4752 103.0271 7.8859 0.0302 0.2967 2.9650 2.5386 -70.0089 0.3039
6272.5 2.5137 2.4459 2.3949 105.3616 7.9430 0.0557 0.3105 3.0631 2.5468 -69.9018 0.2985
6273.0 2.4222 2.3475 2.3030 108.0521 7.8631 0.0704 0.3186 3.1161 2.5312 -69.8125 0.3108
