~VERSION INFORMATION
VERS.           2.0   :CWLS Log ASCII Standard - VERSION 2.0
WRAP.           NO    :One Line per depth step
PROD.  Schlumberger   :LAS Producer
PROG.  DLIS to ASCII 19C2-270                          :LAS Program name and version
CREA.        2013/09/21 19:52                          :LAS Creation date {YYYY/MM/DD hh:mm}
DLIS_CREA.  2013-Sep-21 19:47                          :DLIS Creation date and time {YYYY-MMM-DD hh:mm}
SOURCE.     49-021-21035_McGahan Farms 42-31_Run_PEX_Mainpass.dlis  :DLIS File Name
FILE-ID.     MaxWell_3Dlis                             :File Identification Number
#--------------------------------------------------
~WELL INFORMATION
#MNEM.UNIT      DATA             DESCRIPTION
#---- ------ --------------   -----------------------------
STRT .F      1000.5          :START DEPTH        # original; data subset to 5500-8000
STOP .F      7716.5          :STOP DEPTH        # original; data subset to 5500-8000
STEP .F       0.5            :STEP     
NULL .          -999.25      :NULL VALUE
COMP .        Bear Oil & Gas, Inc                      :COMPANY
WELL .        McGahan Farms 42-31                      :WELL
FLD  .        Wildcat                                  :FIELD
LOC  .        Lat/Long: 41.3098/-104.1197              :LOCATION
CNTY .        Laramie                                  :COUNTY
STAT .        Wyoming                                  :STATE
CTRY .        USA                                      :COUNTRY
API  .        49-021-21035                             :API NUMBER
UWI  .        49021210350000                           :UNIQUE WELL ID
DATE .        21-Sep-2013                              :LOG DATE {DD-MMM-YYYY}
SRVC .        Schlumberger                             :SERVICE COMPANY
LATI .DEG     41.309800 degrees                        :LATITUDE
LONG .DEG     -104.11970 degrees                       :LONGITUDE
GDAT .                                                 :GeoDetic Datum
SECT .        31                                       :Section
RANG .        60W                                      :Range
TOWN .        16N                                      :Township
#-----------------------------------------------------------------------------
~PARAMETER INFORMATION
#MNEM.UNIT    VALUE                      DESCRIPTION
#---- -----   --------------------       ------------------------
CN   .        Bear Oil & Gas  Inc        :Company Name
WN   .        McGahan Farms 42-31        :Well Name
FN   .        Wildcat                    :Field Name
FL   .        Lat/Long  41.3098/-104.1197 :Field Location
FL1  .        SHL   2375' FNL X 190' FEL SENE :Field Location, Line 1
COUN .        Laramie                    :County or Parish
STAT .        Wyoming                    :State or Province
NATI .        USA                        :Nation
DATE .        21-Sep-2013                :Tools Above Rotary Table Date
APIN .        49-021-21035               :API Well Number
SECT .        31                         :Section
TOWN .        16N                        :Township
RANG .        60W                        :Range
DMF  .        KB                         :Drilling Measured From (Name of Drilling Elevation Reference)
LMF  .        KB                         :Logging Measured From (Name of Logging Elevation Reference)
PDAT .        GL                         :Permanent Datum
ENGI .        Arvin Shi                  :Engineer s Name
WITN .        Terry Eittreim             :Witness s Name
LATI .        41.309800 degrees          :Latitude
LONG .        -104.11970 degrees         :Longitude
LUL  .        Fort Morgan                :Logging Unit Location
LUN  .        3022                       :Logging Unit Number
RUN  .        Run 1                      :Run Number
SON  .        C6VJ-00079                 :Service Order Number
BHT  .DEGF     175.00000                 :Bottom Hole Temperature
BS   .IN         7.87500                 :Bit Size
MDEN .G/C3       2.65000                 :Matrix Density for Density Porosity
DFD  .LB/G       9.20000                 :Drilling Fluid Density
DFV  .S         80.00000                 :Drilling Fluid Viscosity
DFL  .C3      -999.25000                 :Drilling Fluid Loss
RMFS .OHMM       0.96000                 :Resistivity of Mud Filtrate Sample
EKB  .F       5307.00000                 :Elevation of Kelly Bushing
EGL  .F       5295.00000                 :Elevation of Ground Level
BLI  .F       7700.00000                 :Bottom Log Interval
BSAL .PPM     3275.14868                 :Borehole Salinity
FLEV .F          8.00000                 :Depth of Drilling Fluid Level to LMF (Log Measured From)
MCST .DEGF      98.00000                 :Mudcake Sample Temperature
MFST .DEGF      98.00000                 :Mud Filtrate Sample Temperature
MRT  .DEGF     175.00000                 :Maximum Recorded Temperature
MST  .DEGF      98.00000                 :Mud Sample Temperature
RMCS .OHMM       1.60000                 :Resistivity of Mud Cake Sample
RMS  .OHMM       1.28000                 :Resistivity of Mud Sample
RW   .OHMM       1.00000                 :Connate Water Resistivity
TDD  .F       7697.00000                 :Driller Total Depth
TDL  .F       7700.00000                 :Logger Total Depth
TLI  .F       1018.00000                 :Top Log Interval
HIDE .        Wildcat                    :Header Identifier
MATR .        SAND                       :Rock Matrix for Neutron Porosity Corrections
FNUM .           1.00000                 :F-Numerator for Formation Factor Formula
FEXP .           2.00000                 :Exponent "m" for Formation Factor Formula
DFT  .        Chemical Gel               :Drilling Fluid Type
DFPH .        -999.25000                 :Drilling Fluid pH
MCSS .        Calculated                 :Mudcake Sample Source
MFSS .        Calculated                 :Mud Filtrate Sample Source
FD   .G/C3       1.00000                 :Fluid Density
MSS  .        Flowline                   :Mud Sample Source
OS1  .                                   :Other Services Line 1
OS2  .                                   :Other Services Line 2
OS3  .                                   :Other Services Line 3
OS4  .                                   :Other Services Line 4
OS5  .                                   :Other Services Line 5
R1   .                                   :Remarks Line 1
R2   .                                   :Remarks Line 2
R3   .                                   :Remarks Line 3
R4   .                                   :Remarks Line 4
R5   .                                   :Remarks Line 5
R6   .                                   :Remarks Line 6
R7   .                                   :Remarks Line 7
R8   .                                   :Remarks Line 8
TCS  .        11 00 00                   :Time Circulation Stopped
TLAB .        17 20 49                   :Time Logger At Bottom
NMT  .        NOBARITE                   :HRDD Mud Type for Nuclear Devices
EPD  .C3         5295.000000             :Elevation of Permanent Datum above Mean Sea Level
APD  .F          12.000000               :Elevation of Depth Reference (LMF) above Permanent Datum
#-----------------------------------------------------------------------------
~CURVE INFORMATION
#MNEM.UNIT   API CODE                                  DESCRIPTION
#---- -----  --------                                  -----------------------
DEPT .F                                                :DEPTH (BOREHOLE) {F10.1}
AT10 .OHMM                                             :Array Induction Two Foot Resistivity A10 {F11.4}
AT30 .OHMM                                             :Array Induction Two Foot Resistivity A30 {F11.4}
AT90 .OHMM                                             :Array Induction Two Foot Resistivity A90 {F11.4}
GR   .GAPI                                             :Gamma Ray {F11.4}
HCAL .IN                                               :HRCC Caliper Calibrated {F11.4}
HDRA .G/C3                                             :Density Standoff Correction {F11.4}
NPHI .CFCF                                             :Thermal Neutron Porosity (original Ratio Method) in Selected Lithology {F11.4}
PEFZ .                                                 :Standard Resolution Formation Photoelectric Factor {F11.4}
RHOZ .G/C3                                             :Standard Resolution Formation Density {F11.4}
SP   .MV                                               :Spontaneous Potential {F11.4}
TNPH .CFCF                                             :Thermal Neutron Porosity (Ratio Method) in Selected Lithology {F11.4}
#-----------------------------------------------------------------------------
# 
#     DEPT       AF10       AF20       AF30       AF60       AF90       AO10       AO20       AO30       AO60       AO90       AT10       AT20       AT30       AT60       AT90     AHFCO60      AHMF      AHORT      AHORX      AHSCA     AHTCO10    AHTCO20    AHTCO30    AHTCO60    AHTCO90     AHTD1      AHTD2      AHTRT      AHTRX       CDF        CFTC       CNTC       CTEM       DCAL       DNPH       DPHZ       DSOZ       ECGR        ED        GDEV        GR        GTEM       HCAL       HDRA       HDRB       HGR        HMIN       HMNO       HNPO       HPRA       HTNP        ND        NPHI       NPOR       PEFZ    PXND_HILT     RHOZ       RSOZ     RWA_HILT     RXO8       RXOZ        SP        SPAR       STIT       TENS       TNPH     HTNP_SAN
#
~A  DEPT AT10 AT30 AT90 GR HCAL HDRA NPHI PEFZ RHOZ SP TNPH
# ...
6809.5 10.5339 9.9344 8.9952 48.4857 8.0601 -0.0080 0.0936 4.9996 2.5360 -369.5179 0.1001
6810.0 10.7270 10.5678 9.7905 48.0322 8.0601 -0.0065 0.1080 5.0487 2.5430 -369.3516 0.1019
6810.5 10.5578 10.2579 9.4663 68.0669 8.0601 -0.0078 0.1354 5.1275 2.5295 -369.0781 0.1080
6811.0 10.5806 9.9221 9.3685 80.4790 8.0601 -0.0070 0.1632 5.1092 2.5199 -367.8672 0.1242
6811.5 11.7372 11.1559 10.3965 92.7207 8.0821 -0.0065 0.1575 5.0924 2.5012 -366.9219 0.1430
6812.0 13.2910 12.9010 11.8044 106.4076 8.0821 -0.0034 0.1551 4.9803 2.4880 -366.4018 0.1491
6812.5 12.9820 13.0890 12.1693 135.1986 8.0601 -0.0042 0.1855 4.9523 2.4576 -365.4531 0.1674
6813.0 11.8430 11.5601 10.8520 142.7649 8.0601 -0.0066 0.2186 5.0003 2.4351 -364.8482 0.1924
6813.5 10.5679 10.3312 9.7949 125.4506 8.0381 -0.0081 0.2182 5.1079 2.4359 -366.0156 0.1959
6814.0 11.1491 10.3306 9.8247 91.3887 8.0601 -0.0075 0.1793 5.1989 2.4572 -367.9375 0.1623
6814.5 11.6078 11.4868 10.9154 77.9284 8.0601 -0.0043 0.1587 5.2350 2.4810 -369.5859 0.1378
6815.0 11.9195 11.6156 11.0696 75.2082 8.0601 0.0004 0.1605 5.2174 2.4973 -369.7411 0.1382
6815.5 11.7337 11.4960 10.8026 84.7296 8.0381 0.0064 0.1551 5.1839 2.5044 -369.6250 0.1527
6816.0 11.4823 11.4714 10.7658 90.4535 8.0821 0.0036 0.1588 5.1723 2.5025 -370.0000 0.1489
6816.5 11.2902 11.3474 10.6129 97.2547 8.0601 -0.0029 0.1567 5.2061 2.4881 -369.3661 0.1533
6817.0 10.5951 10.4686 9.9072 99.2386 8.0601 -0.0098 0.1648 5.2000 2.4829 -368.4375 0.1489
6817.5 9.9464 9.6360 9.0771 99.6355 8.0821 -0.0098 0.1575 5.1790 2.4891 -368.2321 0.1512
6818.0 11.4195 10.6443 10.1050 94.6196 8.0821 -0.0100 0.1679 5.2027 2.4960 -368.7411 0.1388
6818.5 12.8278 12.6803 11.7864 102.9503 8.0601 -0.0106 0.1652 5.2657 2.4942 -368.4453 0.1467
6819.0 13.8828 13.9374 12.7441 90.4820 8.0381 -0.0094 0.1513 5.2659 2.4939 -368.4286 0.1360
6819.5 13.6459 13.4822 12.5320 89.6888 8.0601 -0.0062 0.1183 5.2071 2.4972 -368.2589 0.1227
6820.0 13.2021 12.9465 12.1655 86.9122 8.0381 -0.0016 0.1164 5.1615 2.4941 -367.4063 0.1161
6820.5 13.5003 13.4535 12.5322 114.6542 8.0601 -0.0002 0.1537 5.1082 2.4892 -365.7422 0.1289
6821.0 13.9130 14.2320 13.2509 129.9848 8.0601 0.0013 0.1799 5.0274 2.4873 -363.9196 0.1529
6821.5 13.5505 13.9272 13.0853 130.6645 8.1041 0.0003 0.1813 4.9500 2.4856 -363.0625 0.1635
6822.0 12.7329 12.9208 12.1591 131.0617 8.0821 -0.0003 0.1708 4.9656 2.4724 -361.4911 0.1585
6822.5 11.6809 11.0257 10.8300 137.6363 8.0711 -0.0013 0.1706 4.9841 2.4661 -359.3281 0.1603
6823.0 11.9849 11.0192 11.1940 143.3039 8.0821 -0.0025 0.1817 5.0321 2.4688 -357.7857 0.1647
6823.5 13.2299 12.3509 11.9424 142.1415 8.1041 -0.0041 0.1831 5.1284 2.4760 -356.7946 0.1635
6824.0 13.9765 12.1921 11.7542 139.2794 8.0711 -0.0047 0.1702 5.2051 2.4872 -355.8828 0.1633
6824.5 13.3494 10.8467 10.3855 163.3094 8.0821 -0.0040 0.1895 5.2461 2.4922 -355.3571 0.1660
6825.0 8.1745 8.1913 7.7345 194.2261 8.0821 -0.0014 0.1977 5.1593 2.5022 -354.1797 0.1935
6825.5 5.4419 4.9986 4.9532 200.9704 8.0931 -0.0011 0.2139 5.0427 2.5109 -351.1607 0.1975
6826.0 4.1513 3.8532 3.7142 176.9405 8.1261 -0.0004 0.1948 4.8159 2.5449 -348.9821 0.1758
6826.5 4.9372 4.4091 4.2077 129.9281 8.0931 -0.0014 0.1649 4.6791 2.5783 -348.9219 0.1444
6827.0 6.5574 5.5097 5.1622 90.6805 8.1480 -0.0020 0.1279 4.6681 2.6036 -350.8661 0.1206
6827.5 8.9723 7.3310 6.4811 58.9422 8.1480 -0.0053 0.0885 4.8149 2.5990 -352.7031 0.0935
6828.0 11.4288 8.7054 7.0379 45.1135 8.1480 -0.0065 0.0780 4.8575 2.5937 -351.5000 0.0778
6828.5 9.0974 7.5867 6.5219 50.8375 8.1480 -0.0058 0.0998 4.7892 2.5937 -349.7266 0.0825
6829.0 8.1677 6.9317 5.9763 58.7725 8.1480 -0.0046 0.1203 4.6838 2.5990 -347.8839 0.1025
6829.5 7.8442 5.9700 5.2994 63.0799 8.1480 -0.0040 0.1317 4.6148 2.5967 -347.5781 0.1232
6830.0 6.7070 6.2919 5.0638 66.2536 8.1920 -0.0046 0.1468 4.5609 2.5799 -346.7232 0.1332
6830.5 6.3730 5.4991 4.7293 73.2812 8.1920 -0.0020 0.1592 4.4576 2.5764 -346.6094 0.1446
6831.0 6.0074 5.1516 5.0089 74.4146 8.2360 0.0007 0.1402 4.4436 2.5896 -346.7679 0.1380
6831.5 6.4770 4.8655 4.6076 63.1079 8.1700 -0.0035 0.0993 4.5410 2.6251 -347.5625 0.0968
6832.0 7.3651 5.7861 5.4316 53.3030 8.1700 -0.0110 0.0709 4.6179 2.6497 -347.2679 0.0730
6832.5 10.4846 7.8436 8.2573 52.8496 8.1590 -0.0099 0.0838 4.6197 2.6681 -346.3750 0.0694
6833.0 9.6136 7.8471 7.7407 56.8170 8.1700 -0.0108 0.0873 4.5634 2.6704 -345.8393 0.0796
6833.5 6.5103 6.2011 6.4683 53.8415 8.2030 -0.0065 0.0860 4.5563 2.6636 -345.6429 0.0826
6834.0 5.8636 5.1389 5.5592 57.2421 8.1480 -0.0130 0.0882 4.5402 2.6522 -345.8359 0.0929
6834.5 4.8663 4.5141 4.9539 72.7144 8.1920 -0.0069 0.1123 4.4523 2.6383 -345.2411 0.1083
6835.0 4.4051 3.9273 4.0342 89.5754 8.2360 0.0033 0.1421 4.2818 2.6321 -345.5357 0.1318
6835.5 4.2602 3.6825 3.6257 94.8179 8.2250 0.0149 0.1770 4.1402 2.6284 -346.2422 0.1434
6836.0 4.7481 4.3055 4.4654 83.4545 8.2360 0.0153 0.1722 4.0996 2.6181 -346.9375 0.1473
6836.5 5.8519 5.5432 5.4707 73.1394 8.1920 0.0088 0.1702 4.2323 2.6192 -347.8984 0.1352
6837.0 6.0148 5.6689 5.5700 58.6021 8.1920 0.0023 0.1276 4.3761 2.6183 -349.2946 0.1319
6837.5 6.6164 6.2367 5.9095 48.9390 8.1920 0.0027 0.1140 4.5391 2.6282 -350.2578 0.1044
6838.0 8.1127 7.7778 6.9758 45.1986 8.1700 0.0022 0.0999 4.6041 2.6294 -350.8393 0.0926
6838.5 7.1180 7.0075 6.3145 48.1457 8.1920 0.0022 0.0956 4.6401 2.6303 -350.2031 0.0903
6839.0 6.9264 6.4937 5.9429 50.5260 8.1700 0.0035 0.1009 4.6258 2.6388 -350.3203 0.0922
6839.5 6.9974 6.7984 6.1356 46.6719 8.1920 0.0010 0.1015 4.6306 2.6347 -350.7656 0.0970
6840.0 6.9587 6.8077 6.3158 45.3120 8.2030 -0.0012 0.1170 4.6454 2.6298 -351.1161 0.0989
6840.5 7.2078 6.9417 6.6532 44.7171 8.1920 -0.0039 0.1200 4.6332 2.6203 -352.7500 0.1054
6841.0 7.7448 7.5216 7.1534 45.7656 8.2140 -0.0033 0.1146 4.6167 2.6247 -352.8571 0.1026
6841.5 7.7127 7.5437 7.0336 42.8184 8.1920 -0.0048 0.1100 4.6617 2.6242 -351.7188 0.1010
6842.0 7.5831 7.3115 6.9113 46.1902 8.2360 -0.0068 0.1037 4.7456 2.6235 -351.6964 0.0998
6842.5 7.5954 7.5521 7.1159 50.5541 8.2360 -0.0091 0.0987 4.8624 2.6179 -352.9688 0.0998
6843.0 7.3116 7.3930 7.0779 57.7235 8.2140 -0.0089 0.1070 4.8726 2.6201 -352.4911 0.0991
6843.5 6.6309 6.3507 6.3580 55.8818 8.2360 -0.0073 0.1216 4.8074 2.6227 -351.1339 0.1059
6844.0 6.1199 5.8941 5.7842 54.0963 8.2360 -0.0055 0.1419 4.7194 2.6239 -350.9844 0.1152
6844.5 7.3736 6.7465 6.4913 45.7652 8.2580 -0.0036 0.1456 4.6860 2.6247 -352.6071 0.1230
6845.0 8.1744 7.9588 7.5389 42.2512 8.2580 -0.0030 0.1303 4.7072 2.6262 -353.2188 0.1204
6845.5 9.1157 8.6956 8.0877 42.0246 8.2360 -0.0022 0.1117 4.6872 2.6382 -352.8828 0.1118
6846.0 7.8424 7.8116 7.3089 48.9672 8.2580 -0.0025 0.0920 4.6433 2.6498 -351.1250 0.1008
6846.5 7.4960 7.0337 6.5677 51.3477 8.2580 -0.0028 0.0935 4.5960 2.6594 -350.1797 0.0932
6847.0 6.9583 6.7279 6.4601 49.9876 8.2360 -0.0034 0.1012 4.6054 2.6631 -349.7143 0.0965
6847.5 7.0202 6.6056 5.9672 49.8744 8.2580 -0.0039 0.1137 4.6334 2.6662 -349.9922 0.1056
6848.0 6.9288 6.9002 5.9903 50.6679 8.2580 -0.0040 0.1256 4.6434 2.6672 -349.5893 0.1212
6848.5 6.1867 6.2042 5.6693 56.1089 8.2800 -0.0020 0.1258 4.5541 2.6712 -349.2266 0.1353
6849.0 5.8186 5.9496 5.4881 61.9743 8.2800 -0.0011 0.1389 4.4690 2.6623 -348.9911 0.1241
6849.5 5.2309 5.1212 4.8669 71.2976 8.3129 -0.0018 0.1566 4.3843 2.6493 -348.9531 0.1242
6850.0 5.1406 4.6441 4.3156 75.3780 8.3019 -0.0058 0.1720 4.3600 2.6334 -349.0625 0.1351
6850.5 6.4203 5.5407 5.2055 74.9814 8.3019 -0.0083 0.1544 4.3366 2.6350 -349.8047 0.1402
6851.0 7.1614 6.6616 6.2493 70.9858 8.3019 -0.0089 0.1316 4.3803 2.6413 -350.6786 0.1169
6851.5 8.0159 7.7175 7.2367 62.0595 8.3019 -0.0059 0.1127 4.4154 2.6534 -352.0625 0.1044
6852.0 8.2997 7.7076 7.2883 50.2428 8.2800 -0.0048 0.1061 4.5255 2.6460 -353.3482 0.0991
6852.5 8.6970 7.9357 7.5192 40.5512 8.2800 -0.0054 0.0935 4.6001 2.6354 -353.6875 0.0992
6853.0 8.7348 8.2211 7.6332 36.1022 8.2800 -0.0050 0.0853 4.6143 2.6331 -353.4375 0.0946
6853.5 8.3602 8.1159 7.5617 38.5959 8.2910 -0.0041 0.0877 4.5822 2.6372 -351.6563 0.0931
