~VERSION INFORMATION
VERS.           2.0   :CWLS Log ASCII Standard - VERSION 2.0
WRAP.           NO    :One Line per depth step
PROD.  Schlumberger   :LAS Producer
PROG.  DLIS to ASCII 19C1-222                          :LAS Program name and version
CREA.        2013/09/09 02:34                          :LAS Creation date {YYYY/MM/DD hh:mm}
DLIS_CREA.  2013-Sep-09 02:29                          :DLIS Creation date and time {YYYY-MMM-DD hh:mm}
SOURCE.     049-021-21038_Marquardt 44-31_Run_PEX-AIT_Mainpass.dlis  :DLIS File Name
FILE-ID.     MaxWell_4Dlis                             :File Identification Number
#--------------------------------------------------
~WELL INFORMATION
#MNEM.UNIT      DATA             DESCRIPTION
#---- ------ --------------   -----------------------------
STRT .F      952.5           :START DEPTH        # original; data subset to 5500-8000
STOP .F      7703.0          :STOP DEPTH        # original; data subset to 5500-8000
STEP .F       0.5            :STEP     
NULL .          -999.25      :NULL VALUE
COMP .        Bear Oil & Gas, Inc                      :COMPANY
WELL .        Marquardt 44-31                          :WELL
FLD  .        Wildcat                                  :FIELD
LOC  .        Lat/Long : 41.3038/-104.1202             :LOCATION
CNTY .        Laramie                                  :COUNTY
STAT .        Wyoming                                  :STATE
CTRY .        USA                                      :COUNTRY
API  .        049-021-21038                            :API NUMBER
UWI  .        049021210380000                          :UNIQUE WELL ID
DATE .        08-Sep-2013                              :LOG DATE {DD-MMM-YYYY}
SRVC .        Schlumberger                             :SERVICE COMPANY
LATI .DEG     41.303800 degrees                        :LATITUDE
LONG .DEG     -104.12020 degrees                       :LONGITUDE
GDAT .                                                 :GeoDetic Datum
SECT .        31                                       :Section
RANG .        60W                                      :Range
TOWN .        16N                                      :Township
#-----------------------------------------------------------------------------
~PARAMETER INFORMATION
#MNEM.UNIT    VALUE                      DESCRIPTION
#---- -----   --------------------       ------------------------
CN   .        Bear Oil & Gas  Inc        :Company Name
WN   .        Marquardt 44-31            :Well Name
FN   .        Wildcat                    :Field Name
FL   .        Lat/Long   41.3038/-104.1202 :Field Location
FL1  .        SHL   766' FSL X 245' FEL SESE :Field Location, Line 1
COUN .        Laramie                    :County or Parish
STAT .        Wyoming                    :State or Province
NATI .        USA                        :Nation
DATE .        08-Sep-2013                :Tools Above Rotary Table Date
APIN .        049-021-21038              :API Well Number
SECT .        31                         :Section
TOWN .        16N                        :Township
RANG .        60W                        :Range
DMF  .        KB                         :Drilling Measured From (Name of Drilling Elevation Reference)
LMF  .        KB                         :Logging Measured From (Name of Logging Elevation Reference)
PDAT .        GL                         :Permanent Datum
ENGI .        Arvin Shi                  :Engineer s Name
WITN .        Terry Eittreim             :Witness s Name
LATI .        41.303800 degrees          :Latitude
LONG .        -104.12020 degrees         :Longitude
LUL  .        Fort Morgan                :Logging Unit Location
LUN  .        3030                       :Logging Unit Number
RUN  .        Run 1                      :Run Number
SON  .        C6VJ-00075                 :Service Order Number
BHT  .DEGF     184.00000                 :Bottom Hole Temperature
BS   .IN         7.87500                 :Bit Size
MDEN .G/C3       2.65000                 :Matrix Density for Density Porosity
DFD  .LB/G       9.00000                 :Drilling Fluid Density
DFV  .S         80.00000                 :Drilling Fluid Viscosity
DFL  .C3      -999.25000                 :Drilling Fluid Loss
RMFS .OHMM       0.80250                 :Resistivity of Mud Filtrate Sample
EKB  .F       5298.00000                 :Elevation of Kelly Bushing
EGL  .F       5286.00000                 :Elevation of Ground Level
BLI  .F       7686.00000                 :Bottom Log Interval
BSAL .PPM     4641.08936                 :Borehole Salinity
FLEV .F          8.00000                 :Depth of Drilling Fluid Level to LMF (Log Measured From)
MCST .DEGF      84.00000                 :Mudcake Sample Temperature
MFST .DEGF      84.00000                 :Mud Filtrate Sample Temperature
MRT  .DEGF     184.00000                 :Maximum Recorded Temperature
MST  .DEGF      84.00000                 :Mud Sample Temperature
RMCS .OHMM       1.33750                 :Resistivity of Mud Cake Sample
RMS  .OHMM       1.07000                 :Resistivity of Mud Sample
RW   .OHMM       1.00000                 :Connate Water Resistivity
TDD  .F       7680.00000                 :Driller Total Depth
TDL  .F       7686.00000                 :Logger Total Depth
TLI  .F       1023.00000                 :Top Log Interval
HIDE .        Wildcat                    :Header Identifier
MATR .        SAND                       :Rock Matrix for Neutron Porosity Corrections
FNUM .           1.00000                 :F-Numerator for Formation Factor Formula
FEXP .           2.00000                 :Exponent "m" for Formation Factor Formula
DFT  .        Fresh Water                :Drilling Fluid Type
DFPH .        -999.25000                 :Drilling Fluid pH
MCSS .        Calculated                 :Mudcake Sample Source
MFSS .        Calculated                 :Mud Filtrate Sample Source
FD   .G/C3       1.00000                 :Fluid Density
MSS  .        Flowline                   :Mud Sample Source
OS1  .                                   :Other Services Line 1
OS2  .                                   :Other Services Line 2
OS3  .                                   :Other Services Line 3
OS4  .                                   :Other Services Line 4
OS5  .                                   :Other Services Line 5
R1   .                                   :Remarks Line 1
R2   .                                   :Remarks Line 2
R3   .                                   :Remarks Line 3
R4   .                                   :Remarks Line 4
R5   .                                   :Remarks Line 5
R6   .                                   :Remarks Line 6
R7   .                                   :Remarks Line 7
R8   .                                   :Remarks Line 8
TCS  .        15 00 00                   :Time Circulation Stopped
TLAB .        00 30 46                   :Time Logger At Bottom
NMT  .        NOBARITE                   :HRDD Mud Type for Nuclear Devices
EPD  .C3         5286.000000             :Elevation of Permanent Datum above Mean Sea Level
APD  .F          12.000000               :Elevation of Depth Reference (LMF) above Permanent Datum
#-----------------------------------------------------------------------------
~CURVE INFORMATION
#MNEM.UNIT   API CODE                                  DESCRIPTION
#---- -----  --------                                  -----------------------
DEPT .F                                                :DEPTH (BOREHOLE) {F10.1}
AT10 .OHMM                                             :Array Induction Two Foot Resistivity A10 {F11.4}
AT30 .OHMM                                             :Array Induction Two Foot Resistivity A30 {F11.4}
AT90 .OHMM                                             :Array Induction Two Foot Resistivity A90 {F11.4}
GR   .GAPI                                             :Gamma Ray {F11.4}
HCAL .IN                                               :HRCC Caliper Calibrated {F11.4}
HDRA .G/C3                                             :Density Standoff Correction {F11.4}
NPHI .CFCF                                             :Thermal Neutron Porosity (original Ratio Method) in Selected Lithology {F11.4}
PEFZ .                                                 :Standard Resolution Formation Photoelectric Factor {F11.4}
RHOZ .G/C3                                             :Standard Resolution Formation Density {F11.4}
SP   .MV                                               :Spontaneous Potential {F11.4}
TNPH .CFCF                                             :Thermal Neutron Porosity (Ratio Method) in Selected Lithology {F11.4}
#-----------------------------------------------------------------------------
# 
#     DEPT       AF10       AF20       AF30       AF60       AF90       AO10       AO20       AO30       AO60       AO90       AT10       AT20       AT30       AT60       AT90     AHFCO60      AHMF      AHORT      AHORX      AHSCA     AHTCO10    AHTCO20    AHTCO30    AHTCO60    AHTCO90     AHTD1      AHTD2      AHTRT      AHTRX       CDF        CFTC       CNTC       CTEM       DCAL       DNPH       DPHZ       DSOZ       ECGR        ED        GDEV        GR        GTEM       HCAL       HDRA       HDRB       HGR        HMIN       HMNO       HNPO       HPRA       HTNP        ND        NPHI       NPOR       PEFZ    PXND_HILT     RHOZ       RSOZ     RWA_HILT     RXO8       RXOZ        SP        SPAR       STIT       TENS       TNPH     HTNP_SAN
#
~A  DEPT AT10 AT30 AT90 GR HCAL HDRA NPHI PEFZ RHOZ SP TNPH
# ...
7079.0 4.3675 4.2022 3.9912 115.0720 7.8018 -0.0051 0.2437 3.6657 2.5251 -465.7946 0.2193
7079.5 4.1846 4.0434 3.8434 119.6296 7.8241 -0.0037 0.2577 3.5406 2.5159 -465.6172 0.2358
7080.0 4.0400 3.9039 3.7163 121.4127 7.8018 -0.0045 0.2844 3.4930 2.5047 -465.4375 0.2455
7080.5 3.8625 3.6782 3.5178 125.0361 7.8018 -0.0074 0.2825 3.5639 2.4915 -465.4453 0.2605
7081.0 4.4119 3.9760 3.7794 123.8754 7.8241 -0.0072 0.2669 3.6412 2.5004 -465.1607 0.2534
7081.5 4.6477 4.4372 4.1223 116.1477 7.7796 -0.0076 0.2467 3.7147 2.5065 -465.1719 0.2361
7082.0 4.6576 4.5469 4.2682 117.2798 7.8018 -0.0054 0.2433 3.6954 2.5172 -465.1953 0.2251
7082.5 4.6647 4.4513 4.2255 125.7725 7.8018 -0.0052 0.2537 3.6663 2.5126 -465.2411 0.2351
7083.0 4.8168 4.5527 4.3048 135.7648 7.8018 -0.0056 0.2575 3.6429 2.5071 -464.8984 0.2480
7083.5 4.9896 4.7580 4.4683 132.2547 7.8018 -0.0083 0.2812 3.6630 2.4988 -464.6161 0.2496
7084.0 4.9372 4.7623 4.4893 129.8762 7.7796 -0.0095 0.2854 3.6737 2.4993 -464.6563 0.2681
7084.5 4.9240 4.7326 4.4746 125.8285 7.8241 -0.0070 0.2743 3.6545 2.5163 -464.7857 0.2552
7085.0 5.0144 4.7800 4.5206 122.5453 7.8018 -0.0052 0.2619 3.6812 2.5308 -464.8906 0.2361
7085.5 5.1000 4.9055 4.6397 113.8264 7.7796 -0.0055 0.2401 3.7319 2.5414 -465.0703 0.2319
7086.0 4.9754 4.8348 4.5864 109.7221 7.8241 -0.0081 0.2490 3.8057 2.5389 -465.0179 0.2217
7086.5 4.7069 4.5407 4.3251 110.8251 7.8018 -0.0099 0.2383 3.8312 2.5343 -465.0313 0.2353
7087.0 4.5002 4.3241 4.1100 116.5723 7.8018 -0.0099 0.2526 3.8191 2.5278 -464.8661 0.2272
7087.5 4.4224 4.2294 4.0237 119.9689 7.8018 -0.0095 0.2473 3.7738 2.5230 -464.6797 0.2441
7088.0 4.3831 4.1896 3.9800 119.3747 7.8241 -0.0085 0.2666 3.7247 2.5207 -464.6071 0.2383
7088.5 4.3537 4.1668 3.9526 116.6853 7.8241 -0.0064 0.2703 3.6918 2.5242 -464.6328 0.2532
7089.0 4.3630 4.1580 3.9390 115.5532 7.7796 -0.0037 0.2751 3.6606 2.5321 -464.7411 0.2497
7089.5 4.3767 4.1506 3.9281 119.7144 7.7796 -0.0037 0.2529 3.6814 2.5313 -464.8125 0.2528
7090.0 4.4067 4.1951 3.9586 124.3852 7.8018 -0.0033 0.2565 3.6828 2.5339 -464.9821 0.2328
7090.5 4.3842 4.1613 3.9301 122.5730 7.8018 -0.0049 0.2518 3.7365 2.5267 -464.8281 0.2425
7091.0 4.2743 4.0771 3.8578 118.4125 7.8018 -0.0031 0.2538 3.7018 2.5354 -464.6250 0.2373
7091.5 4.2044 4.0045 3.7933 120.7620 7.8241 -0.0023 0.2398 3.6447 2.5416 -464.6172 0.2366
7092.0 4.1180 3.9391 3.7334 128.3773 7.8130 -0.0010 0.2506 3.5551 2.5516 -464.7188 0.2314
7092.5 4.1149 3.9240 3.7202 129.4521 7.8241 -0.0036 0.2567 3.5559 2.5446 -464.7679 0.2375
7093.0 4.1777 3.9699 3.7553 121.3563 7.8130 -0.0080 0.2522 3.6357 2.5288 -464.8125 0.2352
7093.5 4.2667 4.0437 3.8259 111.9298 7.8018 -0.0109 0.2401 3.7297 2.5186 -464.7768 0.2274
7094.0 4.3369 4.1114 3.8803 110.0621 7.8018 -0.0107 0.2401 3.7826 2.5222 -464.7500 0.2126
7094.5 4.3270 4.1033 3.8644 109.3256 7.8018 -0.0080 0.2414 3.8082 2.5258 -464.8661 0.2232
7095.0 4.2781 4.0503 3.8382 113.0056 7.8018 -0.0061 0.2458 3.8101 2.5262 -464.7344 0.2234
7095.5 4.2019 4.0004 3.7942 115.5527 7.7796 -0.0054 0.2536 3.7942 2.5242 -464.4911 0.2301
7096.0 4.1578 3.9582 3.7662 114.9021 7.7796 -0.0053 0.2625 3.7508 2.5265 -464.4609 0.2382
7096.5 4.0859 3.8941 3.7052 116.4307 7.8018 -0.0034 0.2707 3.6643 2.5370 -464.3906 0.2407
7097.0 4.0620 3.8592 3.6710 113.6850 7.7907 -0.0029 0.2596 3.6361 2.5374 -464.3571 0.2490
7097.5 4.1168 3.8963 3.7010 117.5066 7.8018 -0.0047 0.2499 3.6623 2.5323 -464.3203 0.2415
7098.0 4.1552 3.9365 3.7362 113.7983 7.8241 -0.0074 0.2469 3.7354 2.5222 -464.5893 0.2383
7098.5 4.1493 3.9517 3.7506 114.0530 7.7796 -0.0073 0.2430 3.7431 2.5248 -464.6172 0.2342
7099.0 4.1319 3.9255 3.7260 114.7885 7.8018 -0.0050 0.2503 3.6782 2.5393 -464.4464 0.2250
7099.5 4.1661 3.9154 3.7192 115.3265 7.8241 -0.0049 0.2324 3.6516 2.5440 -464.6563 0.2248
7100.0 4.2570 4.0353 3.8311 117.8464 7.8241 -0.0072 0.2352 3.6935 2.5354 -464.7768 0.2089
7100.5 4.3732 4.1476 3.9314 110.7695 7.8018 -0.0085 0.2330 3.7495 2.5239 -464.7891 0.2128
7101.0 4.3502 4.1522 3.9359 107.4571 7.8018 -0.0092 0.2514 3.7752 2.5119 -464.9911 0.2151
7101.5 4.3260 4.1200 3.9176 108.5609 7.8241 -0.0080 0.2573 3.7422 2.5107 -464.9688 0.2340
7102.0 4.3287 4.1291 3.9209 117.0253 7.8463 -0.0088 0.2664 3.7174 2.5117 -464.8839 0.2392
7102.5 4.3325 4.1329 3.9335 120.3933 7.8130 -0.0092 0.2485 3.6861 2.5216 -464.8281 0.2470
7103.0 4.4405 4.2354 4.0259 117.9021 7.8018 -0.0097 0.2308 3.6926 2.5309 -464.3929 0.2184
7103.5 4.7336 4.4688 4.2347 118.0441 7.8018 -0.0106 0.2211 3.7431 2.5341 -464.2891 0.2029
7104.0 4.9537 4.7012 4.4408 121.6110 7.8241 -0.0098 0.2259 3.8022 2.5402 -464.2031 0.2032
7104.5 5.2387 5.0134 4.7255 119.4314 7.7907 -0.0074 0.2438 3.8407 2.5510 -464.1518 0.2052
7105.0 5.2367 5.0546 4.7749 107.8815 7.8018 -0.0064 0.2420 3.8568 2.5576 -464.1563 0.2180
7105.5 5.2241 5.0377 4.7766 100.3521 7.8018 -0.0069 0.2532 3.8886 2.5549 -464.2143 0.2179
7106.0 5.2852 5.1044 4.8430 101.8522 7.7796 -0.0093 0.2364 3.9093 2.5455 -464.3125 0.2333
7106.5 5.2335 5.0750 4.8607 104.5414 7.8241 -0.0065 0.2429 3.9013 2.5429 -464.1429 0.2197
7107.0 5.1364 4.9877 4.7736 105.5037 7.8241 0.0006 0.2344 3.8635 2.5470 -464.0938 0.2270
7107.5 5.3466 5.1320 4.8874 106.5796 7.7907 0.0111 0.2256 3.8214 2.5578 -464.2891 0.2123
7108.0 5.5963 5.4105 5.1526 110.0048 7.8018 0.0216 0.2042 3.7773 2.5679 -464.5536 0.2043
7108.5 5.3101 5.1461 4.9286 112.2132 7.7907 0.0259 0.2066 3.7103 2.5690 -464.6875 0.1973
7109.0 4.9677 4.8184 4.6400 120.6484 7.8018 0.0228 0.2402 3.6346 2.5528 -464.7857 0.2076
7109.5 4.6527 4.5194 4.3657 125.5462 7.8241 0.0097 0.2596 3.5637 2.5343 -464.7578 0.2352
7110.0 4.6145 4.3045 4.1411 133.9816 7.8018 -0.0010 0.2653 3.5687 2.5250 -465.0089 0.2406
7110.5 4.5105 4.3200 4.1423 135.8496 7.8241 -0.0078 0.2592 3.6685 2.5225 -465.1797 0.2391
7111.0 4.2126 4.2035 3.9934 136.8402 7.7796 -0.0027 0.2612 3.7496 2.5249 -465.5982 0.2481
7111.5 3.6476 3.5007 3.3949 136.1328 7.7796 0.0091 0.2798 3.7154 2.5306 -465.6172 0.2675
7112.0 3.1895 3.0882 2.9647 131.3208 7.8241 0.0114 0.2883 3.5373 2.5285 -465.4643 0.2828
7112.5 3.5107 3.2386 3.1119 129.7352 7.8352 0.0094 0.2950 3.4236 2.5284 -465.3594 0.2650
7113.0 4.0333 3.7949 3.6068 120.4785 7.8018 -0.0017 0.2641 3.4796 2.5256 -465.0446 0.2533
7113.5 4.9382 4.6324 4.3039 110.2314 7.8018 -0.0048 0.2332 3.6719 2.5346 -464.9375 0.2200
7114.0 5.1171 4.8104 4.5128 105.7016 7.7796 -0.0084 0.2159 3.8004 2.5377 -464.8359 0.2057
7114.5 4.7695 4.5477 4.3237 107.4284 7.8018 -0.0090 0.2150 3.7882 2.5353 -464.7054 0.2017
7115.0 4.4546 4.2753 4.1012 117.2232 7.7907 -0.0062 0.2429 3.6619 2.5329 -464.6328 0.2063
7115.5 4.2442 4.0103 3.8618 123.3380 7.8241 -0.0025 0.2638 3.5321 2.5339 -464.8571 0.2280
7116.0 4.1725 4.0346 3.8738 122.0639 7.7907 0.0009 0.2833 3.4606 2.5320 -464.9688 0.2406
7116.5 4.1221 4.0286 3.8481 121.7810 7.7573 0.0053 0.2763 3.4419 2.5199 -465.3839 0.2701
7117.0 3.7894 3.6641 3.5256 123.8191 7.7796 0.0154 0.2680 3.4322 2.5057 -465.5000 0.2720
7117.5 3.4284 3.3329 3.2029 132.8212 7.7128 0.0204 0.2595 3.3996 2.5096 -465.6161 0.2678
7118.0 3.6760 3.3753 3.2065 134.6893 7.7462 0.0171 0.2573 3.4016 2.5303 -465.5547 0.2396
7118.5 3.8808 3.7118 3.5071 130.6698 7.8241 0.0080 0.2551 3.4401 2.5559 -465.0268 0.2261
7119.0 4.0136 3.8474 3.6330 124.7252 7.8018 0.0017 0.2565 3.4577 2.5670 -464.7578 0.2334
7119.5 3.9506 3.7954 3.6077 115.8926 7.7796 0.0011 0.2565 3.4125 2.5692 -464.5000 0.2415
7120.0 3.9790 3.7925 3.6057 116.8832 7.7907 -0.0010 0.2604 3.3738 2.5601 -464.5859 0.2377
7120.5 4.0274 3.8386 3.6542 117.9026 7.8018 -0.0027 0.2631 3.3955 2.5452 -464.6250 0.2388
7121.0 4.1181 3.9237 3.7352 119.3182 7.8352 -0.0052 0.2509 3.4808 2.5268 -464.5536 0.2418
7121.5 4.2738 4.0622 3.8631 113.2888 7.7796 -0.0073 0.2397 3.5443 2.5151 -464.8438 0.2273
7122.0 4.1508 3.9858 3.7858 117.0248 7.7907 -0.0076 0.2389 3.5697 2.5103 -465.0000 0.2222
7122.5 3.9826 3.8066 3.6400 116.5154 7.8018 -0.0058 0.2438 3.5423 2.5157 -464.9219 0.2316
7123.0 3.9243 3.7251 3.5495 120.3653 7.7907 -0.0040 0.2289 3.5298 2.5141 -465.0859 0.2304
7123.5 3.7034 3.5911 3.4255 116.1760 7.8018 0.0023 0.2189 3.4901 2.5231 -465.2321 0.2112
