~VERSION INFORMATION
VERS.           1.2   :CWLS Log ASCII Standard - VERSION 1.2
WRAP.           NO    :One Line per depth step
PROD.  Schlumberger   :LAS Producer
PROG.  DLIS to ASCII 17C0-152                          :LAS Program name and version
CREA.        2013/11/03 06:14                          :LAS Creation date {YYYY/MM/DD hh:mm}
DLIS_CREA.  2013-Nov-02 20:25                          :DLIS Creation date and time {YYYY-MMM-DD hh:mm}
SOURCE.     36f617ea-a8f9-4f31-9cfe-b4906ac6e0fc       :DLIS File Name
#--------------------------------------------------
~WELL INFORMATION
#MNEM.UNIT      DATA             DESCRIPTION
#---- ------ --------------   -----------------------------
STRT .F      1000.5000       :START DEPTH        # original; data subset to 5500-8000
STOP .F      7745.0000       :STOP DEPTH        # original; data subset to 5500-8000
STEP .F       0.5000         :STEP       
NULL .          -999.25      :NULL VALUE
COMP .                 COMPANY:  Bear Oil & Gas, Inc.               
WELL .                    WELL:  Marquardt 34-31                    
FLD  .                   FIELD:  Wildcat                            
LOC  .                LOCATION:  SWSE, Sec. 31, T16N, R60W          
CNTY .                  COUNTY:  Laramie                            
STAT .                   STATE:  Wyoming                            
CTRY .                 COUNTRY:                                     
SRVC .         SERVICE COMPANY:  Schlumberger                       
LATI .DEG             LATITUDE:  41.305550 degrees                  
LONG .DEG            LONGITUDE:  -104.12401 degrees                 
API  .              API NUMBER:  49-021-21046-0000                  
DATE .                LOG DATE:  02-Nov-2013
UWI  .          UNIQUE WELL ID:                                     
#-----------------------------------------------------------------------------
~PARAMETER INFORMATION
#MNEM.UNIT    VALUE                      DESCRIPTION
#---- -----   --------------------       ------------------------
CN   .        Bear Oil & Gas  Inc.       :Company Name
WN   .        Marquardt 34-31            :Well Name
FN   .        Wildcat                    :Field Name
FL   .        SWSE  Sec. 31  T16N  R60W  :Field Location
FL1  .        SHL  1265' FSL X 1340' FEL :Field Location, Line 1
COUN .        Laramie                    :County or Parish
STAT .        Wyoming                    :State or Province
NATI .                                   :Nation
DATE .        02-Nov-2013                :Tools Above Rotary Table Date
APIN .        49-021-21046-0000          :API Well Number
SECT .        31                         :Section
TOWN .        16N                        :Township
RANG .        60W                        :Range
DMF  .        KB                         :Drilling Measured From (Name of Drilling Elevation Reference)
LMF  .        KB                         :Logging Measured From (Name of Logging Elevation Reference)
PDAT .        GL                         :Permanent Datum
ENGI .        Heather Hoffman            :Engineer s Name
WITN .        Terry Eittreim             :Witness s Name
LATI .        41.305550 degrees          :Latitude
LONG .        -104.12401 degrees         :Longitude
LUL  .        Fort Morgan  CO            :Logging Unit Location
LUN  .        2135                       :Logging Unit Number
RUN  .        PEX BHC AIT                :Run Number
SON  .        CQQL-00004                 :Service Order Number
BHT  .DEGF     185.00000                 :Bottom Hole Temperature
BS   .IN         7.87500                 :Bit Size
MDEN .G/C3       2.65000                 :Matrix Density for Density Porosity
DFD  .LB/G       9.10000                 :Drilling Fluid Density
DFV  .S         82.00000                 :Drilling Fluid Viscosity
DFL  .C3      -999.25000                 :Drilling Fluid Loss
RMFS .OHMM       1.18400                 :Resistivity of Mud Filtrate Sample
EKB  .F       10594.00000                :Elevation of Kelly Bushing
EGL  .F       5291.00000                 :Elevation of Ground Level
BLI  .F       7724.00000                 :Bottom Log Interval
BSAL .PPM        0.00000                 :Borehole Salinity
FLEV .F         50.00000                 :Depth of Drilling Fluid Level to LMF (Log Measured From)
MCST .DEGF      85.00000                 :Mudcake Sample Temperature
MFST .DEGF      85.00000                 :Mud Filtrate Sample Temperature
MRT  .DEGF     185.00000                 :Maximum Recorded Temperature
MST  .DEGF      85.00000                 :Mud Sample Temperature
RMCS .OHMM       1.77600                 :Resistivity of Mud Cake Sample
RMS  .OHMM       1.48000                 :Resistivity of Mud Sample
RW   .OHMM       1.00000                 :Connate Water Resistivity
TDD  .F       7719.99951                 :Driller Total Depth
TDL  .F       7724.00000                 :Logger Total Depth
TLI  .F       1024.00000                 :Top Log Interval
HIDE .        Wildcat                    :Header Identifier
MATR .        SAND                       :Rock Matrix for Neutron Porosity Corrections
FNUM .           1.00000                 :F-Numerator for Formation Factor Formula
FEXP .           2.00000                 :Exponent "m" for Formation Factor Formula
DFT  .        WATER                      :Drilling Fluid Type
DFPH .        -999.25000                 :Drilling Fluid pH
MCSS .        Calculated                 :Mudcake Sample Source
MFSS .        Calculated                 :Mud Filtrate Sample Source
FD   .G/C3       1.00000                 :Fluid Density
MSS  .        Active Tank                :Mud Sample Source
OS1  .                                   :Other Services Line 1
OS2  .                                   :Other Services Line 2
OS3  .                                   :Other Services Line 3
OS4  .                                   :Other Services Line 4
OS5  .                                   :Other Services Line 5
R1   .                                   :Remarks Line 1
R2   .                                   :Remarks Line 2
R3   .                                   :Remarks Line 3
R4   .                                   :Remarks Line 4
R5   .                                   :Remarks Line 5
R6   .                                   :Remarks Line 6
R7   .                                   :Remarks Line 7
R8   .        This is first run in hole. :Remarks Line 8
TCS  .        09 55 00                   :Time Circulation Stopped
TLAB .        20 18 33                   :Time Logger At Bottom
NMT  .        NOBARITE                   :HRDD Mud Type for Nuclear Devices
EPD  .C3         5291.000000             :Elevation of Permanent Datum above Mean Sea Level
APD  .F         5303.000000              :Elevation of Depth Reference (LMF) above Permanent Datum
#-----------------------------------------------------------------------------
~CURVE INFORMATION
#MNEM.UNIT   API CODE                                  DESCRIPTION
#---- -----  --------                                  -----------------------
DEPT .F                                                :DEPTH (BOREHOLE) {F12.4}
AT10 .OHMM                                             :Array Induction Two Foot Resistivity A10 {F11.4}
AT30 .OHMM                                             :Array Induction Two Foot Resistivity A30 {F11.4}
AT90 .OHMM                                             :Array Induction Two Foot Resistivity A90 {F11.4}
DT   .US/F                                             :Delta-T (also called Slowness or Interval Transit Time) {F11.4}
GR   .GAPI                                             :Gamma Ray {F11.4}
HCAL .IN                                               :HRCC Caliper Calibrated {F11.4}
HDRA .G/C3                                             :Density Standoff Correction {F11.4}
NPHI .CFCF                                             :Thermal Neutron Porosity (original Ratio Method) in Selected Lithology {F11.4}
PEFZ .                                                 :Standard Resolution Formation Photoelectric Factor {F11.4}
RHOZ .G/C3                                             :Standard Resolution Formation Density {F11.4}
SP   .MV                                               :Spontaneous Potential {F11.4}
TNPH .CFCF                                             :Thermal Neutron Porosity (Ratio Method) in Selected Lithology {F11.4}
#-----------------------------------------------------------------------------
# 
#      DEPT        AF10       AF20       AF30       AF60       AF90       AO10       AO20       AO30       AO60       AO90       AT10       AT20       AT30       AT60       AT90     AHFCO60      AHMF      AHORT      AHORX      AHSCA     AHTCO10    AHTCO20    AHTCO30    AHTCO60    AHTCO90     AHTD1      AHTD2      AHTRT      AHTRX       CDF        CFTC       CNTC       CTEM       DCAL       DNPH       DPHZ       DSOZ        DT        ECGR        ED        GDEV        GR        GTEM       HCAL       HDRA       HDRB       HGR        HMIN       HMNO       HNPO       HPRA       HTNP       ITT         ND        NPHI       NPOR       PEFZ    PXND_HILT     RHOZ       RSOZ     RWA_HILT     RXO8       RXOZ        SP        SPAR       SPHI       STIT       TENS       TNPH     HTNP_SAN
#
~A  DEPT AT10 AT30 AT90 DT GR HCAL HDRA NPHI PEFZ RHOZ SP TNPH
# ...
6382.5000 2.3624 2.1979 2.0997 93.8058 124.5115 7.7141 0.0254 0.3156 3.0599 2.5103 -200.1161 0.2960
6383.0000 2.3850 2.2271 2.1141 93.7645 119.2805 7.7587 0.0131 0.3232 3.1001 2.5104 -200.0391 0.3072
6383.5000 2.3785 2.2181 2.1152 94.1275 113.4912 7.7252 0.0097 0.3276 3.1199 2.4967 -199.8839 0.3148
6384.0000 2.3720 2.2063 2.1097 93.4464 122.7773 7.7587 0.0214 0.3179 3.1071 2.5002 -199.7969 0.3183
6384.5000 2.4223 2.2518 2.1628 94.0539 129.3599 7.8032 0.0339 0.3146 3.0850 2.4985 -199.6071 0.3059
6385.0000 2.4567 2.2841 2.2092 94.0631 129.3604 7.7809 0.0511 0.3116 3.0940 2.5146 -199.4844 0.3015
6385.5000 2.4735 2.3023 2.2307 92.2422 125.8634 7.7809 0.0551 0.3016 3.1167 2.5252 -199.3828 0.2966
6386.0000 2.5758 2.3893 2.3201 92.3856 122.3955 7.8032 0.0564 0.2976 3.1413 2.5401 -199.4375 0.2907
6386.5000 2.6881 2.4871 2.4155 91.3043 119.1332 7.8032 0.0487 0.3103 3.1492 2.5341 -199.5000 0.2860
6387.0000 2.6878 2.4597 2.3846 90.8631 117.5757 7.8032 0.0591 0.3026 3.1441 2.5444 -199.5446 0.2987
6387.5000 2.5694 2.3770 2.3086 91.8282 113.5796 7.8032 0.0700 0.3033 3.1218 2.5461 -199.4219 0.2964
6388.0000 2.4498 2.2810 2.2139 92.8154 111.5226 7.7809 0.0812 0.3079 3.1122 2.5441 -199.3125 0.3051
6388.5000 2.3507 2.2063 2.1358 93.7068 113.9029 7.8032 0.0732 0.3155 3.1080 2.5197 -199.3281 0.3080
6389.0000 2.3577 2.2135 2.1369 94.0417 117.1939 7.7809 0.0654 0.3152 3.0968 2.5110 -199.4732 0.3070
6389.5000 2.3734 2.2185 2.1359 94.1108 128.5078 7.7809 0.0653 0.3087 3.0903 2.5209 -199.6719 0.3044
6390.0000 2.3688 2.2047 2.1247 93.3578 132.2402 7.7809 0.0559 0.3296 3.0863 2.5168 -199.7768 0.3026
6390.5000 2.3717 2.2004 2.1150 93.7794 129.4189 7.7809 0.0501 0.3426 3.1056 2.5160 -199.9196 0.3180
6391.0000 2.3667 2.1912 2.1088 94.0931 126.4805 7.7587 0.0454 0.3605 3.1201 2.5138 -199.8750 0.3203
6391.5000 2.3362 2.1727 2.0952 94.5044 125.4224 7.7587 0.0549 0.3456 3.1249 2.5241 -199.7768 0.3346
6392.0000 2.3075 2.1433 2.0702 95.1634 135.2970 7.7809 0.0642 0.3233 3.1256 2.5204 -199.7344 0.3366
6392.5000 2.2952 2.1509 2.0754 95.4221 133.0925 7.7364 0.0698 0.3015 3.1099 2.5179 -199.8516 0.3222
6393.0000 2.3314 2.1710 2.0964 95.1328 139.7929 7.7921 0.0728 0.3091 3.0907 2.5172 -200.2411 0.3023
6393.5000 2.3701 2.2066 2.1251 95.0815 135.8838 7.8255 0.0753 0.3234 3.0624 2.5215 -200.1484 0.3041
6394.0000 2.4142 2.2336 2.1561 94.6419 131.9758 7.8589 0.0873 0.3320 3.0704 2.5221 -200.0357 0.3125
6394.5000 2.4094 2.2224 2.1436 94.2741 122.8069 7.8478 0.0934 0.3357 3.0928 2.5096 -200.1786 0.3211
6395.0000 2.3585 2.1947 2.1152 95.0377 117.0770 7.8478 0.1014 0.3443 3.1220 2.5102 -199.8906 0.3248
6395.5000 2.3066 2.1437 2.0730 94.3691 116.2536 7.9592 0.0934 0.3400 3.1264 2.5121 -199.6607 0.3353
6396.0000 2.3344 2.1642 2.0790 94.3656 120.0155 7.8701 0.0791 0.3345 3.1197 2.5177 -199.7031 0.3248
6396.5000 2.3583 2.1997 2.0979 93.9851 124.1000 7.8701 0.0606 0.3245 3.1075 2.5192 -199.8929 0.3192
6397.0000 2.3849 2.2237 2.1244 93.4151 127.5974 7.8701 0.0495 0.3084 3.0966 2.5131 -200.0625 0.3163
6397.5000 2.3632 2.2158 2.1042 93.2089 118.1931 7.8478 0.0571 0.3141 3.0921 2.5062 -200.2422 0.3095
6398.0000 2.3381 2.1799 2.0762 93.8694 114.0791 7.8255 0.0795 0.3075 3.0926 2.4986 -200.4643 0.3140
6398.5000 2.2791 2.1310 2.0242 94.3209 109.5237 7.8701 0.1051 0.3284 3.0860 2.4885 -200.5313 0.3096
6399.0000 2.1920 2.0581 1.9597 94.7471 114.3433 7.8478 0.1201 0.3156 3.0638 2.4906 -200.2589 0.3152
6399.5000 2.1236 1.9775 1.8888 95.4454 116.9590 7.9481 0.1147 0.3154 3.0223 2.4934 -200.0078 0.3018
6400.0000 2.0557 1.9220 1.8362 95.4984 123.1599 7.9815 0.1063 0.3078 2.9912 2.5003 -200.0089 0.3114
6400.5000 1.9995 1.8852 1.8129 96.6864 125.3934 7.8478 0.0960 0.3292 2.9836 2.4993 -200.1250 0.3054
6401.0000 1.9600 1.8261 1.7845 97.0038 129.1541 7.9147 0.0945 0.3449 3.0114 2.5019 -200.0357 0.3241
6401.5000 1.9487 1.8049 1.7402 97.8759 131.6523 7.9592 0.0929 0.3493 3.0555 2.4989 -200.1094 0.3321
6402.0000 2.0462 1.8772 1.7974 97.9067 129.6241 7.9147 0.1024 0.3507 3.0960 2.5074 -199.9643 0.3304
6402.5000 2.0912 1.9285 1.8388 96.9029 126.5684 7.8701 0.1113 0.3429 3.0985 2.4977 -199.7232 0.3329
6403.0000 2.1537 1.9963 1.9024 96.4639 121.6020 7.9370 0.1169 0.3481 3.0790 2.4963 -199.7578 0.3293
6403.5000 2.2232 2.0376 1.9369 95.6979 127.3912 7.9370 0.1124 0.3487 3.0594 2.4926 -199.9375 0.3330
6404.0000 2.2464 2.0734 1.9677 95.5379 126.9506 7.9147 0.1089 0.3478 3.0688 2.4951 -199.8828 0.3368
6404.5000 2.2451 2.0848 1.9843 95.7157 125.5692 7.9147 0.1076 0.3214 3.0873 2.5002 -199.8594 0.3388
6405.0000 2.3488 2.1212 2.0117 94.5858 117.1059 7.8255 0.1135 0.2991 3.1335 2.5192 -199.7321 0.3129
6405.5000 2.5021 2.2678 2.1514 91.9388 115.6657 7.8701 0.1082 0.2955 3.2119 2.5258 -199.9844 0.3002
6406.0000 2.4675 2.2465 2.1230 92.4833 119.7211 7.8367 0.1031 0.3066 3.2734 2.5415 -199.9107 0.2961
6406.5000 2.2579 2.0777 1.9902 92.7825 126.3039 7.8255 0.0941 0.3265 3.2730 2.5185 -199.9609 0.2988
6407.0000 2.1476 2.0001 1.9234 96.0455 126.0982 7.8367 0.1018 0.3475 3.2289 2.5198 -199.9732 0.3115
6407.5000 2.1394 1.9833 1.9088 96.7551 131.2113 7.8255 0.1097 0.3660 3.2032 2.5191 -199.9554 0.3289
6408.0000 2.1578 2.0021 1.9314 96.6318 130.1827 7.9035 0.1138 0.3443 3.2233 2.5260 -199.8984 0.3457
6408.5000 2.1789 2.0169 1.9418 96.7497 139.0872 7.8478 0.1114 0.3403 3.2616 2.5336 -199.8672 0.3355
6409.0000 2.1641 1.9987 1.9259 96.6582 131.5055 7.8924 0.1023 0.3360 3.2789 2.5222 -199.9375 0.3333
6409.5000 2.1567 1.9916 1.9242 95.9882 129.4774 7.9370 0.0959 0.3440 3.2578 2.5272 -199.7891 0.3323
6410.0000 2.1726 2.0060 1.9385 96.1383 131.0639 8.0038 0.0801 0.3286 3.2024 2.5189 -199.6518 0.3320
6410.5000 2.1806 2.0048 1.9323 95.6530 134.1789 8.0038 0.0721 0.3296 3.1633 2.5182 -199.5536 0.3176
6411.0000 2.1051 1.9502 1.8807 96.6277 137.2354 7.8924 0.0682 0.3232 3.1444 2.5053 -199.8203 0.3305
6411.5000 2.0408 1.8892 1.8242 97.0534 127.8904 7.8701 0.0830 0.3486 3.1371 2.5026 -200.1406 0.3236
6412.0000 2.0077 1.8687 1.8041 97.7005 127.6558 7.8255 0.0979 0.3303 3.1210 2.5113 -200.0982 0.3369
6412.5000 2.0531 1.8905 1.8191 98.1318 122.4833 7.8701 0.1009 0.3329 3.1205 2.5218 -200.2857 0.3141
6413.0000 2.0882 1.9265 1.8480 97.7230 121.1315 7.8478 0.0997 0.3129 3.1508 2.5301 -200.1172 0.3165
6413.5000 2.0417 1.8983 1.8223 98.0031 124.0113 7.8924 0.1015 0.3326 3.1753 2.5334 -199.7813 0.3097
6414.0000 1.9964 1.8481 1.7797 97.5896 124.7170 7.8478 0.1046 0.3490 3.1478 2.5142 -199.6607 0.3290
6414.5000 1.9809 1.8528 1.7830 98.0382 129.4483 7.8924 0.1072 0.3496 3.0936 2.5057 -199.7578 0.3348
6415.0000 2.0529 1.9004 1.8286 96.5628 119.5152 7.9147 0.1035 0.3282 3.0752 2.4998 -199.9643 0.3316
6415.5000 2.1233 1.9710 1.8875 94.5155 113.0797 7.8367 0.1102 0.3290 3.1020 2.5239 -200.1719 0.3159
6416.0000 2.2007 2.0113 1.9348 94.5270 110.6408 7.8255 0.1260 0.3173 3.1416 2.5347 -200.2321 0.3285
6416.5000 2.1214 1.9701 1.8998 94.6183 114.8136 7.8701 0.1438 0.3171 3.1332 2.5257 -199.9531 0.3165
6417.0000 2.0971 1.9356 1.8762 95.8325 129.9486 7.9147 0.1560 0.3289 3.0992 2.5165 -199.6786 0.3047
6417.5000 2.1040 1.9574 1.8932 97.5386 134.8558 7.8478 0.1408 0.3427 3.0489 2.5079 -199.6016 0.3124
6418.0000 2.1752 2.0093 1.9445 96.9693 140.7919 7.8032 0.1215 0.3391 3.0328 2.5137 -199.5804 0.3203
6418.5000 2.2079 2.0465 1.9727 96.7825 137.3824 7.8032 0.1134 0.3076 3.0490 2.5104 -199.6484 0.3238
6419.0000 2.2576 2.1034 2.0448 96.0471 135.5311 7.7809 0.1267 0.3160 3.0781 2.5052 -199.8214 0.3037
6419.5000 2.3003 2.1126 2.0514 96.0992 133.7093 7.8032 0.1463 0.3199 3.0846 2.4983 -199.9219 0.3143
6420.0000 2.2669 2.0627 2.0094 96.6342 128.4201 7.8478 0.1612 0.3417 3.0775 2.5048 -200.1607 0.3113
6420.5000 2.1680 1.9942 1.9400 97.0350 128.4200 8.0930 0.1577 0.3509 3.0684 2.4961 -200.0234 0.3297
6421.0000 2.0774 1.9528 1.9057 97.8746 128.8313 7.8255 0.1530 0.3538 3.0970 2.5045 -199.8929 0.3442
6421.5000 2.0511 1.9010 1.8608 96.8324 129.8007 7.8924 0.1392 0.3378 3.1833 2.5076 -199.7266 0.3461
6422.0000 2.0547 1.9089 1.8670 97.0415 123.6885 7.8478 0.1455 0.3422 3.2910 2.5236 -199.7344 0.3341
