~VERSION INFORMATION
VERS.           1.2   :CWLS Log ASCII Standard - VERSION 1.2
WRAP.           NO    :One Line per depth step
PROD.  Schlumberger   :LAS Producer
PROG.  DLIS to ASCII 17C0-152                          :LAS Program name and version
CREA.        2013/11/03 06:14                          :LAS Creation date {YYYY/MM/DD hh:mm}
DLIS_CREA.  2013-Nov-02 20:25                          :DLIS Creation date and time {YYYY-MMM-DD hh:mm}
SOURCE.     36f617ea-a8f9-4f31-9cfe-b4906ac6e0fc       :DLIS File Name
#--------------------------------------------------
~WELL INFORMATION
#MNEM.UNIT      DATA             DESCRIPTION
#---- ------ --------------   -----------------------------
STRT .F      1000.5000       :START DEPTH        # original; data subset to 5500-8000
STOP .F      7745.0000       :STOP DEPTH        # original; data subset to 5500-8000
STEP .F       0.5000         :STEP       
NULL .          -999.25      :NULL VALUE
COMP .                 COMPANY:  Bear Oil & Gas, Inc.               
WELL .                    WELL:  Marquardt 34-31                    
FLD  .                   FIELD:  Wildcat                            
LOC  .                LOCATION:  SWSE, Sec. 31, T16N, R60W          
CNTY .                  COUNTY:  Laramie                            
STAT .                   STATE:  Wyoming                            
CTRY .                 COUNTRY:                                     
SRVC .         SERVICE COMPANY:  Schlumberger                       
LATI .DEG             LATITUDE:  41.305550 degrees                  
LONG .DEG            LONGITUDE:  -104.12401 degrees                 
API  .              API NUMBER:  49-021-21046-0000                  
DATE .                LOG DATE:  02-Nov-2013
UWI  .          UNIQUE WELL ID:                                     
#-----------------------------------------------------------------------------
~PARAMETER INFORMATION
#MNEM.UNIT    VALUE                      DESCRIPTION
#---- -----   --------------------       ------------------------
CN   .        Bear Oil & Gas  Inc.       :Company Name
WN   .        Marquardt 34-31            :Well Name
FN   .        Wildcat                    :Field Name
FL   .        SWSE  Sec. 31  T16N  R60W  :Field Location
FL1  .        SHL  1265' FSL X 1340' FEL :Field Location, Line 1
COUN .        Laramie                    :County or Parish
STAT .        Wyoming                    :State or Province
NATI .                                   :Nation
DATE .        02-Nov-2013                :Tools Above Rotary Table Date
APIN .        49-021-21046-0000          :API Well Number
SECT .        31                         :Section
TOWN .        16N                        :Township
RANG .        60W                        :Range
DMF  .        KB                         :Drilling Measured From (Name of Drilling Elevation Reference)
LMF  .        KB                         :Logging Measured From (Name of Logging Elevation Reference)
PDAT .        GL                         :Permanent Datum
ENGI .        Heather Hoffman            :Engineer s Name
WITN .        Terry Eittreim             :Witness s Name
LATI .        41.305550 degrees          :Latitude
LONG .        -104.12401 degrees         :Longitude
LUL  .        Fort Morgan  CO            :Logging Unit Location
LUN  .        2135                       :Logging Unit Number
RUN  .        PEX BHC AIT                :Run Number
SON  .        CQQL-00004                 :Service Order Number
BHT  .DEGF     185.00000                 :Bottom Hole Temperature
BS   .IN         7.87500                 :Bit Size
MDEN .G/C3       2.65000                 :Matrix Density for Density Porosity
DFD  .LB/G       9.10000                 :Drilling Fluid Density
DFV  .S         82.00000                 :Drilling Fluid Viscosity
DFL  .C3      -999.25000                 :Drilling Fluid Loss
RMFS .OHMM       1.18400                 :Resistivity of Mud Filtrate Sample
EKB  .F       10594.00000                :Elevation of Kelly Bushing
EGL  .F       5291.00000                 :Elevation of Ground Level
BLI  .F       7724.00000                 :Bottom Log Interval
BSAL .PPM        0.00000                 :Borehole Salinity
FLEV .F         50.00000                 :Depth of Drilling Fluid Level to LMF (Log Measured From)
MCST .DEGF      85.00000                 :Mudcake Sample Temperature
MFST .DEGF      85.00000                 :Mud Filtrate Sample Temperature
MRT  .DEGF     185.00000                 :Maximum Recorded Temperature
MST  .DEGF      85.00000                 :Mud Sample Temperature
RMCS .OHMM       1.77600                 :Resistivity of Mud Cake Sample
RMS  .OHMM       1.48000                 :Resistivity of Mud Sample
RW   .OHMM       1.00000                 :Connate Water Resistivity
TDD  .F       7719.99951                 :Driller Total Depth
TDL  .F       7724.00000                 :Logger Total Depth
TLI  .F       1024.00000                 :Top Log Interval
HIDE .        Wildcat                    :Header Identifier
MATR .        SAND                       :Rock Matrix for Neutron Porosity Corrections
FNUM .           1.00000                 :F-Numerator for Formation Factor Formula
FEXP .           2.00000                 :Exponent "m" for Formation Factor Formula
DFT  .        WATER                      :Drilling Fluid Type
DFPH .        -999.25000                 :Drilling Fluid pH
MCSS .        Calculated                 :Mudcake Sample Source
MFSS .        Calculated                 :Mud Filtrate Sample Source
FD   .G/C3       1.00000                 :Fluid Density
MSS  .        Active Tank                :Mud Sample Source
OS1  .                                   :Other Services Line 1
OS2  .                                   :Other Services Line 2
OS3  .                                   :Other Services Line 3
OS4  .                                   :Other Services Line 4
OS5  .                                   :Other Services Line 5
R1   .                                   :Remarks Line 1
R2   .                                   :Remarks Line 2
R3   .                                   :Remarks Line 3
R4   .                                   :Remarks Line 4
R5   .                                   :Remarks Line 5
R6   .                                   :Remarks Line 6
R7   .                                   :Remarks Line 7
R8   .        This is first run in hole. :Remarks Line 8
TCS  .        09 55 00                   :Time Circulation Stopped
TLAB .        20 18 33                   :Time Logger At Bottom
NMT  .        NOBARITE                   :HRDD Mud Type for Nuclear Devices
EPD  .C3         5291.000000             :Elevation of Permanent Datum above Mean Sea Level
APD  .F         5303.000000              :Elevation of Depth Reference (LMF) above Permanent Datum
#-----------------------------------------------------------------------------
~CURVE INFORMATION
#MNEM.UNIT   API CODE                                  DESCRIPTION
#---- -----  --------                                  -----------------------
DEPT .F                                                :DEPTH (BOREHOLE) {F12.4}
AT10 .OHMM                                             :Array Induction Two Foot Resistivity A10 {F11.4}
AT30 .OHMM                                             :Array Induction Two Foot Resistivity A30 {F11.4}
AT90 .OHMM                                             :Array Induction Two Foot Resistivity A90 {F11.4}
DT   .US/F                                             :Delta-T (also called Slowness or Interval Transit Time) {F11.4}
GR   .GAPI                                             :Gamma Ray {F11.4}
HCAL .IN                                               :HRCC Caliper Calibrated {F11.4}
HDRA .G/C3                                             :Density Standoff Correction {F11.4}
NPHI .CFCF                                             :Thermal Neutron Porosity (original Ratio Method) in Selected Lithology {F11.4}
PEFZ .                                                 :Standard Resolution Formation Photoelectric Factor {F11.4}
RHOZ .G/C3                                             :Standard Resolution Formation Density {F11.4}
SP   .MV                                               :Spontaneous Potential {F11.4}
TNPH .CFCF                                             :Thermal Neutron Porosity (Ratio Method) in Selected Lithology {F11.4}
#-----------------------------------------------------------------------------
# 
#      DEPT        AF10       AF20       AF30       AF60       AF90       AO10       AO20       AO30       AO60       AO90       AT10       AT20       AT30       AT60       AT90     AHFCO60      AHMF      AHORT      AHORX      AHSCA     AHTCO10    AHTCO20    AHTCO30    AHTCO60    AHTCO90     AHTD1      AHTD2      AHTRT      AHTRX       CDF        CFTC       CNTC       CTEM       DCAL       DNPH       DPHZ       DSOZ        DT        ECGR        ED        GDEV        GR        GTEM       HCAL       HDRA       HDRB       HGR        HMIN       HMNO       HNPO       HPRA       HTNP       ITT         ND        NPHI       NPOR       PEFZ    PXND_HILT     RHOZ       RSOZ     RWA_HILT     RXO8       RXOZ        SP        SPAR       SPHI       STIT       TENS       TNPH     HTNP_SAN
#
~A  DEPT AT10 AT30 AT90 DT GR HCAL HDRA NPHI PEFZ RHOZ SP TNPH
# ...
6661.5000 22.1176 21.9572 20.1389 81.3882 177.3197 7.6472 -0.0044 0.2013 4.8284 2.4230 -214.6518 0.1922
6662.0000 21.1103 20.2501 18.7105 81.7728 182.4619 7.6695 -0.0014 0.2173 4.7025 2.4260 -213.5536 0.1960
6662.5000 16.7501 17.7630 16.5510 82.1417 173.9395 7.6695 -0.0005 0.2322 4.6453 2.4248 -213.4688 0.2031
6663.0000 13.1102 12.5172 11.9230 80.3608 163.8303 7.6472 0.0018 0.2410 4.6457 2.4333 -213.5357 0.2042
6663.5000 12.4881 11.5211 10.8733 79.6416 148.4021 7.6695 0.0043 0.2271 4.7530 2.4410 -215.1563 0.2137
6664.0000 17.6333 16.2913 14.9782 79.1459 160.1572 7.6695 0.0056 0.2236 4.8924 2.4402 -216.0446 0.2055
6664.5000 24.4140 23.8455 21.6638 80.4859 171.9120 7.6472 0.0050 0.2274 4.9214 2.4326 -215.9911 0.2132
6665.0000 24.1485 24.4747 21.9798 83.1049 184.2545 7.6695 0.0006 0.2452 4.9325 2.4148 -216.0703 0.2126
6665.5000 21.9382 21.4926 19.7970 79.6249 181.6680 7.6695 -0.0024 0.2332 4.8937 2.4069 -217.0714 0.2228
6666.0000 20.3655 19.9914 18.3106 82.0141 175.0852 7.6695 -0.0028 0.2108 4.8774 2.4057 -217.8359 0.2099
6666.5000 22.5955 21.4589 20.2200 82.3663 185.1650 7.6695 -0.0008 0.2078 4.8016 2.4070 -216.4643 0.1968
6667.0000 24.7423 24.8144 23.5650 83.5761 202.7975 7.6695 0.0001 0.2113 4.7191 2.4038 -215.3438 0.2054
6667.5000 25.8810 26.0018 24.1423 87.6128 218.0201 7.6695 -0.0026 0.2345 4.6878 2.3952 -214.9464 0.2015
6668.0000 24.1238 24.1303 22.4341 86.5681 215.5214 7.6472 -0.0058 0.2318 4.6948 2.3917 -214.8125 0.2137
6668.5000 21.8025 22.2037 20.1510 85.1326 210.3495 7.6806 -0.0082 0.2289 4.7712 2.3880 -215.3359 0.2086
6669.0000 20.3231 20.4609 18.9124 83.9605 201.5042 7.6695 -0.0066 0.2095 4.8121 2.3940 -216.0893 0.2048
6669.5000 19.0552 18.9099 17.9874 83.1794 193.5118 7.6472 -0.0039 0.2022 4.8393 2.4010 -216.9922 0.1913
6670.0000 18.1455 17.8752 17.0437 85.1346 195.8631 7.6695 -0.0021 0.2244 4.8316 2.4094 -218.2054 0.1891
6670.5000 19.0207 18.3183 17.2500 82.6053 202.1811 7.6472 -0.0020 0.2478 4.8418 2.4205 -219.3203 0.2033
6671.0000 19.0452 18.7820 17.5379 79.5562 178.9359 7.6695 -0.0023 0.2279 4.8498 2.4401 -221.4464 0.2103
6671.5000 18.6822 18.5792 17.4502 77.7838 152.1340 7.6695 -0.0032 0.1904 4.9096 2.4508 -223.0536 0.1787
6672.0000 19.0004 18.4887 17.3939 74.7727 134.0911 7.6472 -0.0045 0.1653 5.0085 2.4419 -222.0625 0.1602
6672.5000 19.7823 19.7918 18.4046 76.8849 156.3964 7.6584 -0.0064 0.1842 5.1033 2.4162 -219.7500 0.1652
6673.0000 19.6551 20.1924 18.7132 82.4462 182.7268 7.6472 -0.0072 0.2154 5.0921 2.3998 -218.1328 0.1891
6673.5000 18.4878 17.9874 17.0570 84.4699 202.0632 7.6695 -0.0050 0.2312 4.9821 2.4049 -217.2143 0.2063
6674.0000 18.4116 17.5108 16.3567 83.5845 208.4097 7.6472 -0.0013 0.2257 4.8962 2.4250 -218.5089 0.2008
6674.5000 18.9030 19.0279 17.5996 80.4398 191.4833 7.6695 0.0005 0.1925 4.9057 2.4421 -220.0078 0.1840
6675.0000 19.2661 19.2709 17.8125 77.3971 171.9408 7.6695 -0.0001 0.1818 4.9629 2.4530 -220.6250 0.1611
6675.5000 18.6045 18.6805 17.5581 76.5844 166.0636 7.6695 0.0002 0.1785 4.9889 2.4631 -220.0000 0.1630
6676.0000 18.2391 18.2230 17.4001 76.4659 162.4494 7.6695 -0.0018 0.1935 4.9791 2.4691 -219.4107 0.1697
6676.5000 18.8886 18.8971 17.6871 80.1857 173.4104 7.6472 -0.0004 0.1962 4.9873 2.4627 -219.7031 0.1830
6677.0000 17.7152 17.5193 16.4802 79.7503 171.2946 7.6918 -0.0017 0.2128 4.9979 2.4482 -219.6607 0.1818
6677.5000 16.5343 16.5709 15.6205 78.8461 173.9690 7.6472 -0.0012 0.2122 5.0458 2.4331 -220.7500 0.1892
6678.0000 16.2636 16.3418 15.3867 78.5669 156.3370 7.6472 -0.0049 0.1969 5.0701 2.4256 -221.9063 0.1862
6678.5000 15.9598 16.0347 15.2544 77.9506 146.3756 7.6472 -0.0081 0.1983 5.0812 2.4191 -222.1339 0.1741
6679.0000 16.4218 16.4075 15.5962 77.4104 146.8452 7.6806 -0.0096 0.2059 5.0388 2.4188 -221.4688 0.1830
6679.5000 17.0441 16.4703 15.5637 77.3681 144.4940 7.6695 -0.0098 0.2115 4.9981 2.4245 -221.8214 0.1892
6680.0000 16.1703 15.2678 14.6481 76.2396 134.6198 7.6472 -0.0094 0.1923 4.9792 2.4301 -221.7500 0.1834
6680.5000 14.1309 13.2042 12.7132 76.9274 121.6896 7.6918 -0.0062 0.1879 4.9056 2.4446 -220.7109 0.1708
6681.0000 11.9169 11.5529 11.0721 75.9824 118.7806 7.6472 -0.0034 0.1933 4.8737 2.4535 -219.4554 0.1742
6681.5000 9.9185 9.6420 9.3164 75.3261 104.9986 7.6695 -0.0005 0.1808 4.8697 2.4658 -220.2500 0.1715
6682.0000 8.4077 8.1401 7.8578 75.4607 88.4542 7.6918 0.0013 0.1636 4.9242 2.4753 -220.4643 0.1559
6682.5000 8.4708 8.1185 7.7306 73.1841 86.6615 7.6695 0.0042 0.1582 4.9342 2.4873 -219.3571 0.1491
6683.0000 8.8727 8.4646 7.9861 75.9794 94.2721 7.6472 0.0063 0.1889 4.8931 2.4911 -217.4375 0.1533
6683.5000 8.8231 8.3816 7.8591 78.8412 117.6352 7.6472 0.0073 0.2136 4.8582 2.4880 -215.7143 0.1813
6684.0000 8.9348 8.3218 7.7268 80.2147 118.6048 7.6806 0.0045 0.2244 4.8561 2.4735 -216.5469 0.1989
6684.5000 9.1260 8.3724 7.8794 78.6109 116.8713 7.6695 0.0036 0.2055 4.9009 2.4734 -218.4821 0.1955
6685.0000 8.6305 8.2369 7.7253 77.8920 102.5298 7.6918 0.0015 0.1931 4.9346 2.4714 -220.8304 0.1727
6685.5000 8.0985 7.6692 7.3820 75.7215 91.2160 7.6806 0.0005 0.1827 4.9457 2.4733 -222.0391 0.1652
6686.0000 7.5892 7.2157 6.9044 72.4320 86.2788 7.6695 -0.0004 0.1736 4.8545 2.4745 -223.7411 0.1582
6686.5000 7.8043 7.4639 7.1668 73.5890 85.2801 7.6695 0.0004 0.1694 4.7887 2.4771 -222.9844 0.1578
6687.0000 8.4184 8.0747 7.7314 75.7626 112.0807 7.6918 0.0025 0.1873 4.7346 2.4782 -220.1161 0.1677
6687.5000 9.1597 8.7817 8.3714 78.6745 142.6435 7.6695 0.0011 0.2213 4.7941 2.4571 -217.8750 0.1902
6688.0000 10.2266 9.6061 9.2076 82.1164 164.0367 7.6695 -0.0017 0.2308 4.8750 2.4344 -217.9911 0.2133
6688.5000 11.8642 11.0199 10.4617 80.0272 154.6322 7.6695 -0.0008 0.2205 4.9466 2.4378 -219.6094 0.2022
6689.0000 12.0580 11.6820 11.0161 77.1815 129.7119 7.6584 -0.0009 0.1854 5.0003 2.4613 -222.0089 0.1797
6689.5000 11.3505 10.9272 10.3110 74.9317 105.3214 7.6918 0.0021 0.1721 4.9764 2.4850 -223.0893 0.1519
6690.0000 11.0812 10.8496 10.3226 72.2644 90.0409 7.6918 0.0005 0.1578 4.9262 2.4838 -223.6406 0.1452
6690.5000 11.6313 11.0496 10.6289 73.3095 93.9493 7.6472 0.0018 0.1644 4.8940 2.4708 -223.0625 0.1447
6691.0000 12.1845 11.7450 11.2815 74.3472 103.3529 7.6472 0.0005 0.1807 4.9086 2.4571 -221.6953 0.1591
6691.5000 12.6387 12.3006 11.4918 76.3248 110.4942 7.6472 -0.0001 0.2013 4.9346 2.4493 -221.3750 0.1712
6692.0000 12.2929 11.3710 10.6706 76.5281 108.7016 7.6472 0.0005 0.1988 4.8871 2.4552 -222.1964 0.1835
6692.5000 10.2362 9.9429 9.3729 75.1281 103.2945 7.6472 0.0024 0.1800 4.8617 2.4697 -222.2422 0.1798
6693.0000 8.5974 8.3712 7.9473 75.3461 99.7976 7.6695 0.0047 0.1969 4.8690 2.4831 -221.0357 0.1692
6693.5000 7.6009 7.2040 6.8680 74.7948 98.1516 7.6918 0.0057 0.2074 4.9316 2.4835 -221.4911 0.1837
6694.0000 8.5777 7.6935 7.3432 75.0455 93.2437 7.6584 0.0059 0.2100 4.9661 2.4832 -224.8750 0.1809
6694.5000 9.2455 8.6827 8.1781 74.1819 81.6066 7.6918 0.0047 0.1678 4.9567 2.4792 -227.8214 0.1633
6695.0000 9.6336 8.9188 8.3253 71.0423 70.4400 7.6695 0.0018 0.1541 4.9709 2.4748 -229.5391 0.1360
6695.5000 9.3294 8.6817 7.9858 69.6057 65.4735 7.6695 0.0002 0.1472 4.9653 2.4824 -229.7768 0.1325
6696.0000 8.8986 8.3576 7.9050 68.7358 66.4138 7.6918 0.0001 0.1492 4.9348 2.4894 -228.2578 0.1346
6696.5000 8.5126 8.1946 7.7113 72.7877 78.5506 7.6806 0.0004 0.1684 4.8457 2.4930 -224.9821 0.1474
6697.0000 8.5694 8.1356 7.7293 74.3108 91.9510 7.6472 -0.0012 0.1761 4.7740 2.4798 -221.4453 0.1647
6697.5000 8.7352 8.3336 7.8940 75.6266 101.8247 7.6918 -0.0023 0.1785 4.7700 2.4792 -220.9018 0.1637
6698.0000 8.8284 8.4485 7.9753 76.3150 96.8586 7.6584 -0.0020 0.1720 4.8393 2.4840 -220.4911 0.1556
6698.5000 8.7948 8.3806 7.9217 74.0276 88.8362 7.6472 -0.0002 0.1660 4.8902 2.4909 -219.6875 0.1512
6699.0000 9.0122 8.5547 8.1373 73.3174 80.8429 7.6918 0.0005 0.1656 4.9308 2.4863 -219.9554 0.1509
6699.5000 9.1218 8.7758 8.3649 73.8122 80.6074 7.6472 0.0002 0.1526 4.8906 2.4784 -219.9766 0.1487
6700.0000 9.2699 8.9410 8.5792 73.0604 80.1958 7.6695 -0.0009 0.1601 4.8397 2.4688 -219.6696 0.1377
6700.5000 9.9184 9.6492 9.2338 75.2910 93.5964 7.6695 -0.0021 0.1714 4.7730 2.4601 -218.6964 0.1485
