~VERSION INFORMATION
VERS.           2.0   :CWLS Log ASCII Standard - VERSION 2.0
WRAP.           NO    :One Line per depth step
PROD.  Schlumberger   :LAS Producer
PROG.  DLIS to ASCII 19C2-270                          :LAS Program name and version
CREA.        2013/08/28 17:00                          :LAS Creation date {YYYY/MM/DD hh:mm}
DLIS_CREA.  2013-Aug-28 16:23                          :DLIS Creation date and time {YYYY-MMM-DD hh:mm}
SOURCE.     Bear_Oil_Marquardt_43_31_Main_DLIS.dlis    :DLIS File Name
FILE-ID.     MaxWell_5Dlis                             :File Identification Number
#--------------------------------------------------
~WELL INFORMATION
#MNEM.UNIT      DATA             DESCRIPTION
#---- ------ --------------   -----------------------------
STRT .F      1000.5          :START DEPTH        # original; data subset to 5500-8000
STOP .F      7710.0          :STOP DEPTH        # original; data subset to 5500-8000
STEP .F       0.5            :STEP     
NULL .          -999.25      :NULL VALUE
COMP .        Bear Oil and Gas, Inc.                   :COMPANY
WELL .        Marquardt 43 31                          :WELL
FLD  .        Wildcat                                  :FIELD
LOC  .        NESE 1627' FSL & 170' FEL                :LOCATION
CNTY .        Laramie                                  :COUNTY
STAT .        Wyoming                                  :STATE
CTRY .        United States                            :COUNTRY
API  .        049-021-21034                            :API NUMBER
UWI  .        049021210340000                          :UNIQUE WELL ID
DATE .        28-Aug-2013                              :LOG DATE {DD-MMM-YYYY}
SRVC .        Schlumberger                             :SERVICE COMPANY
LATI .DEG     41.306700 degrees                        :LATITUDE
LONG .DEG     -104.11980 degrees                       :LONGITUDE
GDAT .                                                 :GeoDetic Datum
SECT .        31                                       :Section
RANG .        60W                                      :Range
TOWN .        16N                                      :Township
#-----------------------------------------------------------------------------
~PARAMETER INFORMATION
#MNEM.UNIT    VALUE                      DESCRIPTION
#---- -----   --------------------       ------------------------
CN   .        Bear Oil and Gas  Inc.     :Company Name
WN   .        Marquardt 43 31            :Well Name
FN   .        Wildcat                    :Field Name
FL   .        NESE 1627' FSL & 170' FEL  :Field Location
FL1  .        Sec. 31  T. 16N  R. 60W    :Field Location, Line 1
COUN .        Laramie                    :County or Parish
STAT .        Wyoming                    :State or Province
NATI .        United States              :Nation
DATE .        28-Aug-2013                :Tools Above Rotary Table Date
APIN .        049-021-21034              :API Well Number
SECT .        31                         :Section
TOWN .        16N                        :Township
RANG .        60W                        :Range
DMF  .        KB                         :Drilling Measured From (Name of Drilling Elevation Reference)
LMF  .        KB                         :Logging Measured From (Name of Logging Elevation Reference)
PDAT .        GL                         :Permanent Datum
ENGI .        Max Pace                   :Engineer s Name
WITN .        Terry Eittreim             :Witness s Name
LATI .        41.306700 degrees          :Latitude
LONG .        -104.11980 degrees         :Longitude
LUL  .        Fort Morgan  CO            :Logging Unit Location
LUN  .        3022                       :Logging Unit Number
RUN  .        Run 1                      :Run Number
SON  .        CA0R-00043                 :Service Order Number
BHT  .DEGF     166.00000                 :Bottom Hole Temperature
BS   .IN         7.87500                 :Bit Size
MDEN .G/C3       2.65000                 :Matrix Density for Density Porosity
DFD  .LB/G       8.90000                 :Drilling Fluid Density
DFV  .S         65.00000                 :Drilling Fluid Viscosity
DFL  .C3         9.00000                 :Drilling Fluid Loss
RMFS .OHMM       1.11000                 :Resistivity of Mud Filtrate Sample
EKB  .F       5298.00000                 :Elevation of Kelly Bushing
EGL  .F       5286.00000                 :Elevation of Ground Level
BLI  .F       7686.00000                 :Bottom Log Interval
BSAL .PPM     3335.81519                 :Borehole Salinity
FLEV .F          8.00000                 :Depth of Drilling Fluid Level to LMF (Log Measured From)
MCST .DEGF      83.00000                 :Mudcake Sample Temperature
MFST .DEGF      83.00000                 :Mud Filtrate Sample Temperature
MRT  .DEGF     166.00000                 :Maximum Recorded Temperature
MST  .DEGF      83.00000                 :Mud Sample Temperature
RMCS .OHMM       1.85000                 :Resistivity of Mud Cake Sample
RMS  .OHMM       1.48000                 :Resistivity of Mud Sample
RW   .OHMM       1.00000                 :Connate Water Resistivity
TDD  .F       7680.00000                 :Driller Total Depth
TDL  .F       7686.00000                 :Logger Total Depth
TLI  .F       1025.00000                 :Top Log Interval
HIDE .        Wildcat                    :Header Identifier
MATR .        SAND                       :Rock Matrix for Neutron Porosity Corrections
FNUM .           1.00000                 :F-Numerator for Formation Factor Formula
FEXP .           2.00000                 :Exponent "m" for Formation Factor Formula
DFT  .        WATER                      :Drilling Fluid Type
DFPH .           8.00000                 :Drilling Fluid pH
MCSS .        Calculated                 :Mudcake Sample Source
MFSS .        Calculated                 :Mud Filtrate Sample Source
FD   .G/C3       1.00000                 :Fluid Density
MSS  .        Active Tank                :Mud Sample Source
OS1  .                                   :Other Services Line 1
OS2  .                                   :Other Services Line 2
OS3  .                                   :Other Services Line 3
OS4  .                                   :Other Services Line 4
OS5  .                                   :Other Services Line 5
R1   .                                   :Remarks Line 1
R2   .                                   :Remarks Line 2
R3   .                                   :Remarks Line 3
R4   .                                   :Remarks Line 4
R5   .                                   :Remarks Line 5
R6   .                                   :Remarks Line 6
R7   .                                   :Remarks Line 7
R8   .                                   :Remarks Line 8
TCS  .        05 00 00                   :Time Circulation Stopped
TLAB .        14 30 25                   :Time Logger At Bottom
NMT  .        NOBARITE                   :HRDD Mud Type for Nuclear Devices
EPD  .F         5286.000000              :Elevation of Permanent Datum above Mean Sea Level
APD  .F          12.000000               :Elevation of Depth Reference (LMF) above Permanent Datum
#-----------------------------------------------------------------------------
~CURVE INFORMATION
#MNEM.UNIT   API CODE                                  DESCRIPTION
#---- -----  --------                                  -----------------------
DEPT .F                                                :DEPTH (BOREHOLE) {F10.1}
AT10 .OHMM                                             :Array Induction Two Foot Resistivity A10 {F11.4}
AT30 .OHMM                                             :Array Induction Two Foot Resistivity A30 {F11.4}
AT90 .OHMM                                             :Array Induction Two Foot Resistivity A90 {F11.4}
GR   .GAPI                                             :Gamma Ray {F11.4}
HCAL .IN                                               :HRCC Caliper Calibrated {F11.4}
HDRA .G/C3                                             :Density Standoff Correction {F11.4}
NPHI .CFCF                                             :Thermal Neutron Porosity (original Ratio Method) in Selected Lithology {F11.4}
PEFZ .                                                 :Standard Resolution Formation Photoelectric Factor {F11.4}
RHOZ .G/C3                                             :Standard Resolution Formation Density {F11.4}
SP   .MV                                               :Spontaneous Potential {F11.4}
TNPH .CFCF                                             :Thermal Neutron Porosity (Ratio Method) in Selected Lithology {F11.4}
#-----------------------------------------------------------------------------
# 
#     DEPT       AF10       AF20       AF30       AF60       AF90       AO10       AO20       AO30       AO60       AO90       AT10       AT20       AT30       AT60       AT90     AHFCO60      AHMF      AHORT      AHORX      AHSCA     AHTCO10    AHTCO20    AHTCO30    AHTCO60    AHTCO90     AHTD1      AHTD2      AHTRT      AHTRX       CDF        CFTC       CNTC       CTEM       DCAL       DNPH       DPHZ       DSOZ       ECGR        ED        GDEV        GR        GTEM       HCAL       HDRA       HDRB       HGR        HMIN       HMNO       HNPO       HPRA       HTNP        ND        NPHI       NPOR       PEFZ    PXND_HILT     RHOZ       RSOZ     RWA_HILT     RXO8       RXOZ        SP        SPAR       STIT       TENS       TNPH     HTNP_SAN
#
~A  DEPT AT10 AT30 AT90 GR HCAL HDRA NPHI PEFZ RHOZ SP TNPH
# ...
6955.5 5.1805 5.1653 4.8798 127.1795 7.8859 -0.0021 0.1928 3.6794 2.5620 -71.6875 0.1800
6956.0 4.8865 4.8742 4.6362 125.3634 7.8859 -0.0025 0.1960 3.5457 2.5715 -71.7411 0.1826
6956.5 4.6214 4.6026 4.3696 126.5630 7.8859 -0.0008 0.2122 3.3856 2.5881 -71.6875 0.1851
6957.0 4.9738 4.7635 4.5075 124.7480 7.8859 -0.0008 0.2222 3.3763 2.5815 -71.6518 0.1974
6957.5 5.2183 5.1222 4.7572 127.9250 7.8631 0.0065 0.2290 3.4318 2.5743 -71.6786 0.2024
6958.0 5.7755 5.5124 5.1567 125.3310 7.8859 0.0136 0.2307 3.5600 2.5690 -71.7188 0.2066
6958.5 5.4165 5.5892 5.2223 118.8796 7.8631 0.0103 0.2218 3.6683 2.5749 -71.7143 0.2067
6959.0 5.0232 5.1054 4.8456 115.4436 7.8631 0.0005 0.2066 3.7080 2.5814 -71.6429 0.2020
6959.5 5.2344 4.9934 4.7325 113.2072 7.8859 -0.0098 0.1994 3.7630 2.5691 -71.7109 0.1945
6960.0 5.5761 5.4162 5.1237 123.5486 7.8631 -0.0078 0.2052 3.7209 2.5627 -71.7143 0.1906
6960.5 5.6387 5.8182 5.4870 129.9348 7.8631 -0.0072 0.2252 3.6866 2.5541 -71.6953 0.1989
6961.0 5.2513 5.2514 4.9943 137.6181 7.8631 -0.0048 0.2309 3.5434 2.5635 -71.6518 0.2070
6961.5 4.8786 4.9299 4.7076 131.3615 7.8631 -0.0038 0.2448 3.4219 2.5719 -71.6875 0.2094
6962.0 5.7349 5.5526 5.2804 132.4958 7.8631 -0.0004 0.2442 3.3429 2.5862 -71.9375 0.2174
6962.5 6.5588 6.6159 6.1775 119.7882 7.8631 0.0008 0.2292 3.3941 2.5902 -72.1518 0.2120
6963.0 7.9891 7.8611 7.3553 114.3416 7.8631 -0.0000 0.2088 3.6084 2.5871 -72.0391 0.1936
6963.5 8.2581 8.6490 8.0809 101.6334 7.8631 -0.0015 0.1822 3.7910 2.5895 -71.9464 0.1783
6964.0 7.6639 7.8722 7.4408 105.5234 7.8631 -0.0022 0.1813 3.9122 2.5934 -71.9688 0.1618
6964.5 7.2677 7.4219 7.0557 102.4442 7.8631 -0.0012 0.1774 3.8891 2.5980 -71.7768 0.1674
6965.0 7.0580 7.3496 6.8930 103.8060 7.8859 -0.0001 0.1803 3.8442 2.5971 -71.6172 0.1665
6965.5 6.4142 6.6520 6.3801 103.0275 7.8631 0.0001 0.1925 3.7947 2.5977 -71.6071 0.1694
6966.0 6.0482 6.1945 5.9809 109.5108 7.8859 -0.0013 0.1907 3.7668 2.6003 -71.6719 0.1751
6966.5 6.4967 6.6811 6.2332 114.5034 7.8859 -0.0026 0.1920 3.7326 2.6027 -71.6696 0.1714
6967.0 6.7403 6.8602 6.4028 113.2067 7.8745 -0.0007 0.1855 3.6845 2.6111 -71.6641 0.1758
6967.5 7.0184 7.0513 6.6993 116.6109 7.8859 0.0029 0.1905 3.6444 2.6198 -71.6696 0.1718
6968.0 7.4862 7.4851 7.1160 112.5909 7.8859 0.0045 0.1876 3.6422 2.6236 -71.6875 0.1781
6968.5 7.8298 7.9239 7.5794 103.5136 7.8631 0.0019 0.1774 3.7035 2.6151 -71.8304 0.1664
6969.0 7.8380 7.8810 7.6702 95.3440 7.8859 -0.0035 0.1648 3.8410 2.5959 -71.9297 0.1491
6969.5 7.8725 8.1678 7.8206 90.9352 7.8859 -0.0053 0.1567 3.8957 2.5925 -71.8393 0.1398
6970.0 7.7225 8.2882 7.9106 99.1371 7.8859 -0.0051 0.1565 3.8944 2.5960 -71.9286 0.1392
6970.5 6.2742 6.9014 6.6717 105.9772 7.8973 -0.0046 0.1757 3.8354 2.5946 -71.6328 0.1564
6971.0 5.2763 5.5448 5.4244 128.7031 7.9087 -0.0024 0.2173 3.7754 2.5867 -71.4464 0.1849
6971.5 4.1207 4.1432 4.1135 148.2515 7.9087 -0.0018 0.2420 3.7060 2.5719 -71.3750 0.2228
6972.0 4.5896 4.2588 4.0980 151.6232 7.9087 -0.0018 0.2334 3.6769 2.5646 -71.1964 0.2237
6972.5 5.4341 5.5995 5.1870 136.6779 7.9087 0.0035 0.2048 3.6901 2.5663 -71.1563 0.1898
6973.0 5.9659 6.0673 5.7964 122.4138 7.8859 0.0020 0.1884 3.7461 2.5784 -71.3214 0.1706
6973.5 5.8594 5.7813 5.5698 110.8405 7.8859 0.0031 0.1911 3.7124 2.6033 -71.4766 0.1666
6974.0 5.7567 5.7433 5.5650 101.5035 7.8973 -0.0070 0.1887 3.7801 2.6002 -71.4286 0.1755
6974.5 5.5781 5.5333 5.3457 99.1694 7.8859 -0.0074 0.1831 3.8175 2.5935 -71.5156 0.1748
6975.0 5.3697 5.3245 5.1474 98.8124 7.8859 -0.0075 0.1747 3.8543 2.5800 -71.5357 0.1740
6975.5 5.1074 5.1625 4.9609 98.8128 7.9087 -0.0042 0.1784 3.7617 2.5843 -71.3438 0.1683
6976.0 4.7994 4.7658 4.6088 98.5858 7.9087 -0.0011 0.1881 3.6367 2.5940 -71.3482 0.1755
6976.5 4.5579 4.5301 4.3700 102.7352 7.9087 0.0020 0.2058 3.5694 2.6038 -71.2232 0.1814
6977.0 4.7203 4.5765 4.3914 107.9542 7.8859 0.0038 0.2277 3.5750 2.6075 -71.1641 0.1913
6977.5 4.7113 4.6488 4.4236 113.3680 7.9201 0.0031 0.2208 3.6010 2.6009 -71.1696 0.2081
6978.0 4.7193 4.6482 4.4486 107.5332 7.9087 -0.0011 0.2179 3.6651 2.5876 -71.1406 0.2016
6978.5 4.7520 4.6709 4.4819 110.6134 7.9087 -0.0052 0.2041 3.7141 2.5776 -71.1071 0.2007
6979.0 4.7050 4.6916 4.4979 105.6859 7.9315 -0.0052 0.2062 3.7287 2.5838 -70.9219 0.1905
6979.5 4.6223 4.5697 4.4008 109.0895 7.9315 -0.0021 0.1886 3.6503 2.5980 -70.9018 0.1903
6980.0 4.4978 4.4468 4.2735 114.7949 7.9315 -0.0005 0.1769 3.5996 2.6016 -70.9297 0.1697
6980.5 4.5850 4.5064 4.3393 117.4861 7.9087 -0.0024 0.1810 3.6339 2.5916 -71.0446 0.1599
6981.0 4.6968 4.6190 4.4571 112.1372 7.9201 -0.0049 0.1894 3.6963 2.5819 -71.1406 0.1590
6981.5 4.7534 4.6739 4.5085 101.5363 7.9087 -0.0057 0.1946 3.7304 2.5844 -71.3214 0.1632
6982.0 4.8070 4.6926 4.5301 89.2492 7.9315 -0.0031 0.1897 3.6808 2.6026 -71.4922 0.1686
6982.5 4.8446 4.6951 4.5431 102.0871 7.9087 -0.0008 0.1780 3.6370 2.6153 -71.3929 0.1735
6983.0 4.5543 4.5504 4.4048 106.9827 7.9315 -0.0013 0.1739 3.6223 2.6118 -71.3047 0.1713
6983.5 4.2456 4.1419 4.0434 122.2845 7.8859 -0.0045 0.1821 3.6268 2.5892 -71.1607 0.1728
6984.0 3.9767 3.8843 3.7324 117.7457 7.9544 -0.0078 0.1994 3.5888 2.5617 -70.9766 0.1786
6984.5 3.9901 3.8733 3.7248 119.3012 7.9430 -0.0083 0.2178 3.4952 2.5391 -70.9196 0.1916
6985.0 3.9771 3.8530 3.6893 119.2363 7.9315 -0.0082 0.2421 3.4136 2.5247 -70.9219 0.2112
6985.5 3.9409 3.8316 3.6661 126.4985 7.9544 -0.0068 0.2610 3.3663 2.5220 -70.8214 0.2292
6986.0 3.9426 3.8180 3.6426 126.6280 7.9315 -0.0076 0.2638 3.4059 2.5173 -70.7188 0.2477
6986.5 3.8968 3.7380 3.5734 126.6931 7.9544 -0.0073 0.2538 3.4625 2.5150 -70.6875 0.2456
6987.0 3.8000 3.6679 3.5120 122.2839 7.9430 -0.0071 0.2489 3.5344 2.5132 -70.8125 0.2437
6987.5 3.7241 3.6056 3.4492 125.0075 7.9544 -0.0050 0.2452 3.5504 2.5270 -70.8393 0.2304
6988.0 3.6039 3.4895 3.3396 125.0071 7.9544 -0.0031 0.2366 3.5235 2.5489 -70.8214 0.2233
6988.5 3.5458 3.4338 3.2944 126.0123 7.9544 -0.0001 0.2350 3.4677 2.5746 -70.7500 0.2203
6989.0 3.5905 3.4487 3.3088 124.9752 7.9544 0.0001 0.2365 3.4270 2.5787 -70.6250 0.2240
6989.5 3.6058 3.4606 3.3249 123.0949 7.9544 -0.0026 0.2436 3.4490 2.5631 -70.6875 0.2219
6990.0 3.5645 3.4274 3.2981 120.7931 7.9315 -0.0056 0.2458 3.4633 2.5465 -70.7679 0.2253
6990.5 3.5720 3.4203 3.2870 122.9649 7.9544 -0.0078 0.2444 3.5108 2.5408 -70.6641 0.2300
6991.0 3.5779 3.4011 3.2743 121.4740 7.9315 -0.0085 0.2434 3.5738 2.5413 -70.5536 0.2217
6991.5 3.5137 3.3067 3.1899 120.1768 7.9544 -0.0081 0.2434 3.6093 2.5519 -70.4844 0.2182
6992.0 3.4529 3.2596 3.1334 116.5456 7.9544 -0.0065 0.2402 3.6177 2.5704 -70.4464 0.2228
6992.5 3.4252 3.2582 3.1137 108.7649 7.9544 -0.0061 0.2333 3.6214 2.5868 -70.3906 0.2172
6993.0 3.2196 3.0626 2.9282 108.9595 7.8859 -0.0081 0.2269 3.6480 2.5818 -70.3214 0.2189
6993.5 3.0427 2.8745 2.7608 115.0868 7.9315 -0.0084 0.2362 3.5861 2.5703 -70.4018 0.2243
6994.0 2.9094 2.7961 2.6742 128.8970 7.9315 -0.0043 0.2461 3.4583 2.5706 -70.5703 0.2380
6994.5 2.9418 2.7681 2.6433 136.2243 7.9544 -0.0004 0.2564 3.3478 2.5748 -70.5625 0.2413
6995.0 3.0219 2.8444 2.6950 133.7282 7.9658 -0.0019 0.2482 3.3415 2.5654 -70.3594 0.2434
6995.5 3.0478 2.8716 2.7249 134.4414 7.9315 -0.0054 0.2537 3.3513 2.5512 -70.5000 0.2303
6996.0 3.0172 2.8418 2.7029 130.2917 7.9087 -0.0065 0.2390 3.3378 2.5450 -70.5391 0.2378
6996.5 2.9945 2.8221 2.6869 131.2315 7.9544 -0.0031 0.2511 3.2900 2.5540 -70.4732 0.2284
6997.0 2.9692 2.8027 2.6666 136.4190 7.9315 -0.0017 0.2419 3.2932 2.5432 -70.5703 0.2406
6997.5 2.9232 2.7666 2.6417 139.8229 7.9430 0.0042 0.2684 3.2967 2.5267 -70.7768 0.2336
6998.0 2.8813 2.7255 2.6166 145.0100 7.9315 0.0172 0.2642 3.2984 2.5281 -70.8516 0.2514
6998.5 2.8871 2.7321 2.6156 135.9323 7.9315 0.0208 0.2701 3.2197 2.5331 -70.7232 0.2424
6999.0 2.9232 2.7693 2.6437 137.2937 7.9087 0.0142 0.2621 3.2057 2.5339 -70.4844 0.2478
6999.5 2.9491 2.7902 2.6716 132.8854 7.9087 -0.0018 0.2787 3.2262 2.5147 -70.2946 0.2489
7000.0 2.9675 2.8038 2.6971 137.1970 7.9315 -0.0057 0.2818 3.2619 2.5162 -70.3036 0.2751
7000.5 2.9963 2.8308 2.7184 129.0603 7.9315 -0.0046 0.2666 3.2352 2.5263 -70.0781 0.2732
