~VERSION INFORMATION
VERS.           1.2   :CWLS Log ASCII Standard - VERSION 1.2
WRAP.           NO    :One Line per depth step
PROD.  Schlumberger   :LAS Producer
PROG.  DLIS to ASCII 17C0-152                          :LAS Program name and version
CREA.        2013/11/03 06:14                          :LAS Creation date {YYYY/MM/DD hh:mm}
DLIS_CREA.  2013-Nov-02 20:25                          :DLIS Creation date and time {YYYY-MMM-DD hh:mm}
SOURCE.     36f617ea-a8f9-4f31-9cfe-b4906ac6e0fc       :DLIS File Name
#--------------------------------------------------
~WELL INFORMATION
#MNEM.UNIT      DATA             DESCRIPTION
#---- ------ --------------   -----------------------------
STRT .F      1000.5000       :START DEPTH        # original; data subset to 5500-8000
STOP .F      7745.0000       :STOP DEPTH        # original; data subset to 5500-8000
STEP .F       0.5000         :STEP       
NULL .          -999.25      :NULL VALUE
COMP .                 COMPANY:  Bear Oil & Gas, Inc.               
WELL .                    WELL:  Marquardt 34-31                    
FLD  .                   FIELD:  Wildcat                            
LOC  .                LOCATION:  SWSE, Sec. 31, T16N, R60W          
CNTY .                  COUNTY:  Laramie                            
STAT .                   STATE:  Wyoming                            
CTRY .                 COUNTRY:                                     
SRVC .         SERVICE COMPANY:  Schlumberger                       
LATI .DEG             LATITUDE:  41.305550 degrees                  
LONG .DEG            LONGITUDE:  -104.12401 degrees                 
API  .              API NUMBER:  49-021-21046-0000                  
DATE .                LOG DATE:  02-Nov-2013
UWI  .          UNIQUE WELL ID:                                     
#-----------------------------------------------------------------------------
~PARAMETER INFORMATION
#MNEM.UNIT    VALUE                      DESCRIPTION
#---- -----   --------------------       ------------------------
CN   .        Bear Oil & Gas  Inc.       :Company Name
WN   .        Marquardt 34-31            :Well Name
FN   .        Wildcat                    :Field Name
FL   .        SWSE  Sec. 31  T16N  R60W  :Field Location
FL1  .        SHL  1265' FSL X 1340' FEL :Field Location, Line 1
COUN .        Laramie                    :County or Parish
STAT .        Wyoming                    :State or Province
NATI .                                   :Nation
DATE .        02-Nov-2013                :Tools Above Rotary Table Date
APIN .        49-021-21046-0000          :API Well Number
SECT .        31                         :Section
TOWN .        16N                        :Township
RANG .        60W                        :Range
DMF  .        KB                         :Drilling Measured From (Name of Drilling Elevation Reference)
LMF  .        KB                         :Logging Measured From (Name of Logging Elevation Reference)
PDAT .        GL                         :Permanent Datum
ENGI .        Heather Hoffman            :Engineer s Name
WITN .        Terry Eittreim             :Witness s Name
LATI .        41.305550 degrees          :Latitude
LONG .        -104.12401 degrees         :Longitude
LUL  .        Fort Morgan  CO            :Logging Unit Location
LUN  .        2135                       :Logging Unit Number
RUN  .        PEX BHC AIT                :Run Number
SON  .        CQQL-00004                 :Service Order Number
BHT  .DEGF     185.00000                 :Bottom Hole Temperature
BS   .IN         7.87500                 :Bit Size
MDEN .G/C3       2.65000                 :Matrix Density for Density Porosity
DFD  .LB/G       9.10000                 :Drilling Fluid Density
DFV  .S         82.00000                 :Drilling Fluid Viscosity
DFL  .C3      -999.25000                 :Drilling Fluid Loss
RMFS .OHMM       1.18400                 :Resistivity of Mud Filtrate Sample
EKB  .F       10594.00000                :Elevation of Kelly Bushing
EGL  .F       5291.00000                 :Elevation of Ground Level
BLI  .F       7724.00000                 :Bottom Log Interval
BSAL .PPM        0.00000                 :Borehole Salinity
FLEV .F         50.00000                 :Depth of Drilling Fluid Level to LMF (Log Measured From)
MCST .DEGF      85.00000                 :Mudcake Sample Temperature
MFST .DEGF      85.00000                 :Mud Filtrate Sample Temperature
MRT  .DEGF     185.00000                 :Maximum Recorded Temperature
MST  .DEGF      85.00000                 :Mud Sample Temperature
RMCS .OHMM       1.77600                 :Resistivity of Mud Cake Sample
RMS  .OHMM       1.48000                 :Resistivity of Mud Sample
RW   .OHMM       1.00000                 :Connate Water Resistivity
TDD  .F       7719.99951                 :Driller Total Depth
TDL  .F       7724.00000                 :Logger Total Depth
TLI  .F       1024.00000                 :Top Log Interval
HIDE .        Wildcat                    :Header Identifier
MATR .        SAND                       :Rock Matrix for Neutron Porosity Corrections
FNUM .           1.00000                 :F-Numerator for Formation Factor Formula
FEXP .           2.00000                 :Exponent "m" for Formation Factor Formula
DFT  .        WATER                      :Drilling Fluid Type
DFPH .        -999.25000                 :Drilling Fluid pH
MCSS .        Calculated                 :Mudcake Sample Source
MFSS .        Calculated                 :Mud Filtrate Sample Source
FD   .G/C3       1.00000                 :Fluid Density
MSS  .        Active Tank                :Mud Sample Source
OS1  .                                   :Other Services Line 1
OS2  .                                   :Other Services Line 2
OS3  .                                   :Other Services Line 3
OS4  .                                   :Other Services Line 4
OS5  .                                   :Other Services Line 5
R1   .                                   :Remarks Line 1
R2   .                                   :Remarks Line 2
R3   .                                   :Remarks Line 3
R4   .                                   :Remarks Line 4
R5   .                                   :Remarks Line 5
R6   .                                   :Remarks Line 6
R7   .                                   :Remarks Line 7
R8   .        This is first run in hole. :Remarks Line 8
TCS  .        09 55 00                   :Time Circulation Stopped
TLAB .        20 18 33                   :Time Logger At Bottom
NMT  .        NOBARITE                   :HRDD Mud Type for Nuclear Devices
EPD  .C3         5291.000000             :Elevation of Permanent Datum above Mean Sea Level
APD  .F         5303.000000              :Elevation of Depth Reference (LMF) above Permanent Datum
#-----------------------------------------------------------------------------
~CURVE INFORMATION
#MNEM.UNIT   API CODE                                  DESCRIPTION
#---- -----  --------                                  -----------------------
DEPT .F                                                :DEPTH (BOREHOLE) {F12.4}
AT10 .OHMM                                             :Array Induction Two Foot Resistivity A10 {F11.4}
AT30 .OHMM                                             :Array Induction Two Foot Resistivity A30 {F11.4}
AT90 .OHMM                                             :Array Induction Two Foot Resistivity A90 {F11.4}
DT   .US/F                                             :Delta-T (also called Slowness or Interval Transit Time) {F11.4}
GR   .GAPI                                             :Gamma Ray {F11.4}
HCAL .IN                                               :HRCC Caliper Calibrated {F11.4}
HDRA .G/C3                                             :Density Standoff Correction {F11.4}
NPHI .CFCF                                             :Thermal Neutron Porosity (original Ratio Method) in Selected Lithology {F11.4}
PEFZ .                                                 :Standard Resolution Formation Photoelectric Factor {F11.4}
RHOZ .G/C3                                             :Standard Resolution Formation Density {F11.4}
SP   .MV                                               :Spontaneous Potential {F11.4}
TNPH .CFCF                                             :Thermal Neutron Porosity (Ratio Method) in Selected Lithology {F11.4}
#-----------------------------------------------------------------------------
# 
#      DEPT        AF10       AF20       AF30       AF60       AF90       AO10       AO20       AO30       AO60       AO90       AT10       AT20       AT30       AT60       AT90     AHFCO60      AHMF      AHORT      AHORX      AHSCA     AHTCO10    AHTCO20    AHTCO30    AHTCO60    AHTCO90     AHTD1      AHTD2      AHTRT      AHTRX       CDF        CFTC       CNTC       CTEM       DCAL       DNPH       DPHZ       DSOZ        DT        ECGR        ED        GDEV        GR        GTEM       HCAL       HDRA       HDRB       HGR        HMIN       HMNO       HNPO       HPRA       HTNP       ITT         ND        NPHI       NPOR       PEFZ    PXND_HILT     RHOZ       RSOZ     RWA_HILT     RXO8       RXOZ        SP        SPAR       SPHI       STIT       TENS       TNPH     HTNP_SAN
#
~A  DEPT AT10 AT30 AT90 DT GR HCAL HDRA NPHI PEFZ RHOZ SP TNPH
# ...
7699.5000 3.2379 3.1879 3.3178 85.4757 141.9371 3.3123 0.3137 0.2341 2.5911 2.5467 -197.7266 -999.2500
7700.0000 3.4633 3.4779 3.5891 83.3895 141.9371 3.3012 0.3204 0.2341 2.5816 2.5578 -197.5893 -999.2500
7700.5000 2.9033 2.9551 2.9619 82.6814 141.9371 3.3235 0.3209 0.2341 2.5885 2.5587 -197.5179 -999.2500
7701.0000 2.5978 2.5299 2.5331 85.5725 141.9371 3.3235 -5407.9571 0.2341 -5418.1177 -5417.8465 -197.4766 -999.2500
7701.5000 2.2911 2.1769 2.1233 90.9452 141.9371 3.3123 -999.2500 0.2341 -999.2500 -999.2500 -197.3482 -999.2500
7702.0000 2.3262 2.2416 2.1624 95.4050 141.9371 3.3012 -999.2500 0.2341 -999.2500 -999.2500 -196.9297 -999.2500
7702.5000 2.8463 2.5020 2.3814 95.2562 141.9371 3.3235 -999.2500 0.2341 -999.2500 -999.2500 -196.8393 -999.2500
7703.0000 3.1865 2.9611 2.7238 93.9611 141.9371 3.3235 -999.2500 0.2341 -999.2500 -999.2500 -196.9688 -999.2500
7703.5000 4.2163 3.8085 3.4262 93.2206 141.9371 3.3235 -999.2500 0.2341 -999.2500 -999.2500 -197.0893 -999.2500
7704.0000 4.1383 3.9751 3.6682 93.1111 141.9371 3.3123 -999.2500 0.2341 -999.2500 -999.2500 -196.9375 -999.2500
7704.5000 3.8735 3.9855 3.7800 93.1064 141.9371 3.3160 -999.2500 0.2341 -999.2500 -999.2500 -197.0625 -999.2500
7705.0000 3.3403 3.3877 3.3513 93.1011 141.9371 3.3160 -999.2500 0.2341 -999.2500 -999.2500 -197.3203 -999.2500
7705.5000 2.7606 2.7147 2.8560 93.0974 141.9371 3.3235 -999.2500 0.2341 -999.2500 -999.2500 -197.9643 -999.2500
7706.0000 2.3430 2.2753 2.4460 93.0943 141.9371 3.3012 -999.2500 0.2341 -999.2500 -999.2500 -197.9141 -999.2500
7706.5000 2.2950 2.1974 2.3500 93.0845 141.9371 3.3012 -999.2500 0.2341 -999.2500 -999.2500 -197.7589 -999.2500
7707.0000 2.4519 2.3324 2.4623 93.0814 141.9371 3.3012 -999.2500 0.2341 -999.2500 -999.2500 -197.5859 -999.2500
7707.5000 2.4759 2.4723 2.5973 93.0779 141.9371 3.3012 -999.2500 0.2341 -999.2500 -999.2500 -197.5357 -999.2500
7708.0000 2.5159 2.5081 2.6636 93.0732 141.9371 3.3012 -999.2500 0.2341 -999.2500 -999.2500 -197.5000 -999.2500
7708.5000 2.5110 2.5399 2.6670 93.0671 141.9371 3.3012 -999.2500 0.2341 -999.2500 -999.2500 -197.7321 -999.2500
7709.0000 2.5200 2.4881 2.5775 93.0651 141.9371 3.3012 -999.2500 0.2341 -999.2500 -999.2500 -197.6875 -999.2500
7709.5000 2.4682 2.3740 2.4356 93.0631 141.9371 3.3012 -999.2500 0.2341 -999.2500 -999.2500 -197.5469 -999.2500
7710.0000 2.3864 2.2275 2.2827 93.0628 141.9371 3.3012 -999.2500 0.2341 -999.2500 -999.2500 -197.0859 -999.2500
7710.5000 2.3617 2.2200 2.2548 93.0631 141.9371 3.3012 -999.2500 0.2341 -999.2500 -999.2500 -196.9453 -999.2500
7711.0000 2.3370 2.2704 2.2880 93.0604 141.9371 3.3012 -999.2500 0.2341 -999.2500 -999.2500 -196.9922 -999.2500
7711.5000 2.3203 2.3008 2.3044 93.0530 141.9371 3.3012 -999.2500 0.2341 -999.2500 -999.2500 -197.0417 -999.2500
7712.0000 2.2439 2.2058 2.2143 93.0577 141.9371 3.3012 -999.2500 0.2341 -999.2500 -999.2500 -197.4141 -999.2500
7712.5000 2.2141 2.1436 2.1548 93.0545 141.9371 3.3012 -999.2500 0.2341 -999.2500 -999.2500 -197.6944 -999.2500
7713.0000 2.1441 2.0781 2.0951 93.0533 141.9371 3.3012 -999.2500 0.2341 -999.2500 -999.2500 -197.8333 -999.2500
7713.5000 2.1091 2.0292 2.0595 93.0531 141.9371 3.3012 -999.2500 0.2341 -999.2500 -999.2500 -197.6250 -999.2500
7714.0000 2.0754 1.9761 2.0296 93.0544 141.9371 3.3012 -999.2500 0.2341 -999.2500 -999.2500 -197.5188 -999.2500
7714.5000 2.1689 2.0219 2.1038 93.0524 141.9371 3.3012 -999.2500 0.2341 -999.2500 -999.2500 -197.1375 -999.2500
7715.0000 2.3256 2.1351 2.2319 93.0548 141.9371 3.3012 -999.2500 0.2341 -999.2500 -999.2500 -196.8062 -999.2500
7715.5000 2.5369 2.2870 2.3942 93.0170 141.9371 3.3012 -999.2500 0.2341 -999.2500 -999.2500 -196.7552 -999.2500
7716.0000 2.5051 2.3005 2.4374 93.0214 141.9371 3.3012 -999.2500 0.2341 -999.2500 -999.2500 -196.7135 -999.2500
7716.5000 2.3585 2.1626 2.2776 93.0172 141.9371 3.3012 -999.2500 0.2341 -999.2500 -999.2500 -196.8750 -999.2500
7717.0000 2.2428 2.1432 2.2052 93.0194 141.9371 3.3012 -999.2500 0.2341 -999.2500 -999.2500 -197.1875 -999.2500
7717.5000 2.2555 2.0977 2.1383 93.0189 141.9371 3.3012 -999.2500 0.2341 -999.2500 -999.2500 -197.2333 -999.2500
7718.0000 2.2497 2.0807 2.0893 93.0205 141.9371 3.3012 -999.2500 0.2341 -999.2500 -999.2500 -196.7727 -999.2500
7718.5000 2.2610 2.0722 2.0216 93.0189 141.9371 3.3012 -999.2500 0.2341 -999.2500 -999.2500 -196.6187 -999.2500
7719.0000 2.2568 2.0529 1.9812 93.0186 141.9371 3.3012 -999.2500 0.2341 -999.2500 -999.2500 -196.7917 -999.2500
7719.5000 2.2501 2.0338 1.9748 93.0194 141.9371 3.3012 -999.2500 0.2341 -999.2500 -999.2500 -197.0096 -999.2500
7720.0000 2.2460 2.0257 1.9811 93.0171 141.9371 3.3012 -999.2500 0.2341 -999.2500 -999.2500 -196.9542 -999.2500
7720.5000 2.2380 2.0284 2.0011 93.0182 141.9371 3.3012 -999.2500 0.2341 -999.2500 -999.2500 -197.1289 -999.2500
7721.0000 2.2300 2.0273 2.0285 93.0197 141.9371 3.3012 -999.2500 0.2341 -999.2500 -999.2500 -197.2500 -999.2500
7721.5000 2.2329 2.0295 2.0577 93.0175 141.9371 3.3012 -999.2500 0.2341 -999.2500 -999.2500 -195.6176 -999.2500
7722.0000 2.2339 2.0313 2.0874 93.0164 141.9371 3.3012 -999.2500 0.2341 -999.2500 -999.2500 -194.4743 -999.2500
7722.5000 2.2318 2.0380 2.1108 93.0208 141.9371 3.3012 -999.2500 0.2341 -999.2500 -999.2500 -194.3603 -999.2500
7723.0000 2.2298 2.0379 2.1248 93.0208 141.9371 3.3012 -999.2500 0.2341 -999.2500 -999.2500 -194.1719 -999.2500
7723.5000 2.2295 2.0390 2.1331 93.0208 141.9371 3.3012 -999.2500 0.2341 -999.2500 -999.2500 -194.0588 -999.2500
7724.0000 2.2295 2.0385 2.1366 93.0208 141.9371 3.3012 -999.2500 0.2341 -999.2500 -999.2500 -194.3493 -999.2500
7724.5000 2.2273 2.0391 2.1385 93.0208 141.9371 3.3012 -999.2500 0.2341 -999.2500 -999.2500 -195.0110 -999.2500
7725.0000 2.2271 2.0397 2.1395 93.0208 141.9371 3.3012 -999.2500 0.2341 -999.2500 -999.2500 -195.0919 -999.2500
7725.5000 2.2275 2.0393 2.1395 93.0208 141.9371 3.3012 -999.2500 0.2341 -999.2500 -999.2500 -195.0586 -999.2500
7726.0000 2.2283 2.0415 2.1420 93.0208 141.9371 3.3012 -999.2500 0.2341 -999.2500 -999.2500 -194.9816 -999.2500
7726.5000 2.2271 2.0402 2.1414 93.0208 141.9371 3.3012 -999.2500 0.2341 -999.2500 -999.2500 -194.9412 -999.2500
7727.0000 2.2262 2.0380 2.1394 93.0208 141.9371 3.3012 -999.2500 0.2341 -999.2500 -999.2500 -195.1103 -999.2500
7727.5000 2.2271 2.0384 2.1398 93.0208 141.9371 3.3012 -999.2500 0.2341 -999.2500 -999.2500 -195.1094 -999.2500
7728.0000 2.2275 2.0409 2.1406 93.0208 141.9371 3.3012 -999.2500 0.2341 -999.2500 -999.2500 -195.0469 -999.2500
7728.5000 2.2269 2.0401 2.1396 93.0208 141.9371 3.3012 -999.2500 0.2341 -999.2500 -999.2500 -194.7882 -999.2500
7729.0000 2.2269 2.0408 2.1401 93.0208 141.9371 3.3012 -999.2500 0.2341 -999.2500 -999.2500 -194.7070 -999.2500
7729.5000 2.2270 2.0423 2.1411 93.0208 141.9371 3.3012 -999.2500 0.2341 -999.2500 -999.2500 -194.6917 -999.2500
7730.0000 2.2270 2.0408 2.1403 93.0208 141.9371 3.3012 -999.2500 0.2341 -999.2500 -999.2500 -194.7417 -999.2500
7730.5000 2.2271 2.0403 2.1400 93.0208 141.9371 3.3012 -999.2500 0.2341 -999.2500 -999.2500 -194.7625 -999.2500
7731.0000 2.2274 2.0408 2.1408 93.0208 141.9371 3.3012 -999.2500 0.2341 -999.2500 -999.2500 -194.7333 -999.2500
7731.5000 2.2280 2.0416 2.1421 93.0208 141.9371 3.3012 -999.2500 0.2341 -999.2500 -999.2500 -194.7417 -999.2500
7732.0000 2.2287 2.0422 2.1427 93.0208 141.9371 3.3012 -999.2500 0.2341 -999.2500 -999.2500 -194.8083 -999.2500
7732.5000 2.2275 2.0404 2.1416 93.0208 141.9371 3.3012 -999.2500 0.2341 -999.2500 -999.2500 -194.9625 -999.2500
7733.0000 2.2272 2.0393 2.1402 93.0208 141.9371 3.3012 -999.2500 0.2341 -999.2500 -999.2500 -195.0500 -999.2500
7733.5000 2.2280 2.0406 2.1413 93.0208 141.9371 3.3012 -999.2500 0.2341 -999.2500 -999.2500 -194.8208 -999.2500
7734.0000 2.2282 2.0413 2.1426 93.0208 141.9371 3.3012 -999.2500 0.2341 -999.2500 -999.2500 -194.9570 -999.2500
7734.5000 2.2278 2.0412 2.1420 93.0208 141.9371 3.3012 -999.2500 0.2341 -999.2500 -999.2500 -196.1680 -999.2500
7735.0000 2.2272 2.0399 2.1408 93.0208 141.9371 3.3012 -999.2500 0.2341 -999.2500 -999.2500 -196.2750 -999.2500
