~VERSION INFORMATION
VERS.           2.0   :CWLS Log ASCII Standard - VERSION 2.0
WRAP.           NO    :One Line per depth step
PROD.  Schlumberger   :LAS Producer
PROG.  DLIS to ASCII 19C1-222                          :LAS Program name and version
CREA.        2013/09/09 02:34                          :LAS Creation date {YYYY/MM/DD hh:mm}
DLIS_CREA.  2013-Sep-09 02:29                          :DLIS Creation date and time {YYYY-MMM-DD hh:mm}
SOURCE.     049-021-21038_Marquardt 44-31_Run_PEX-AIT_Mainpass.dlis  :DLIS File Name
FILE-ID.     MaxWell_4Dlis                             :File Identification Number
#--------------------------------------------------
~WELL INFORMATION
#MNEM.UNIT      DATA             DESCRIPTION
#---- ------ --------------   -----------------------------
STRT .F      952.5           :START DEPTH        # original; data subset to 5500-8000
STOP .F      7703.0          :STOP DEPTH        # original; data subset to 5500-8000
STEP .F       0.5            :STEP     
NULL .          -999.25      :NULL VALUE
COMP .        Bear Oil & Gas, Inc                      :COMPANY
WELL .        Marquardt 44-31                          :WELL
FLD  .        Wildcat                                  :FIELD
LOC  .        Lat/Long : 41.3038/-104.1202             :LOCATION
CNTY .        Laramie                                  :COUNTY
STAT .        Wyoming                                  :STATE
CTRY .        USA                                      :COUNTRY
API  .        049-021-21038                            :API NUMBER
UWI  .        049021210380000                          :UNIQUE WELL ID
DATE .        08-Sep-2013                              :LOG DATE {DD-MMM-YYYY}
SRVC .        Schlumberger                             :SERVICE COMPANY
LATI .DEG     41.303800 degrees                        :LATITUDE
LONG .DEG     -104.12020 degrees                       :LONGITUDE
GDAT .                                                 :GeoDetic Datum
SECT .        31                                       :Section
RANG .        60W                                      :Range
TOWN .        16N                                      :Township
#-----------------------------------------------------------------------------
~PARAMETER INFORMATION
#MNEM.UNIT    VALUE                      DESCRIPTION
#---- -----   --------------------       ------------------------
CN   .        Bear Oil & Gas  Inc        :Company Name
WN   .        Marquardt 44-31            :Well Name
FN   .        Wildcat                    :Field Name
FL   .        Lat/Long   41.3038/-104.1202 :Field Location
FL1  .        SHL   766' FSL X 245' FEL SESE :Field Location, Line 1
COUN .        Laramie                    :County or Parish
STAT .        Wyoming                    :State or Province
NATI .        USA                        :Nation
DATE .        08-Sep-2013                :Tools Above Rotary Table Date
APIN .        049-021-21038              :API Well Number
SECT .        31                         :Section
TOWN .        16N                        :Township
RANG .        60W                        :Range
DMF  .        KB                         :Drilling Measured From (Name of Drilling Elevation Reference)
LMF  .        KB                         :Logging Measured From (Name of Logging Elevation Reference)
PDAT .        GL                         :Permanent Datum
ENGI .        Arvin Shi                  :Engineer s Name
WITN .        Terry Eittreim             :Witness s Name
LATI .        41.303800 degrees          :Latitude
LONG .        -104.12020 degrees         :Longitude
LUL  .        Fort Morgan                :Logging Unit Location
LUN  .        3030                       :Logging Unit Number
RUN  .        Run 1                      :Run Number
SON  .        C6VJ-00075                 :Service Order Number
BHT  .DEGF     184.00000                 :Bottom Hole Temperature
BS   .IN         7.87500                 :Bit Size
MDEN .G/C3       2.65000                 :Matrix Density for Density Porosity
DFD  .LB/G       9.00000                 :Drilling Fluid Density
DFV  .S         80.00000                 :Drilling Fluid Viscosity
DFL  .C3      -999.25000                 :Drilling Fluid Loss
RMFS .OHMM       0.80250                 :Resistivity of Mud Filtrate Sample
EKB  .F       5298.00000                 :Elevation of Kelly Bushing
EGL  .F       5286.00000                 :Elevation of Ground Level
BLI  .F       7686.00000                 :Bottom Log Interval
BSAL .PPM     4641.08936                 :Borehole Salinity
FLEV .F          8.00000                 :Depth of Drilling Fluid Level to LMF (Log Measured From)
MCST .DEGF      84.00000                 :Mudcake Sample Temperature
MFST .DEGF      84.00000                 :Mud Filtrate Sample Temperature
MRT  .DEGF     184.00000                 :Maximum Recorded Temperature
MST  .DEGF      84.00000                 :Mud Sample Temperature
RMCS .OHMM       1.33750                 :Resistivity of Mud Cake Sample
RMS  .OHMM       1.07000                 :Resistivity of Mud Sample
RW   .OHMM       1.00000                 :Connate Water Resistivity
TDD  .F       7680.00000                 :Driller Total Depth
TDL  .F       7686.00000                 :Logger Total Depth
TLI  .F       1023.00000                 :Top Log Interval
HIDE .        Wildcat                    :Header Identifier
MATR .        SAND                       :Rock Matrix for Neutron Porosity Corrections
FNUM .           1.00000                 :F-Numerator for Formation Factor Formula
FEXP .           2.00000                 :Exponent "m" for Formation Factor Formula
DFT  .        Fresh Water                :Drilling Fluid Type
DFPH .        -999.25000                 :Drilling Fluid pH
MCSS .        Calculated                 :Mudcake Sample Source
MFSS .        Calculated                 :Mud Filtrate Sample Source
FD   .G/C3       1.00000                 :Fluid Density
MSS  .        Flowline                   :Mud Sample Source
OS1  .                                   :Other Services Line 1
OS2  .                                   :Other Services Line 2
OS3  .                                   :Other Services Line 3
OS4  .                                   :Other Services Line 4
OS5  .                                   :Other Services Line 5
R1   .                                   :Remarks Line 1
R2   .                                   :Remarks Line 2
R3   .                                   :Remarks Line 3
R4   .                                   :Remarks Line 4
R5   .                                   :Remarks Line 5
R6   .                                   :Remarks Line 6
R7   .                                   :Remarks Line 7
R8   .                                   :Remarks Line 8
TCS  .        15 00 00                   :Time Circulation Stopped
TLAB .        00 30 46                   :Time Logger At Bottom
NMT  .        NOBARITE                   :HRDD Mud Type for Nuclear Devices
EPD  .C3         5286.000000             :Elevation of Permanent Datum above Mean Sea Level
APD  .F          12.000000               :Elevation of Depth Reference (LMF) above Permanent Datum
#-----------------------------------------------------------------------------
~CURVE INFORMATION
#MNEM.UNIT   API CODE                                  DESCRIPTION
#---- -----  --------                                  -----------------------
DEPT .F                                                :DEPTH (BOREHOLE) {F10.1}
AT10 .OHMM                                             :Array Induction Two Foot Resistivity A10 {F11.4}
AT30 .OHMM                                             :Array Induction Two Foot Resistivity A30 {F11.4}
AT90 .OHMM                                             :Array Induction Two Foot Resistivity A90 {F11.4}
GR   .GAPI                                             :Gamma Ray {F11.4}
HCAL .IN                                               :HRCC Caliper Calibrated {F11.4}
HDRA .G/C3                                             :Density Standoff Correction {F11.4}
NPHI .CFCF                                             :Thermal Neutron Porosity (original Ratio Method) in Selected Lithology {F11.4}
PEFZ .                                                 :Standard Resolution Formation Photoelectric Factor {F11.4}
RHOZ .G/C3                                             :Standard Resolution Formation Density {F11.4}
SP   .MV                                               :Spontaneous Potential {F11.4}
TNPH .CFCF                                             :Thermal Neutron Porosity (Ratio Method) in Selected Lithology {F11.4}
#-----------------------------------------------------------------------------
# 
#     DEPT       AF10       AF20       AF30       AF60       AF90       AO10       AO20       AO30       AO60       AO90       AT10       AT20       AT30       AT60       AT90     AHFCO60      AHMF      AHORT      AHORX      AHSCA     AHTCO10    AHTCO20    AHTCO30    AHTCO60    AHTCO90     AHTD1      AHTD2      AHTRT      AHTRX       CDF        CFTC       CNTC       CTEM       DCAL       DNPH       DPHZ       DSOZ       ECGR        ED        GDEV        GR        GTEM       HCAL       HDRA       HDRB       HGR        HMIN       HMNO       HNPO       HPRA       HTNP        ND        NPHI       NPOR       PEFZ    PXND_HILT     RHOZ       RSOZ     RWA_HILT     RXO8       RXOZ        SP        SPAR       STIT       TENS       TNPH     HTNP_SAN
#
~A  DEPT AT10 AT30 AT90 GR HCAL HDRA NPHI PEFZ RHOZ SP TNPH
# ...
6809.0 10.1484 9.7568 9.3628 72.2138 7.8018 -0.0100 0.1635 5.1636 2.4912 -494.0804 0.1468
6809.5 9.6427 9.3063 8.8523 57.1540 7.7907 -0.0102 0.1342 5.2009 2.5015 -495.6172 0.1281
6810.0 9.8068 9.4794 8.9905 46.5099 7.8018 -0.0104 0.1163 5.2188 2.5134 -496.8281 0.1085
6810.5 9.8806 9.9480 9.3527 51.4637 7.7796 -0.0083 0.1043 5.1841 2.5254 -496.1339 0.1057
6811.0 9.7466 9.7425 9.2304 69.2410 7.8018 -0.0059 0.1180 5.1306 2.5297 -493.1016 0.1051
6811.5 9.7368 9.4134 9.0595 82.3763 7.7907 -0.0051 0.1326 5.0935 2.5240 -490.8661 0.1159
6812.0 10.9078 10.6140 9.9909 85.3774 7.8018 -0.0073 0.1452 5.0849 2.5090 -490.8125 0.1248
6812.5 12.2003 12.0816 11.2243 91.3787 7.7796 -0.0102 0.1472 5.0610 2.4847 -489.1953 0.1346
6813.0 12.2401 12.6195 11.7235 112.6663 7.8018 -0.0114 0.1736 5.0011 2.4538 -486.9821 0.1489
6813.5 11.2332 11.1557 10.5450 135.4254 7.8018 -0.0102 0.2171 4.9200 2.4311 -485.8125 0.1788
6814.0 10.2477 10.1002 9.8547 131.0092 7.7796 -0.0032 0.2325 4.8609 2.4361 -487.4219 0.2044
6814.5 10.5552 10.2282 9.9583 112.6940 7.8018 0.0068 0.1951 4.8733 2.4637 -489.7734 0.1883
6815.0 11.0697 11.0371 10.6232 91.9724 7.8018 0.0172 0.1573 4.9724 2.4855 -491.5179 0.1470
6815.5 11.2482 11.2179 10.7291 85.4901 7.8018 0.0153 0.1441 5.0812 2.4952 -492.0625 0.1317
6816.0 10.9965 10.9189 10.3623 88.4057 7.7907 0.0081 0.1502 5.1613 2.4935 -491.1875 0.1339
6816.5 10.6897 10.7944 10.3716 89.7082 7.8018 -0.0014 0.1538 5.1921 2.4915 -491.8438 0.1384
6817.0 10.4254 10.5695 10.0182 90.6991 7.7907 -0.0052 0.1479 5.2572 2.4766 -491.9107 0.1389
6817.5 9.7563 9.7973 9.5197 97.9454 7.8018 -0.0068 0.1631 5.2928 2.4698 -491.0938 0.1382
6818.0 8.8996 8.8687 8.4775 108.2496 7.8018 -0.0081 0.1652 5.3145 2.4724 -491.0703 0.1489
6818.5 10.0599 9.6264 9.1746 110.7973 7.7796 -0.0083 0.1682 5.3112 2.4815 -491.3125 0.1521
6819.0 11.1580 11.3877 10.5846 104.5982 7.8018 -0.0077 0.1657 5.2768 2.4881 -491.2656 0.1500
6819.5 12.9404 13.0919 11.8368 99.5591 7.8018 -0.0055 0.1579 5.2502 2.4905 -491.2232 0.1443
6820.0 12.8847 13.1416 12.1148 91.8592 7.7796 -0.0027 0.1339 5.2160 2.5074 -491.2422 0.1299
6820.5 12.5912 12.9069 11.8826 80.3663 7.8018 -0.0003 0.1134 5.1655 2.5321 -491.1696 0.1072
6821.0 12.5318 12.7910 11.9217 83.8200 7.8018 -0.0002 0.1293 5.1186 2.5402 -489.8516 0.1092
6821.5 12.2248 12.7381 11.9981 101.4841 7.8018 -0.0014 0.1663 5.0410 2.5276 -488.2857 0.1311
6822.0 11.8104 12.3839 11.8094 123.8756 7.8018 -0.0051 0.1855 5.0320 2.4971 -486.8203 0.1613
6822.5 11.4829 12.3707 11.2943 131.0662 7.7907 -0.0082 0.1711 5.0012 2.4895 -485.7813 0.1684
6823.0 11.2566 11.4951 11.1166 131.4342 7.8018 -0.0100 0.1652 4.9780 2.4956 -484.1518 0.1545
6823.5 11.3622 11.1709 10.9326 138.9644 7.8018 -0.0090 0.1714 4.9582 2.5039 -482.0391 0.1534
6824.0 12.3072 12.0396 11.5334 143.4651 7.8018 -0.0071 0.1711 4.9709 2.5047 -481.1696 0.1582
6824.5 12.5561 12.9937 12.3758 146.9468 7.8130 -0.0058 0.1717 5.0088 2.5049 -480.8828 0.1501
6825.0 11.5455 11.5924 11.2923 147.7391 7.7796 -0.0053 0.1555 5.0679 2.5088 -480.4375 0.1503
6825.5 10.4226 9.9356 9.6531 176.3022 7.7796 -0.0041 0.1627 5.0467 2.5136 -480.6696 0.1484
6826.0 6.6222 7.7325 7.4145 209.2811 7.8018 -0.0023 0.1850 4.8868 2.5172 -479.4766 0.1672
6826.5 4.8607 4.7257 4.7328 221.8503 7.8018 0.0012 0.2229 4.6185 2.5359 -476.7143 0.1824
6827.0 3.8244 3.9182 3.8243 182.3885 7.8686 0.0007 0.2312 4.3850 2.5622 -476.0469 0.1966
6827.5 5.2532 4.5071 4.4170 124.5272 7.8241 -0.0015 0.1855 4.3647 2.5876 -477.4821 0.1645
6828.0 7.0103 6.7160 6.2822 69.9491 7.8241 -0.0015 0.1186 4.4612 2.6081 -479.4766 0.1144
6828.5 11.3591 9.9914 9.0037 43.9905 7.8241 0.0010 0.0828 4.5971 2.6204 -479.3125 0.0826
6829.0 9.3749 9.2623 8.6301 41.6975 7.8463 0.0040 0.0835 4.5812 2.6334 -477.6797 0.0801
6829.5 6.8708 6.7798 6.4085 54.5777 7.8463 0.0017 0.1021 4.5561 2.6264 -475.1797 0.0947
6830.0 5.8871 5.5627 5.2927 64.0610 7.8241 0.0016 0.1078 4.4561 2.6264 -473.8750 0.1138
6830.5 5.0888 5.1245 4.9429 70.7134 7.8241 0.0027 0.1162 4.3974 2.6178 -473.2734 0.1121
6831.0 4.5887 4.5585 4.3456 70.7416 7.8463 0.0056 0.1510 4.3107 2.6135 -473.1429 0.1149
6831.5 3.9053 3.9196 3.6976 79.8852 7.8018 0.0056 0.1575 4.2927 2.6070 -472.9375 0.1332
6832.0 5.8056 4.6981 4.4925 68.9302 7.8241 0.0029 0.1337 4.3761 2.6088 -473.7143 0.1159
6832.5 7.7208 7.4567 6.3144 60.3811 7.8018 0.0011 0.0875 4.4920 2.6260 -474.0000 0.0889
6833.0 8.2169 8.4392 7.2934 49.6807 7.8018 -0.0006 0.0782 4.5785 2.6379 -472.8661 0.0754
6833.5 7.4966 7.1228 6.5160 53.0775 7.8241 -0.0003 0.0966 4.5767 2.6484 -472.5938 0.0754
6834.0 7.2620 6.4170 5.9960 52.6814 7.8018 -0.0019 0.0886 4.5830 2.6425 -472.2344 0.0867
6834.5 7.2971 7.0554 6.6174 49.0296 7.8018 -0.0014 0.0997 4.5758 2.6381 -472.6250 0.0844
6835.0 5.7493 6.1367 5.7196 60.3529 7.8241 0.0047 0.1149 4.5353 2.6325 -471.9063 0.1061
6835.5 4.4482 4.2703 4.1502 71.5627 7.8241 0.0065 0.1564 4.4217 2.6077 -471.2321 0.1294
6836.0 3.6863 3.5802 3.4752 85.7167 7.8241 0.0158 0.1815 4.3590 2.6057 -471.8750 0.1572
6836.5 3.9393 3.7409 3.6125 81.1589 7.8686 0.0091 0.1731 4.3571 2.5846 -472.7500 0.1579
6837.0 4.8470 4.6997 4.3837 76.4032 7.8241 0.0070 0.1563 4.4238 2.5908 -474.2143 0.1413
6837.5 5.2636 5.1071 4.7457 62.9287 7.8018 -0.0043 0.1328 4.5161 2.5777 -474.5313 0.1205
6838.0 5.7556 5.3481 5.1546 50.5013 7.8575 -0.0058 0.1165 4.6412 2.5844 -475.0357 0.1078
6838.5 7.5067 7.0428 6.4709 43.2547 7.8018 -0.0050 0.1200 4.7449 2.5945 -475.4766 0.0959
6839.0 7.0865 6.8558 6.3859 45.9720 7.7907 -0.0053 0.1097 4.8197 2.5951 -474.4107 0.1019
6839.5 6.6096 6.4260 6.0237 45.1229 7.8018 -0.0033 0.1057 4.8021 2.6088 -474.3672 0.1012
6840.0 6.8509 6.7855 6.2578 44.6700 7.7796 -0.0052 0.0977 4.8076 2.6178 -473.3047 0.0988
6840.5 6.8255 6.7758 6.5944 45.1230 7.7907 -0.0066 0.1100 4.7658 2.6368 -472.6518 0.0940
6841.0 6.6443 6.4868 6.3516 49.5958 7.8018 -0.0090 0.1175 4.7634 2.6377 -473.5469 0.1020
6841.5 7.0603 6.9225 6.5808 52.6246 7.8130 -0.0085 0.1139 4.7258 2.6283 -474.2232 0.1021
6842.0 7.3365 7.1496 6.7174 48.5483 7.8241 -0.0053 0.1085 4.6719 2.6217 -474.6406 0.0976
6842.5 7.0060 6.8482 6.4479 47.2460 7.8018 -0.0048 0.1080 4.7011 2.6122 -474.0982 0.0956
6843.0 7.2610 7.0359 6.6305 43.7643 7.8241 -0.0047 0.1061 4.7446 2.6139 -473.9688 0.0974
6843.5 7.3921 7.3870 6.9346 48.4352 7.8018 -0.0048 0.1079 4.7701 2.6108 -473.8482 0.0985
6844.0 6.6924 6.5086 6.2027 50.1903 7.8130 0.0010 0.1196 4.6891 2.6187 -472.5391 0.1042
6844.5 5.9167 5.7369 5.5418 54.4647 7.8241 0.0058 0.1281 4.5977 2.6222 -471.9196 0.1129
6845.0 7.0653 6.2423 6.0090 45.7458 7.8130 0.0040 0.1226 4.6192 2.6146 -472.8672 0.1083
6845.5 7.8148 7.6946 7.1198 41.2164 7.8018 -0.0026 0.1016 4.7113 2.6071 -473.2188 0.0997
6846.0 8.8187 8.8256 8.3808 41.6128 7.8018 -0.0076 0.0925 4.7673 2.6110 -473.1696 0.0882
6846.5 7.2775 7.5044 7.1954 48.3783 7.8241 -0.0059 0.0986 4.7051 2.6311 -471.8672 0.0878
6847.0 6.8889 6.5258 6.3068 55.3141 7.8018 -0.0020 0.1149 4.5697 2.6510 -471.3929 0.0958
6847.5 6.5850 6.1418 6.0353 55.9083 7.8018 0.0015 0.1197 4.4918 2.6655 -470.9141 0.1075
6848.0 6.7641 6.6186 6.3469 53.6437 7.8241 0.0034 0.1083 4.4872 2.6775 -470.6406 0.1061
6848.5 7.1636 6.9741 6.6645 51.8600 7.8018 0.0027 0.1058 4.4747 2.6774 -470.3304 0.1008
6849.0 5.8717 5.8916 5.6206 55.2005 7.8241 0.0021 0.1153 4.3879 2.6737 -469.5703 0.1088
6849.5 5.1607 5.0032 4.8207 64.9668 7.8018 0.0004 0.1402 4.2616 2.6591 -469.4375 0.1198
6850.0 4.4461 4.5014 4.3196 76.1200 7.8463 -0.0000 0.1563 4.1627 2.6506 -469.7578 0.1370
6850.5 4.6261 4.3305 4.1907 77.1394 7.8463 -0.0012 0.1593 4.1398 2.6439 -470.0446 0.1370
6851.0 5.9903 5.3421 5.1022 73.0345 7.8018 -0.0017 0.1394 4.1944 2.6463 -471.4531 0.1249
6851.5 7.6710 7.1484 6.7606 63.6646 7.8018 -0.0030 0.1205 4.3354 2.6481 -472.2891 0.1058
6852.0 8.1541 7.8361 7.4645 50.8692 7.8018 -0.0058 0.1027 4.5262 2.6389 -472.9732 0.0999
6852.5 8.2033 7.5851 7.3429 44.2734 7.8241 -0.0084 0.0987 4.7054 2.6239 -473.4063 0.0926
6853.0 8.2324 7.5966 7.4214 39.6029 7.8241 -0.0038 0.0959 4.7728 2.6170 -472.9196 0.0886
6853.5 8.0879 7.5945 7.4552 47.0479 7.8018 -0.0006 0.0928 4.7260 2.6161 -472.3516 0.0909
