~VERSION INFORMATION
VERS.           2.0   :CWLS Log ASCII Standard - VERSION 2.0
WRAP.           NO    :One Line per depth step
PROD.  Schlumberger   :LAS Producer
PROG.  DLIS to ASCII 19C1-222                          :LAS Program name and version
CREA.        2013/09/09 02:34                          :LAS Creation date {YYYY/MM/DD hh:mm}
DLIS_CREA.  2013-Sep-09 02:29                          :DLIS Creation date and time {YYYY-MMM-DD hh:mm}
SOURCE.     049-021-21038_Marquardt 44-31_Run_PEX-AIT_Mainpass.dlis  :DLIS File Name
FILE-ID.     MaxWell_4Dlis                             :File Identification Number
#--------------------------------------------------
~WELL INFORMATION
#MNEM.UNIT      DATA             DESCRIPTION
#---- ------ --------------   -----------------------------
STRT .F      952.5           :START DEPTH        # original; data subset to 5500-8000
STOP .F      7703.0          :STOP DEPTH        # original; data subset to 5500-8000
STEP .F       0.5            :STEP     
NULL .          -999.25      :NULL VALUE
COMP .        Bear Oil & Gas, Inc                      :COMPANY
WELL .        Marquardt 44-31                          :WELL
FLD  .        Wildcat                                  :FIELD
LOC  .        Lat/Long : 41.3038/-104.1202             :LOCATION
CNTY .        Laramie                                  :COUNTY
STAT .        Wyoming                                  :STATE
CTRY .        USA                                      :COUNTRY
API  .        049-021-21038                            :API NUMBER
UWI  .        049021210380000                          :UNIQUE WELL ID
DATE .        08-Sep-2013                              :LOG DATE {DD-MMM-YYYY}
SRVC .        Schlumberger                             :SERVICE COMPANY
LATI .DEG     41.303800 degrees                        :LATITUDE
LONG .DEG     -104.12020 degrees                       :LONGITUDE
GDAT .                                                 :GeoDetic Datum
SECT .        31                                       :Section
RANG .        60W                                      :Range
TOWN .        16N                                      :Township
#-----------------------------------------------------------------------------
~PARAMETER INFORMATION
#MNEM.UNIT    VALUE                      DESCRIPTION
#---- -----   --------------------       ------------------------
CN   .        Bear Oil & Gas  Inc        :Company Name
WN   .        Marquardt 44-31            :Well Name
FN   .        Wildcat                    :Field Name
FL   .        Lat/Long   41.3038/-104.1202 :Field Location
FL1  .        SHL   766' FSL X 245' FEL SESE :Field Location, Line 1
COUN .        Laramie                    :County or Parish
STAT .        Wyoming                    :State or Province
NATI .        USA                        :Nation
DATE .        08-Sep-2013                :Tools Above Rotary Table Date
APIN .        049-021-21038              :API Well Number
SECT .        31                         :Section
TOWN .        16N                        :Township
RANG .        60W                        :Range
DMF  .        KB                         :Drilling Measured From (Name of Drilling Elevation Reference)
LMF  .        KB                         :Logging Measured From (Name of Logging Elevation Reference)
PDAT .        GL                         :Permanent Datum
ENGI .        Arvin Shi                  :Engineer s Name
WITN .        Terry Eittreim             :Witness s Name
LATI .        41.303800 degrees          :Latitude
LONG .        -104.12020 degrees         :Longitude
LUL  .        Fort Morgan                :Logging Unit Location
LUN  .        3030                       :Logging Unit Number
RUN  .        Run 1                      :Run Number
SON  .        C6VJ-00075                 :Service Order Number
BHT  .DEGF     184.00000                 :Bottom Hole Temperature
BS   .IN         7.87500                 :Bit Size
MDEN .G/C3       2.65000                 :Matrix Density for Density Porosity
DFD  .LB/G       9.00000                 :Drilling Fluid Density
DFV  .S         80.00000                 :Drilling Fluid Viscosity
DFL  .C3      -999.25000                 :Drilling Fluid Loss
RMFS .OHMM       0.80250                 :Resistivity of Mud Filtrate Sample
EKB  .F       5298.00000                 :Elevation of Kelly Bushing
EGL  .F       5286.00000                 :Elevation of Ground Level
BLI  .F       7686.00000                 :Bottom Log Interval
BSAL .PPM     4641.08936                 :Borehole Salinity
FLEV .F          8.00000                 :Depth of Drilling Fluid Level to LMF (Log Measured From)
MCST .DEGF      84.00000                 :Mudcake Sample Temperature
MFST .DEGF      84.00000                 :Mud Filtrate Sample Temperature
MRT  .DEGF     184.00000                 :Maximum Recorded Temperature
MST  .DEGF      84.00000                 :Mud Sample Temperature
RMCS .OHMM       1.33750                 :Resistivity of Mud Cake Sample
RMS  .OHMM       1.07000                 :Resistivity of Mud Sample
RW   .OHMM       1.00000                 :Connate Water Resistivity
TDD  .F       7680.00000                 :Driller Total Depth
TDL  .F       7686.00000                 :Logger Total Depth
TLI  .F       1023.00000                 :Top Log Interval
HIDE .        Wildcat                    :Header Identifier
MATR .        SAND                       :Rock Matrix for Neutron Porosity Corrections
FNUM .           1.00000                 :F-Numerator for Formation Factor Formula
FEXP .           2.00000                 :Exponent "m" for Formation Factor Formula
DFT  .        Fresh Water                :Drilling Fluid Type
DFPH .        -999.25000                 :Drilling Fluid pH
MCSS .        Calculated                 :Mudcake Sample Source
MFSS .        Calculated                 :Mud Filtrate Sample Source
FD   .G/C3       1.00000                 :Fluid Density
MSS  .        Flowline                   :Mud Sample Source
OS1  .                                   :Other Services Line 1
OS2  .                                   :Other Services Line 2
OS3  .                                   :Other Services Line 3
OS4  .                                   :Other Services Line 4
OS5  .                                   :Other Services Line 5
R1   .                                   :Remarks Line 1
R2   .                                   :Remarks Line 2
R3   .                                   :Remarks Line 3
R4   .                                   :Remarks Line 4
R5   .                                   :Remarks Line 5
R6   .                                   :Remarks Line 6
R7   .                                   :Remarks Line 7
R8   .                                   :Remarks Line 8
TCS  .        15 00 00                   :Time Circulation Stopped
TLAB .        00 30 46                   :Time Logger At Bottom
NMT  .        NOBARITE                   :HRDD Mud Type for Nuclear Devices
EPD  .C3         5286.000000             :Elevation of Permanent Datum above Mean Sea Level
APD  .F          12.000000               :Elevation of Depth Reference (LMF) above Permanent Datum
#-----------------------------------------------------------------------------
~CURVE INFORMATION
#MNEM.UNIT   API CODE                                  DESCRIPTION
#---- -----  --------                                  -----------------------
DEPT .F                                                :DEPTH (BOREHOLE) {F10.1}
AT10 .OHMM                                             :Array Induction Two Foot Resistivity A10 {F11.4}
AT30 .OHMM                                             :Array Induction Two Foot Resistivity A30 {F11.4}
AT90 .OHMM                                             :Array Induction Two Foot Resistivity A90 {F11.4}
GR   .GAPI                                             :Gamma Ray {F11.4}
HCAL .IN                                               :HRCC Caliper Calibrated {F11.4}
HDRA .G/C3                                             :Density Standoff Correction {F11.4}
NPHI .CFCF                                             :Thermal Neutron Porosity (original Ratio Method) in Selected Lithology {F11.4}
PEFZ .                                                 :Standard Resolution Formation Photoelectric Factor {F11.4}
RHOZ .G/C3                                             :Standard Resolution Formation Density {F11.4}
SP   .MV                                               :Spontaneous Potential {F11.4}
TNPH .CFCF                                             :Thermal Neutron Porosity (Ratio Method) in Selected Lithology {F11.4}
#-----------------------------------------------------------------------------
# 
#     DEPT       AF10       AF20       AF30       AF60       AF90       AO10       AO20       AO30       AO60       AO90       AT10       AT20       AT30       AT60       AT90     AHFCO60      AHMF      AHORT      AHORX      AHSCA     AHTCO10    AHTCO20    AHTCO30    AHTCO60    AHTCO90     AHTD1      AHTD2      AHTRT      AHTRX       CDF        CFTC       CNTC       CTEM       DCAL       DNPH       DPHZ       DSOZ       ECGR        ED        GDEV        GR        GTEM       HCAL       HDRA       HDRB       HGR        HMIN       HMNO       HNPO       HPRA       HTNP        ND        NPHI       NPOR       PEFZ    PXND_HILT     RHOZ       RSOZ     RWA_HILT     RXO8       RXOZ        SP        SPAR       STIT       TENS       TNPH     HTNP_SAN
#
~A  DEPT AT10 AT30 AT90 GR HCAL HDRA NPHI PEFZ RHOZ SP TNPH
# ...
6225.0 2.9185 2.8384 2.7599 106.7210 7.8018 0.0045 0.2876 3.0241 2.5742 -481.6328 0.2843
6225.5 2.9084 2.8151 2.7374 104.1447 7.8241 0.0019 0.2767 3.0026 2.5617 -481.5982 0.2782
6226.0 2.8867 2.7880 2.7109 101.2008 7.8241 -0.0011 0.2819 3.0726 2.5527 -482.0000 0.2739
6226.5 2.8472 2.7504 2.6755 100.5498 7.8352 -0.0002 0.2960 3.1821 2.5563 -482.0179 0.2781
6227.0 2.8020 2.6974 2.6271 102.3335 7.8241 0.0001 0.3069 3.1966 2.5522 -482.0391 0.2869
6227.5 2.8556 2.7410 2.6634 105.0511 7.8463 0.0017 0.3029 3.0631 2.5554 -482.1696 0.2957
6228.0 2.8851 2.7882 2.6950 101.3988 7.8463 -0.0013 0.2929 2.9445 2.5472 -482.0000 0.2961
6228.5 2.8674 2.7677 2.6852 104.3712 7.8463 -0.0026 0.2721 2.8923 2.5512 -482.0893 0.2878
6229.0 2.8330 2.7287 2.6548 101.4270 7.8686 -0.0052 0.2684 2.9427 2.5478 -481.5469 0.2711
6229.5 2.8294 2.7221 2.6450 97.1532 7.8575 -0.0051 0.2623 2.9697 2.5506 -481.6250 0.2654
6230.0 2.7784 2.7028 2.6338 93.5579 7.8463 -0.0056 0.2852 3.0083 2.5438 -481.8281 0.2604
6230.5 2.7233 2.6302 2.5550 93.5014 7.8686 -0.0026 0.2804 3.0078 2.5449 -481.5625 0.2754
6231.0 2.7528 2.6309 2.5461 98.0020 7.8463 -0.0013 0.2799 3.0282 2.5348 -481.7813 0.2684
6231.5 2.8341 2.7358 2.6425 98.0302 7.8686 0.0022 0.2777 3.0311 2.5349 -481.6875 0.2667
6232.0 2.8569 2.7565 2.6638 101.9366 7.9131 0.0054 0.3012 3.0532 2.5387 -481.5781 0.2690
6232.5 2.8198 2.7062 2.6221 108.1364 7.7796 0.0032 0.3189 3.0668 2.5341 -481.5391 0.2887
6233.0 2.8385 2.7264 2.6361 109.0138 7.8463 -0.0009 0.3101 3.0470 2.5339 -481.2768 0.3006
6233.5 2.8413 2.7355 2.6436 102.1349 7.7907 -0.0052 0.2948 3.0015 2.5335 -481.5469 0.2959
6234.0 2.8779 2.7713 2.6778 97.7472 7.8241 -0.0057 0.2967 2.9637 2.5400 -481.4922 0.2874
6234.5 2.9227 2.8150 2.7203 93.5012 7.7907 -0.0045 0.3010 2.9557 2.5458 -481.4911 0.2886
6235.0 2.8931 2.7844 2.6937 100.8329 7.8241 -0.0049 0.3081 2.9711 2.5459 -481.8828 0.2924
6235.5 2.9004 2.7891 2.7004 99.8704 7.8018 -0.0025 0.2977 2.9654 2.5613 -481.7857 0.3063
6236.0 2.8978 2.8086 2.7189 99.1342 7.8018 -0.0022 0.2887 3.0048 2.5658 -481.8906 0.2976
6236.5 2.8537 2.7683 2.6835 91.8027 7.7796 0.0004 0.2965 3.0382 2.5756 -481.7054 0.2859
6237.0 2.7902 2.6977 2.6232 89.3682 7.8241 0.0003 0.2896 3.0588 2.5653 -481.3047 0.2889
6237.5 2.7528 2.6497 2.5770 89.1137 7.8018 0.0005 0.2820 3.0291 2.5541 -481.5446 0.2789
6238.0 2.8166 2.7098 2.6326 92.3694 7.8463 -0.0014 0.2644 2.9907 2.5386 -481.4375 0.2652
6238.5 2.8391 2.7478 2.6607 94.2088 7.7685 -0.0002 0.2678 2.9557 2.5430 -481.5179 0.2547
6239.0 2.7840 2.6874 2.6138 97.4078 7.8018 -0.0020 0.2748 2.9913 2.5395 -481.5469 0.2597
6239.5 2.7979 2.7037 2.6280 98.3132 7.7907 -0.0040 0.2778 3.0756 2.5332 -481.6071 0.2684
6240.0 2.8368 2.7465 2.6795 97.3796 7.8018 -0.0010 0.2798 3.1391 2.5394 -481.8438 0.2714
6240.5 2.8112 2.7031 2.6481 94.9732 7.8018 0.0010 0.2802 3.1026 2.5410 -481.5625 0.2676
6241.0 2.8383 2.7200 2.6471 93.6144 7.8018 0.0011 0.2730 3.0022 2.5423 -481.4375 0.2620
6241.5 2.8890 2.7960 2.6914 95.1431 7.7573 -0.0040 0.2721 2.9514 2.5256 -481.6563 0.2566
6242.0 2.9499 2.8573 2.7660 95.9643 7.8018 -0.0023 0.2826 2.9579 2.5235 -481.4464 0.2679
6242.5 2.8828 2.8141 2.7250 97.5210 7.7907 -0.0002 0.2857 2.9740 2.5305 -481.9141 0.2760
6243.0 2.8461 2.7413 2.6653 95.7662 7.7796 0.0031 0.2856 2.9917 2.5368 -481.8929 0.2802
6243.5 2.8152 2.7211 2.6425 92.1708 7.8018 0.0043 0.2740 2.9817 2.5442 -481.8594 0.2753
6244.0 2.7906 2.7082 2.6269 90.1611 7.8018 0.0074 0.2774 2.9868 2.5469 -481.9018 0.2690
6244.5 2.8096 2.6857 2.6053 91.7178 7.7907 0.0082 0.2851 2.9777 2.5546 -481.5781 0.2727
6245.0 2.8667 2.7773 2.6780 99.6157 7.7573 0.0049 0.2930 2.9796 2.5510 -481.5446 0.2739
6245.5 2.8618 2.8023 2.7126 101.2293 7.8018 0.0015 0.2897 2.9829 2.5428 -481.5313 0.2823
6246.0 2.8148 2.6996 2.6288 102.8425 7.8018 -0.0001 0.2912 2.9712 2.5346 -481.2857 0.2820
6246.5 2.7720 2.6734 2.5975 102.8709 7.7685 0.0025 0.2811 2.9776 2.5425 -481.3672 0.2824
6247.0 2.8096 2.7112 2.6309 106.4666 7.7796 0.0051 0.2784 3.0046 2.5584 -481.0357 0.2673
6247.5 2.8170 2.7128 2.6276 104.4567 7.7907 0.0062 0.2704 3.0438 2.5713 -481.3281 0.2653
6248.0 2.8157 2.7076 2.6267 96.5021 7.7796 0.0060 0.2767 3.0586 2.5797 -481.3359 0.2640
6248.5 2.8144 2.6997 2.6178 92.7084 7.6461 0.0018 0.2834 3.0726 2.5664 -480.8929 0.2733
6249.0 2.7196 2.6471 2.5702 98.7954 7.8018 -0.0003 0.2843 3.0690 2.5516 -481.1875 0.2772
6249.5 2.6236 2.5214 2.4540 103.9758 7.8241 -0.0010 0.2921 3.0487 2.5346 -481.3482 0.2804
6250.0 2.5526 2.4591 2.3854 104.5986 7.8018 0.0024 0.2846 3.0095 2.5365 -481.5234 0.2849
6250.5 2.6173 2.4784 2.4007 99.5026 7.8018 0.0018 0.2957 3.0286 2.5325 -481.7946 0.2739
6251.0 2.6545 2.5574 2.4633 101.3425 7.7796 0.0010 0.2874 3.0925 2.5340 -481.2578 0.2844
6251.5 2.6796 2.5725 2.4759 99.7289 7.7907 0.0040 0.2914 3.1382 2.5492 -481.3839 0.2768
6252.0 2.6259 2.5191 2.4285 102.1070 7.8241 0.0019 0.2841 3.1154 2.5632 -481.2734 0.2778
6252.5 2.5519 2.4648 2.3760 102.7866 7.8018 0.0033 0.2950 3.0527 2.5753 -481.0714 0.2798
6253.0 2.6174 2.4738 2.3806 103.5795 7.8018 -0.0010 0.2904 2.9912 2.5671 -481.2578 0.2885
6253.5 2.6648 2.5699 2.4610 102.9847 7.7796 0.0014 0.2958 2.9706 2.5627 -480.8214 0.2830
6254.0 2.6892 2.6053 2.5007 95.5112 7.8018 -0.0014 0.2884 2.9873 2.5476 -481.1406 0.2909
6254.5 2.6146 2.5293 2.4353 97.0111 7.8018 -0.0001 0.3008 3.0040 2.5423 -480.9286 0.2819
6255.0 2.5670 2.4660 2.3743 94.2372 7.7796 0.0010 0.2875 3.0069 2.5310 -480.9531 0.2881
6255.5 2.5628 2.4734 2.3776 98.7666 7.7907 0.0039 0.2855 2.9876 2.5280 -481.2857 0.2722
6256.0 2.5594 2.4619 2.3721 99.2481 7.7796 0.0032 0.2851 2.9605 2.5146 -481.0313 0.2768
6256.5 2.5208 2.4299 2.3496 104.6551 7.7796 0.0037 0.2963 2.9482 2.5137 -480.9375 0.2833
6257.0 2.4925 2.4120 2.3223 104.0886 7.8018 0.0001 0.2983 2.9749 2.5094 -480.9688 0.2918
6257.5 2.5247 2.4297 2.3446 101.9087 7.8463 -0.0021 0.2987 3.0434 2.5250 -480.9821 0.2895
6258.0 2.5712 2.4801 2.3844 93.9821 7.8241 -0.0045 0.2936 3.1145 2.5410 -481.3438 0.2843
6258.5 2.6518 2.5376 2.4435 94.7750 7.7796 0.0046 0.3013 3.1300 2.5736 -481.4141 0.2851
6259.0 2.4538 2.4345 2.3423 95.9642 7.8463 0.0084 0.3114 3.0843 2.5665 -481.3393 0.2977
6259.5 2.3679 2.2881 2.2207 101.8519 7.8463 0.0125 0.3223 2.9945 2.5494 -481.4643 0.3094
6260.0 2.2933 2.2274 2.1569 102.4464 7.8463 0.0097 0.3290 2.9467 2.5279 -481.1250 0.3163
6260.5 2.3216 2.2521 2.1751 103.4091 7.7573 0.0113 0.3067 2.9507 2.5282 -481.3984 0.3208
6261.0 2.3603 2.2880 2.2063 96.0773 7.8018 0.0096 0.2950 2.9698 2.5252 -481.1607 0.2920
6261.5 2.4778 2.3803 2.2937 93.8979 7.8018 0.0046 0.2858 2.9959 2.5105 -480.9141 0.2813
6262.0 2.5820 2.4749 2.3849 90.3590 7.8463 0.0006 0.3054 3.0380 2.5047 -481.1518 0.2720
6262.5 2.6761 2.5290 2.4323 93.1619 7.8686 0.0053 0.3073 3.1404 2.5261 -481.0859 0.2914
6263.0 2.7529 2.6043 2.5050 92.9635 7.7907 0.0080 0.3047 3.1679 2.5428 -481.0357 0.3006
6263.5 2.6203 2.5642 2.4607 95.1432 7.8018 0.0130 0.2964 3.1301 2.5557 -481.1406 0.2972
6264.0 2.5131 2.4229 2.3352 100.4653 7.8018 0.0091 0.2999 3.0089 2.5453 -480.9107 0.2934
6264.5 2.4123 2.3528 2.2617 98.1718 7.7796 0.0061 0.2941 2.9518 2.5370 -480.7969 0.2973
6265.0 2.4351 2.3378 2.2501 94.0108 7.7573 0.0007 0.2886 2.9668 2.5329 -480.6786 0.2815
6265.5 2.5279 2.4228 2.3211 85.9713 7.7796 -0.0027 0.2829 3.0442 2.5363 -480.9922 0.2718
6266.0 2.6005 2.4951 2.3809 91.4353 7.7573 -0.0089 0.2998 3.0798 2.5552 -481.2054 0.2676
6266.5 2.6451 2.5396 2.4373 96.2756 7.7796 -0.0079 0.2922 3.0507 2.5600 -480.9531 0.2868
6267.0 2.7243 2.6149 2.4908 104.1168 7.7796 -0.0068 0.3027 2.9823 2.5585 -481.2143 0.2820
6267.5 2.7649 2.6492 2.5432 100.9176 7.8018 0.0005 0.2898 2.9483 2.5524 -480.9297 0.2857
6268.0 2.8420 2.7170 2.6094 99.8421 7.7796 -0.0019 0.2909 3.0026 2.5426 -481.1429 0.2776
6268.5 2.9173 2.7907 2.6822 94.0387 7.7796 -0.0026 0.2729 3.0606 2.5376 -481.1094 0.2770
6269.0 2.8564 2.7906 2.6904 94.4638 7.7907 -0.0020 0.2704 3.0912 2.5315 -480.5714 0.2679
6269.5 2.8057 2.7394 2.6499 96.8985 7.7796 0.0023 0.2678 3.0877 2.5385 -480.6484 0.2679
6270.0 2.7806 2.7183 2.6380 100.1257 7.7796 0.0043 0.2693 3.0707 2.5427 -480.5268 0.2614
