~VERSION INFORMATION
VERS.           1.2   :CWLS Log ASCII Standard - VERSION 1.2
WRAP.           NO    :One Line per depth step
PROD.  Schlumberger   :LAS Producer
PROG.  DLIS to ASCII 17C0-152                          :LAS Program name and version
CREA.        2013/08/16 09:04                          :LAS Creation date {YYYY/MM/DD hh:mm}
DLIS_CREA.  2013-Aug-16 00:16                          :DLIS Creation date and time {YYYY-MMM-DD hh:mm}
SOURCE.     960568ea-4174-41e0-a405-0f32a02141a6       :DLIS File Name
#--------------------------------------------------
~WELL INFORMATION
#MNEM.UNIT      DATA             DESCRIPTION
#---- ------ --------------   -----------------------------
STRT .F      457.0000        :START DEPTH        # original; data subset to 5500-8000
STOP .F      7701.0000       :STOP DEPTH        # original; data subset to 5500-8000
STEP .F       0.5000         :STEP       
NULL .          -999.25      :NULL VALUE
COMP .                 COMPANY:  Bear Oil & Gas, Inc.               
WELL .                    WELL:  Fornstrom 13-32A                   
FLD  .                   FIELD:  Wildcat                            
LOC  .                LOCATION:  SHL: NWSW 1925' FSL & 540" FWL     
CNTY .                  COUNTY:  Laramie                            
STAT .                   STATE:  Wyoming                            
CTRY .                 COUNTRY:  United States                      
SRVC .         SERVICE COMPANY:  Schlumberger                       
LATI .DEG             LATITUDE:  41.307320 degrees                  
LONG .DEG            LONGITUDE:  -104.11715 degrees                 
API  .              API NUMBER:  49-021-21022                       
DATE .                LOG DATE:  15-Aug-2013
UWI  .          UNIQUE WELL ID:  49021210220000                     
#-----------------------------------------------------------------------------
~PARAMETER INFORMATION
#MNEM.UNIT    VALUE                      DESCRIPTION
#---- -----   --------------------       ------------------------
CN   .        Bear Oil & Gas  Inc.       :Company Name
WN   .        Fornstrom 13-32A           :Well Name
FN   .        Wildcat                    :Field Name
FL   .        SHL  NWSW 1925' FSL & 540  FWL :Field Location
FL1  .        Sec. 32  T. 16N  R. 60W    :Field Location, Line 1
COUN .        Laramie                    :County or Parish
STAT .        Wyoming                    :State or Province
NATI .        United States              :Nation
DATE .        15-Aug-2013                :Tools Above Rotary Table Date
APIN .        49-021-21022               :API Well Number
SECT .        32                         :Section
TOWN .        16N                        :Township
RANG .        60W                        :Range
DMF  .        KB                         :Drilling Measured From (Name of Drilling Elevation Reference)
LMF  .        KB                         :Logging Measured From (Name of Logging Elevation Reference)
PDAT .        GL                         :Permanent Datum
ENGI .        Max Pace                   :Engineer s Name
WITN .        Tery Eittreim              :Witness s Name
LATI .        41.307320 degrees          :Latitude
LONG .        -104.11715 degrees         :Longitude
LUL  .        Fort Morgan  CO            :Logging Unit Location
LUN  .        3030                       :Logging Unit Number
RUN  .        Run 1                      :Run Number
SON  .        CA0R-00040                 :Service Order Number
BHT  .DEGF     168.00000                 :Bottom Hole Temperature
BS   .IN         7.87500                 :Bit Size
MDEN .G/C3       2.65000                 :Matrix Density for Density Porosity
DFD  .LB/G       8.80000                 :Drilling Fluid Density
DFV  .S         36.00000                 :Drilling Fluid Viscosity
DFL  .C3         5.00000                 :Drilling Fluid Loss
RMFS .OHMM       1.11000                 :Resistivity of Mud Filtrate Sample
EKB  .F       5298.00000                 :Elevation of Kelly Bushing
EGL  .F       5286.00000                 :Elevation of Ground Level
BLI  .F       7687.00000                 :Bottom Log Interval
BSAL .PPM     3295.90967                 :Borehole Salinity
FLEV .F          8.00000                 :Depth of Drilling Fluid Level to LMF (Log Measured From)
MCST .DEGF      84.00000                 :Mudcake Sample Temperature
MFST .DEGF      84.00000                 :Mud Filtrate Sample Temperature
MRT  .DEGF     168.00000                 :Maximum Recorded Temperature
MST  .DEGF      84.00000                 :Mud Sample Temperature
RMCS .OHMM       1.85000                 :Resistivity of Mud Cake Sample
RMS  .OHMM       1.48000                 :Resistivity of Mud Sample
RW   .OHMM       1.00000                 :Connate Water Resistivity
TDD  .F       7680.00000                 :Driller Total Depth
TDL  .F       7687.00000                 :Logger Total Depth
TLI  .F       1026.25000                 :Top Log Interval
HIDE .        Wildcat                    :Header Identifier
MATR .        SAND                       :Rock Matrix for Neutron Porosity Corrections
FNUM .           1.00000                 :F-Numerator for Formation Factor Formula
FEXP .           2.00000                 :Exponent "m" for Formation Factor Formula
DFT  .        Fresh Water                :Drilling Fluid Type
DFPH .           8.50000                 :Drilling Fluid pH
MCSS .        Calculated                 :Mudcake Sample Source
MFSS .        Calculated                 :Mud Filtrate Sample Source
FD   .G/C3       1.00000                 :Fluid Density
MSS  .        Active Tank                :Mud Sample Source
OS1  .                                   :Other Services Line 1
OS2  .                                   :Other Services Line 2
OS3  .                                   :Other Services Line 3
OS4  .                                   :Other Services Line 4
OS5  .                                   :Other Services Line 5
R1   .                                   :Remarks Line 1
R2   .                                   :Remarks Line 2
R3   .                                   :Remarks Line 3
R4   .                                   :Remarks Line 4
R5   .                                   :Remarks Line 5
R6   .                                   :Remarks Line 6
R7   .                                   :Remarks Line 7
R8   .                                   :Remarks Line 8
TCS  .        14 00 00                   :Time Circulation Stopped
TLAB .        22 20 59                   :Time Logger At Bottom
NMT  .        NOBARITE                   :HRDD Mud Type for Nuclear Devices
EPD  .F         5286.000000              :Elevation of Permanent Datum above Mean Sea Level
APD  .F          12.000000               :Elevation of Depth Reference (LMF) above Permanent Datum
#-----------------------------------------------------------------------------
~CURVE INFORMATION
#MNEM.UNIT   API CODE                                  DESCRIPTION
#---- -----  --------                                  -----------------------
DEPT .F                                                :DEPTH (BOREHOLE) {F12.4}
AT10 .OHMM                                             :Array Induction Two Foot Resistivity A10 {F11.4}
AT30 .OHMM                                             :Array Induction Two Foot Resistivity A30 {F11.4}
AT90 .OHMM                                             :Array Induction Two Foot Resistivity A90 {F11.4}
GR   .GAPI                                             :Gamma Ray {F11.4}
HCAL .IN                                               :HRCC Caliper Calibrated {F11.4}
HDRA .G/C3                                             :Density Standoff Correction {F11.4}
NPHI .CFCF                                             :Thermal Neutron Porosity (original Ratio Method) in Selected Lithology {F11.4}
PEFZ .                                                 :Standard Resolution Formation Photoelectric Factor {F11.4}
RHOZ .G/C3                                             :Standard Resolution Formation Density {F11.4}
SP   .MV                                               :Spontaneous Potential {F11.4}
TNPH .CFCF                                             :Thermal Neutron Porosity (Ratio Method) in Selected Lithology {F11.4}
#-----------------------------------------------------------------------------
# 
#      DEPT        AF10       AF20       AF30       AF60       AF90       AO10       AO20       AO30       AO60       AO90       AT10       AT20       AT30       AT60       AT90     AHFCO60      AHMF      AHORT      AHORX      AHSCA     AHTCO10    AHTCO20    AHTCO30    AHTCO60    AHTCO90     AHTD1      AHTD2      AHTRT      AHTRX       CDF        CFTC       CNTC       CTEM       DCAL       DNPH       DPHZ       DSOZ       ECGR        ED        GDEV        GR        GTEM       HCAL       HDRA       HDRB       HGR        HMIN       HMNO       HNPO       HPRA       HTNP        ND        NPHI       NPOR       PEFZ    PXND_HILT     RHOZ       RSOZ     RWA_HILT     RXO8       RXOZ        SP        SPAR       STIT       TENS       TNPH     HTNP_SAN
#
~A  DEPT AT10 AT30 AT90 GR HCAL HDRA NPHI PEFZ RHOZ SP TNPH
# ...
7367.0000 2.6078 2.4002 2.2626 167.4884 8.1766 0.2586 0.3291 2.9493 2.5309 61.5469 0.3317
7367.5000 2.5912 2.3898 2.2537 168.0336 8.1073 0.2556 0.3254 2.9003 2.5267 61.3571 0.3229
7368.0000 2.6215 2.4205 2.2909 171.3949 7.9223 0.2561 0.3308 2.8192 2.5128 61.3359 0.3277
7368.5000 2.6457 2.4466 2.3183 169.5470 8.0841 0.2587 0.3211 2.7396 2.4972 61.3661 0.3263
7369.0000 2.6430 2.4440 2.3092 162.2182 8.0841 0.2725 0.3244 2.7003 2.5009 61.3516 0.3100
7369.5000 2.6361 2.4419 2.3068 162.0059 7.9917 0.2774 0.3367 2.7061 2.4969 61.4196 0.3124
7370.0000 2.6277 2.4401 2.3107 165.5498 8.1073 0.2718 0.3467 2.7392 2.4924 61.4688 0.3234
7370.5000 2.6357 2.4379 2.3142 173.6042 8.2460 0.2566 0.3304 2.7911 2.4794 61.5000 0.3394
7371.0000 2.6451 2.4550 2.3339 167.8813 8.3384 0.2463 0.3173 2.8435 2.4814 61.2188 0.3228
7371.5000 2.6519 2.4740 2.3589 164.8225 8.2460 0.2429 0.3257 2.8688 2.4942 61.0714 0.3146
7372.0000 2.6188 2.4321 2.3276 165.6711 8.4309 0.2407 0.3390 2.8564 2.5010 61.0781 0.3273
7372.5000 2.5897 2.4128 2.3187 167.7606 8.5003 0.2337 0.3432 2.8253 2.4878 60.8906 0.3327
7373.0000 2.6383 2.4547 2.3435 179.7216 8.1766 0.2206 0.3472 2.7937 2.4690 60.8214 0.3348
7373.5000 2.6600 2.4680 2.3475 177.4201 8.1997 0.2093 0.3577 2.7856 2.4628 61.0000 0.3289
7374.0000 2.6682 2.4962 2.3682 180.2058 8.4309 0.2090 0.3288 2.8038 2.4798 61.1250 0.3371
7374.5000 2.6970 2.5373 2.4010 168.0029 8.5003 0.2287 0.3142 2.8312 2.5012 61.2734 0.3226
7375.0000 2.7039 2.5498 2.4105 168.6085 8.3616 0.2396 0.3239 2.8355 2.4809 61.1786 0.3224
7375.5000 2.7047 2.5691 2.4368 172.6057 8.3616 0.2299 0.3425 2.8567 2.4451 61.1797 0.3301
7376.0000 2.8602 2.6269 2.4713 173.1500 8.5234 0.2167 0.3505 2.9791 2.4626 61.2143 0.3351
7376.5000 3.1169 2.8572 2.7121 162.3699 8.0610 0.2198 0.3399 3.1782 2.5007 61.2891 0.3372
7377.0000 3.1698 3.0567 2.9368 158.7362 7.9223 0.2672 0.3333 3.2427 2.5587 61.3036 0.3311
7377.5000 2.8127 2.6963 2.6051 164.6716 8.0264 0.2762 0.3291 3.0374 2.5166 61.2188 0.3294
7378.0000 2.6055 2.4859 2.4178 179.9333 8.3153 0.2854 0.3140 2.7419 2.4969 61.3750 0.3193
7378.5000 2.6534 2.5211 2.4505 182.9620 8.4540 0.2618 0.3238 2.5611 2.4523 61.6172 0.3051
7379.0000 2.6526 2.5486 2.4731 174.0594 8.6159 0.2763 0.3429 2.5411 2.4729 61.6071 0.3147
7379.5000 2.6684 2.5548 2.4753 167.2459 8.1997 0.2720 0.3566 2.5473 2.4482 61.5547 0.3465
7380.0000 2.6706 2.5691 2.4821 160.0987 9.0782 0.2519 0.3385 2.5272 2.3921 61.4922 0.3463
7380.5000 2.6967 2.5669 2.4735 164.9748 8.7314 0.2274 0.3361 2.5279 2.3244 61.4821 0.3411
7381.0000 2.6889 2.5383 2.4374 165.7319 8.3153 0.2131 0.3584 2.5621 2.3152 61.6607 0.3278
7381.5000 2.6718 2.5330 2.4259 172.2433 8.1766 0.2261 0.3437 2.6333 2.3853 61.5859 0.3285
7382.0000 2.6552 2.5249 2.4193 173.4232 8.5003 0.2314 0.3205 2.7051 2.4467 61.8281 0.3109
7382.5000 2.5896 2.4786 2.3821 176.9054 8.0841 0.2358 0.3089 2.7471 2.4772 61.8214 0.3103
7383.0000 2.5504 2.4334 2.3331 181.0535 8.5003 0.2460 0.3402 2.7438 2.4758 61.5156 0.3029
7383.5000 2.5040 2.3770 2.3020 183.6887 8.4078 0.2659 0.3626 2.6908 2.4785 61.2679 0.3366
7384.0000 2.4988 2.3553 2.2594 182.3861 8.7546 0.2830 0.4013 2.6353 2.4804 60.9531 0.3573
7384.5000 2.4810 2.3463 2.2482 180.3572 8.4772 0.2795 0.3883 2.6114 2.4812 60.9554 0.3889
7385.0000 2.4715 2.3541 2.2565 173.8465 8.7546 0.2646 0.3570 2.6285 2.4671 61.0703 0.3718
7385.5000 2.4601 2.3765 2.2773 178.3292 8.5465 0.2590 0.3519 2.6341 2.4376 60.9911 0.3522
7386.0000 2.4106 2.3531 2.2538 176.4215 8.5927 0.2692 0.3611 2.5896 2.3917 61.4688 0.3538
7386.5000 2.4194 2.2982 2.2244 170.1229 8.4540 0.2946 0.3905 2.5261 2.3804 61.7500 0.3600
7387.0000 2.4041 2.2743 2.1720 162.7033 8.4540 0.3043 0.3730 2.4916 2.4068 61.7188 0.3642
7387.5000 2.3660 2.2649 2.1805 160.3410 8.6968 0.2867 0.3310 2.5084 2.4381 61.7813 0.3484
7388.0000 2.3342 2.2293 2.1578 169.1226 8.6852 0.2542 0.3435 2.5530 2.4382 61.6071 0.3250
7388.5000 2.3070 2.1999 2.1475 172.7871 8.6737 0.2420 0.3486 2.5935 2.4415 61.6250 0.3358
7389.0000 2.2820 2.1789 2.1206 173.5134 8.3847 0.2506 0.3629 2.6330 2.4564 61.4297 0.3397
7389.5000 2.2642 2.1398 2.0825 170.3340 8.6505 0.2646 0.3574 2.6723 2.4719 61.6339 0.3472
7390.0000 2.2196 2.1015 2.0467 165.8218 8.3384 0.2731 0.3380 2.7031 2.4751 61.8672 0.3491
7390.5000 2.1710 2.0403 1.9819 164.6110 8.6390 0.2659 0.3538 2.7108 2.4696 61.6429 0.3275
7391.0000 2.1368 1.9874 1.9273 165.6712 8.6621 0.2499 0.3407 2.7104 2.4696 61.3516 0.3449
7391.5000 2.1135 1.9955 1.9236 169.9406 8.6159 0.2257 0.3539 2.7246 2.4585 61.3036 0.3396
7392.0000 2.0801 1.9790 1.8921 173.4228 8.5234 0.2116 0.3679 2.7400 2.4540 61.3359 0.3489
7392.5000 2.0522 1.9251 1.8688 170.6361 8.5581 0.2072 0.3751 2.7355 2.4464 61.4688 0.3484
7393.0000 2.0349 1.8971 1.8165 162.1277 8.5003 0.2129 0.3780 2.7162 2.4408 61.3839 0.3646
7393.5000 2.0582 1.9259 1.8310 160.8259 8.5234 0.2333 0.3629 2.7093 2.4417 61.2500 0.3649
7394.0000 2.0813 1.9533 1.8476 165.5199 8.4078 0.2635 0.3777 2.7153 2.4650 61.3393 0.3563
7394.5000 2.1269 2.0025 1.8823 174.5132 8.3962 0.2850 0.3681 2.7284 2.4889 61.4297 0.3588
7395.0000 2.1394 2.0027 1.8802 169.8802 8.1997 0.2795 0.3791 2.7357 2.4906 61.7143 0.3483
7395.5000 2.1208 1.9750 1.8521 166.8821 8.3500 0.2521 0.3764 2.7451 2.4664 61.6172 0.3576
7396.0000 2.0653 1.9531 1.8239 161.7041 8.4772 0.2220 0.3923 2.7487 2.4390 61.5268 0.3571
7396.5000 1.9936 1.8799 1.7543 162.9458 8.3616 0.2018 0.3966 2.7275 2.4267 61.6094 0.3738
7397.0000 1.9273 1.8314 1.7075 162.1286 8.4540 0.2031 0.3847 2.6965 2.4354 61.3214 0.3806
7397.5000 1.8553 1.7941 1.6704 161.9762 8.4078 0.2076 0.3936 2.6545 2.4474 61.3516 0.3817
7398.0000 1.7818 1.7267 1.6036 162.2187 8.7314 0.2182 0.3988 2.6393 2.4450 61.4464 0.3863
7398.5000 1.7028 1.6522 1.5545 166.4278 8.4309 0.2167 0.4148 2.6395 2.4181 61.5938 0.3866
7399.0000 1.6241 1.5761 1.4687 167.0039 8.2922 0.2189 0.3907 2.6342 2.4069 61.7734 0.3979
7399.5000 1.6139 1.5856 1.4676 170.3949 8.3962 0.2213 0.3722 2.6099 2.4196 61.4018 0.3788
7400.0000 1.6494 1.6356 1.5097 171.9091 8.3384 0.2205 0.3515 2.5772 2.4226 61.0000 0.3819
7400.5000 1.6546 1.6679 1.5130 173.0295 8.5003 0.2189 0.3783 2.5446 2.4036 61.1161 0.3627
7401.0000 1.6666 1.7167 1.5823 168.3663 8.3384 0.2290 0.3607 2.5115 2.3841 61.1719 0.3689
7401.5000 1.6194 1.6699 1.5436 163.7031 8.2922 0.2349 0.3897 2.4651 2.3784 61.3661 0.3439
7402.0000 1.5299 1.5539 1.4525 157.9190 8.3153 0.2227 0.3825 2.4295 2.3783 61.2656 0.3592
7402.5000 1.4595 1.4435 1.3573 164.5201 8.0379 0.1836 0.4197 2.4145 2.3737 61.2768 0.3528
7403.0000 1.3442 1.3533 1.2588 166.8515 8.0610 0.1536 0.3938 2.4406 2.3785 61.3516 0.3876
7403.5000 1.2995 1.2825 1.2165 178.2081 7.8530 0.1419 0.3740 2.4765 2.3709 61.0714 0.3933
7404.0000 1.0999 1.1051 1.0327 196.1958 7.9917 0.1441 0.3982 2.4918 2.3260 60.3125 0.4073
7404.5000 0.8665 0.8463 0.8293 229.7170 7.7836 0.1406 0.4642 2.4912 2.2482 59.9196 0.4306
7405.0000 0.7592 0.7466 0.7207 239.7705 8.2229 0.1334 0.5227 2.5009 2.2037 60.2031 0.4514
7405.5000 0.8181 0.8125 0.7745 214.2739 8.5234 0.1267 0.5048 2.5799 2.2140 60.5714 0.4637
7406.0000 0.8890 0.8801 0.8233 171.1531 8.2229 0.1207 0.4772 2.6779 2.2704 61.0781 0.4424
7406.5000 0.9537 0.9337 0.8851 144.0200 8.1651 0.1143 0.4399 2.7755 2.3222 61.2589 0.4351
7407.0000 0.9852 0.9486 0.9023 134.3289 8.1535 0.1014 0.4572 2.8243 2.3586 61.4531 0.3939
7407.5000 1.0320 0.9709 0.9252 133.3301 7.9917 0.0940 0.4381 2.8973 2.4032 61.5804 0.4062
7408.0000 1.1017 0.9852 0.9452 131.2104 7.8067 0.0898 0.4130 3.0212 2.4360 61.8516 0.3856
7408.5000 1.1461 1.0115 0.9760 133.8758 7.8992 0.1034 0.3851 3.1652 2.4798 62.0268 0.3779
7409.0000 1.1291 1.0675 1.0275 135.5711 7.8299 0.1019 0.4394 3.1988 2.4708 62.1094 0.3728
7409.5000 1.3128 1.2620 1.1965 135.8738 7.9223 0.0925 0.4934 3.1167 2.4916 62.1016 0.3907
7410.0000 1.8535 1.6529 1.6109 135.3281 7.7143 0.0605 0.4291 3.0010 2.5187 62.0893 0.3836
7410.5000 3.3295 2.7609 2.4759 129.7875 7.7836 0.0344 0.2979 2.9349 2.5871 61.9554 0.2889
7411.0000 6.3151 4.4437 3.8529 125.0328 7.6680 0.0121 0.2104 2.9506 2.6257 61.9219 0.2208
