~VERSION INFORMATION
VERS.           2.0   :CWLS Log ASCII Standard - VERSION 2.0
WRAP.           NO    :One Line per depth step
PROD.  Schlumberger   :LAS Producer
PROG.  DLIS to ASCII 19C2-270                          :LAS Program name and version
CREA.        2013/08/28 17:00                          :LAS Creation date {YYYY/MM/DD hh:mm}
DLIS_CREA.  2013-Aug-28 16:23                          :DLIS Creation date and time {YYYY-MMM-DD hh:mm}
SOURCE.     Bear_Oil_Marquardt_43_31_Main_DLIS.dlis    :DLIS File Name
FILE-ID.     MaxWell_5Dlis                             :File Identification Number
#--------------------------------------------------
~WELL INFORMATION
#MNEM.UNIT      DATA             DESCRIPTION
#---- ------ --------------   -----------------------------
STRT .F      1000.5          :START DEPTH        # original; data subset to 5500-8000
STOP .F      7710.0          :STOP DEPTH        # original; data subset to 5500-8000
STEP .F       0.5            :STEP     
NULL .          -999.25      :NULL VALUE
COMP .        Bear Oil and Gas, Inc.                   :COMPANY
WELL .        Marquardt 43 31                          :WELL
FLD  .        Wildcat                                  :FIELD
LOC  .        NESE 1627' FSL & 170' FEL                :LOCATION
CNTY .        Laramie                                  :COUNTY
STAT .        Wyoming                                  :STATE
CTRY .        United States                            :COUNTRY
API  .        049-021-21034                            :API NUMBER
UWI  .        049021210340000                          :UNIQUE WELL ID
DATE .        28-Aug-2013                              :LOG DATE {DD-MMM-YYYY}
SRVC .        Schlumberger                             :SERVICE COMPANY
LATI .DEG     41.306700 degrees                        :LATITUDE
LONG .DEG     -104.11980 degrees                       :LONGITUDE
GDAT .                                                 :GeoDetic Datum
SECT .        31                                       :Section
RANG .        60W                                      :Range
TOWN .        16N                                      :Township
#-----------------------------------------------------------------------------
~PARAMETER INFORMATION
#MNEM.UNIT    VALUE                      DESCRIPTION
#---- -----   --------------------       ------------------------
CN   .        Bear Oil and Gas  Inc.     :Company Name
WN   .        Marquardt 43 31            :Well Name
FN   .        Wildcat                    :Field Name
FL   .        NESE 1627' FSL & 170' FEL  :Field Location
FL1  .        Sec. 31  T. 16N  R. 60W    :Field Location, Line 1
COUN .        Laramie                    :County or Parish
STAT .        Wyoming                    :State or Province
NATI .        United States              :Nation
DATE .        28-Aug-2013                :Tools Above Rotary Table Date
APIN .        049-021-21034              :API Well Number
SECT .        31                         :Section
TOWN .        16N                        :Township
RANG .        60W                        :Range
DMF  .        KB                         :Drilling Measured From (Name of Drilling Elevation Reference)
LMF  .        KB                         :Logging Measured From (Name of Logging Elevation Reference)
PDAT .        GL                         :Permanent Datum
ENGI .        Max Pace                   :Engineer s Name
WITN .        Terry Eittreim             :Witness s Name
LATI .        41.306700 degrees          :Latitude
LONG .        -104.11980 degrees         :Longitude
LUL  .        Fort Morgan  CO            :Logging Unit Location
LUN  .        3022                       :Logging Unit Number
RUN  .        Run 1                      :Run Number
SON  .        CA0R-00043                 :Service Order Number
BHT  .DEGF     166.00000                 :Bottom Hole Temperature
BS   .IN         7.87500                 :Bit Size
MDEN .G/C3       2.65000                 :Matrix Density for Density Porosity
DFD  .LB/G       8.90000                 :Drilling Fluid Density
DFV  .S         65.00000                 :Drilling Fluid Viscosity
DFL  .C3         9.00000                 :Drilling Fluid Loss
RMFS .OHMM       1.11000                 :Resistivity of Mud Filtrate Sample
EKB  .F       5298.00000                 :Elevation of Kelly Bushing
EGL  .F       5286.00000                 :Elevation of Ground Level
BLI  .F       7686.00000                 :Bottom Log Interval
BSAL .PPM     3335.81519                 :Borehole Salinity
FLEV .F          8.00000                 :Depth of Drilling Fluid Level to LMF (Log Measured From)
MCST .DEGF      83.00000                 :Mudcake Sample Temperature
MFST .DEGF      83.00000                 :Mud Filtrate Sample Temperature
MRT  .DEGF     166.00000                 :Maximum Recorded Temperature
MST  .DEGF      83.00000                 :Mud Sample Temperature
RMCS .OHMM       1.85000                 :Resistivity of Mud Cake Sample
RMS  .OHMM       1.48000                 :Resistivity of Mud Sample
RW   .OHMM       1.00000                 :Connate Water Resistivity
TDD  .F       7680.00000                 :Driller Total Depth
TDL  .F       7686.00000                 :Logger Total Depth
TLI  .F       1025.00000                 :Top Log Interval
HIDE .        Wildcat                    :Header Identifier
MATR .        SAND                       :Rock Matrix for Neutron Porosity Corrections
FNUM .           1.00000                 :F-Numerator for Formation Factor Formula
FEXP .           2.00000                 :Exponent "m" for Formation Factor Formula
DFT  .        WATER                      :Drilling Fluid Type
DFPH .           8.00000                 :Drilling Fluid pH
MCSS .        Calculated                 :Mudcake Sample Source
MFSS .        Calculated                 :Mud Filtrate Sample Source
FD   .G/C3       1.00000                 :Fluid Density
MSS  .        Active Tank                :Mud Sample Source
OS1  .                                   :Other Services Line 1
OS2  .                                   :Other Services Line 2
OS3  .                                   :Other Services Line 3
OS4  .                                   :Other Services Line 4
OS5  .                                   :Other Services Line 5
R1   .                                   :Remarks Line 1
R2   .                                   :Remarks Line 2
R3   .                                   :Remarks Line 3
R4   .                                   :Remarks Line 4
R5   .                                   :Remarks Line 5
R6   .                                   :Remarks Line 6
R7   .                                   :Remarks Line 7
R8   .                                   :Remarks Line 8
TCS  .        05 00 00                   :Time Circulation Stopped
TLAB .        14 30 25                   :Time Logger At Bottom
NMT  .        NOBARITE                   :HRDD Mud Type for Nuclear Devices
EPD  .F         5286.000000              :Elevation of Permanent Datum above Mean Sea Level
APD  .F          12.000000               :Elevation of Depth Reference (LMF) above Permanent Datum
#-----------------------------------------------------------------------------
~CURVE INFORMATION
#MNEM.UNIT   API CODE                                  DESCRIPTION
#---- -----  --------                                  -----------------------
DEPT .F                                                :DEPTH (BOREHOLE) {F10.1}
AT10 .OHMM                                             :Array Induction Two Foot Resistivity A10 {F11.4}
AT30 .OHMM                                             :Array Induction Two Foot Resistivity A30 {F11.4}
AT90 .OHMM                                             :Array Induction Two Foot Resistivity A90 {F11.4}
GR   .GAPI                                             :Gamma Ray {F11.4}
HCAL .IN                                               :HRCC Caliper Calibrated {F11.4}
HDRA .G/C3                                             :Density Standoff Correction {F11.4}
NPHI .CFCF                                             :Thermal Neutron Porosity (original Ratio Method) in Selected Lithology {F11.4}
PEFZ .                                                 :Standard Resolution Formation Photoelectric Factor {F11.4}
RHOZ .G/C3                                             :Standard Resolution Formation Density {F11.4}
SP   .MV                                               :Spontaneous Potential {F11.4}
TNPH .CFCF                                             :Thermal Neutron Porosity (Ratio Method) in Selected Lithology {F11.4}
#-----------------------------------------------------------------------------
# 
#     DEPT       AF10       AF20       AF30       AF60       AF90       AO10       AO20       AO30       AO60       AO90       AT10       AT20       AT30       AT60       AT90     AHFCO60      AHMF      AHORT      AHORX      AHSCA     AHTCO10    AHTCO20    AHTCO30    AHTCO60    AHTCO90     AHTD1      AHTD2      AHTRT      AHTRX       CDF        CFTC       CNTC       CTEM       DCAL       DNPH       DPHZ       DSOZ       ECGR        ED        GDEV        GR        GTEM       HCAL       HDRA       HDRB       HGR        HMIN       HMNO       HNPO       HPRA       HTNP        ND        NPHI       NPOR       PEFZ    PXND_HILT     RHOZ       RSOZ     RWA_HILT     RXO8       RXOZ        SP        SPAR       STIT       TENS       TNPH     HTNP_SAN
#
~A  DEPT AT10 AT30 AT90 GR HCAL HDRA NPHI PEFZ RHOZ SP TNPH
# ...
7228.5 4.4097 4.2776 4.0666 139.8877 7.9544 -0.0054 0.2576 3.5197 2.4679 -69.0078 0.2667
7229.0 4.6204 4.4493 4.2135 136.6782 7.9772 -0.0026 0.2502 3.5666 2.4754 -69.1696 0.2383
7229.5 4.4252 4.3893 4.1842 141.7679 7.9772 -0.0005 0.2785 3.5728 2.4837 -69.1161 0.2428
7230.0 4.2855 4.2389 4.0510 154.9947 8.0000 0.0031 0.3042 3.5045 2.4923 -69.0089 0.2742
7230.5 4.1777 4.1204 3.9608 155.2537 8.0000 0.0057 0.3116 3.4464 2.5007 -69.0703 0.2868
7231.0 4.3323 4.2630 4.0923 149.1270 8.0000 0.0052 0.2929 3.3968 2.4951 -69.2321 0.2933
7231.5 4.5461 4.4745 4.2673 140.5691 8.0228 0.0024 0.2800 3.4069 2.4859 -69.3929 0.2864
7232.0 4.7255 4.6469 4.4315 140.8285 8.0000 -0.0031 0.2946 3.4643 2.4682 -69.3482 0.2721
7232.5 4.8499 4.7911 4.5776 146.2746 8.0228 -0.0045 0.2965 3.4951 2.4678 -69.3672 0.2759
7233.0 4.9167 4.8635 4.6362 136.8726 8.0114 -0.0040 0.3003 3.5038 2.4777 -69.3036 0.2748
7233.5 4.9769 4.8851 4.6620 136.6136 8.0228 -0.0030 0.2616 3.5164 2.4862 -69.4911 0.2792
7234.0 4.8533 4.8846 4.6535 134.2795 7.9772 -0.0048 0.2490 3.5919 2.4767 -69.6875 0.2504
7234.5 4.7041 4.6947 4.5006 141.8655 8.0000 -0.0061 0.2576 3.6364 2.4642 -69.7500 0.2444
7235.0 4.5150 4.4656 4.3070 147.3117 7.9772 -0.0062 0.2889 3.6627 2.4546 -69.8929 0.2522
7235.5 4.6639 4.5486 4.3563 150.1644 7.9772 -0.0043 0.3045 3.6429 2.4575 -69.9196 0.2791
7236.0 4.8078 4.7623 4.5089 141.8651 7.9772 -0.0039 0.2920 3.6595 2.4631 -69.8516 0.2817
7236.5 5.0726 4.9986 4.7465 141.3458 7.9658 -0.0021 0.2787 3.6587 2.4814 -69.8482 0.2658
7237.0 5.1164 5.0460 4.7941 139.4658 7.9772 -0.0012 0.2655 3.6531 2.4929 -69.7768 0.2564
7237.5 4.7941 4.8611 4.6481 154.5083 8.0000 -0.0018 0.2776 3.6467 2.4869 -69.7031 0.2537
7238.0 4.5354 4.5381 4.3449 154.2493 8.0000 -0.0026 0.2914 3.6103 2.4746 -69.5714 0.2709
7238.5 4.3435 4.3201 4.1569 151.2016 7.9886 -0.0035 0.3057 3.5913 2.4671 -69.4643 0.2812
7239.0 4.5622 4.4489 4.2593 144.4585 8.0000 -0.0039 0.3121 3.5870 2.4725 -69.4018 0.2909
7239.5 4.7007 4.6452 4.4469 141.3785 7.9772 -0.0056 0.2944 3.6420 2.4755 -69.5313 0.2928
7240.0 4.7084 4.6833 4.4997 145.2692 7.9772 -0.0048 0.2861 3.6698 2.4832 -69.5893 0.2776
7240.5 4.7738 4.7388 4.5631 144.7508 7.9544 -0.0022 0.2526 3.6895 2.4898 -69.6071 0.2692
7241.0 4.7802 4.7611 4.6195 144.7182 7.9544 -0.0012 0.2423 3.7145 2.4903 -69.6161 0.2432
7241.5 4.8152 4.8093 4.6980 137.2943 7.9544 -0.0037 0.2394 3.8460 2.4747 -69.5781 0.2284
7242.0 4.9143 4.9006 4.8158 141.9622 7.9544 -0.0058 0.2504 3.9326 2.4625 -69.3661 0.2269
7242.5 4.6188 4.7043 4.6076 148.1867 7.9658 -0.0035 0.2753 3.8668 2.4675 -69.3661 0.2427
7243.0 4.4036 4.3425 4.3329 159.7608 7.9772 -0.0008 0.2819 3.6917 2.4762 -69.2656 0.2589
7243.5 4.4639 4.3657 4.3176 153.4713 7.9772 0.0022 0.2795 3.5611 2.4917 -69.1696 0.2629
7244.0 4.7362 4.6951 4.6149 146.2097 7.9544 0.0024 0.2674 3.5579 2.5004 -69.2054 0.2522
7244.5 5.0032 4.9142 4.8318 133.2414 7.9772 -0.0004 0.2659 3.6608 2.4987 -69.0000 0.2402
7245.0 4.8571 4.7771 4.6971 135.7380 7.9772 -0.0044 0.2795 3.7286 2.4881 -68.9297 0.2479
7245.5 4.4555 4.4192 4.3363 130.5506 7.9544 -0.0081 0.2763 3.7508 2.4705 -68.9375 0.2734
7246.0 4.2048 4.1412 4.0535 138.3308 7.9544 -0.0085 0.2809 3.6887 2.4647 -68.9821 0.2739
7246.5 3.9581 3.8917 3.8173 138.4933 7.9544 -0.0090 0.2836 3.6273 2.4578 -69.0234 0.2721
7247.0 3.7321 3.6734 3.5764 139.3038 7.9544 -0.0069 0.2870 3.5484 2.4611 -68.9643 0.2693
7247.5 3.6612 3.5848 3.4809 145.7881 7.9544 -0.0056 0.2820 3.5304 2.4584 -69.0714 0.2736
7248.0 3.6884 3.6215 3.5034 145.2693 7.9544 -0.0045 0.2612 3.5691 2.4550 -69.0547 0.2660
7248.5 3.7228 3.6626 3.5398 151.7203 7.9544 -0.0053 0.2590 3.6490 2.4514 -69.1071 0.2424
7249.0 3.8333 3.7719 3.6615 150.1642 7.9544 -0.0044 0.2789 3.6757 2.4587 -69.2589 0.2380
7249.5 3.9841 3.9524 3.8230 144.3936 7.9315 -0.0021 0.2875 3.6235 2.4733 -69.2321 0.2513
7250.0 4.0754 4.1238 3.9753 137.9099 7.9544 -0.0010 0.3421 3.5992 2.4810 -69.2500 0.3108
7250.5 4.2529 4.2716 4.1014 125.9796 7.9544 -0.0034 0.3039 3.6695 2.4805 -69.0391 0.3211
7251.0 4.5652 4.7116 4.4540 126.5629 7.9315 -0.0059 0.2786 3.7608 2.4827 -68.9911 0.2933
7251.5 4.6926 4.9050 4.7107 127.9575 7.9315 -0.0050 0.2637 3.8250 2.4772 -69.0446 0.2697
7252.0 4.2912 4.6429 4.5643 138.3313 7.9087 -0.0025 0.2735 3.7615 2.4703 -69.1875 0.2643
7252.5 4.2095 4.5239 4.4777 150.5207 7.9201 0.0005 0.2969 3.6570 2.4589 -69.2411 0.2720
7253.0 4.0689 4.2137 4.1838 150.9424 7.9087 0.0092 0.2979 3.5510 2.4603 -69.3750 0.2881
7253.5 4.3147 3.9051 3.8950 148.2193 7.9087 0.0119 0.2868 3.4680 2.4708 -69.5893 0.2766
7254.0 4.1215 4.0684 4.0844 133.9552 7.9315 0.0515 0.2570 3.4446 2.4642 -69.8828 0.2651
7254.5 3.7801 3.2627 3.2318 151.0716 7.9087 0.1234 0.2362 3.3304 2.4580 -70.4464 0.2607
7255.0 2.0216 2.2987 2.2950 180.7999 7.9544 0.2100 0.3167 3.1189 2.4695 -71.1607 0.2788
7255.5 1.3981 1.3638 1.3811 222.5551 8.2510 0.1868 0.3576 2.8471 2.4278 -71.6875 0.3487
7256.0 1.5398 1.5201 1.5341 211.4030 8.7758 0.1016 0.3689 2.8030 2.4003 -70.8482 0.3455
7256.5 2.5498 2.5408 2.3569 181.5452 7.9315 0.0129 0.3101 2.9634 2.3936 -70.0982 0.3000
7257.0 3.9012 3.5957 3.3096 149.6775 7.9315 -0.0048 0.2998 3.2217 2.4483 -69.6797 0.2778
7257.5 3.5647 3.4991 3.3484 151.2346 7.9315 -0.0022 0.3224 3.3749 2.4754 -69.6161 0.3076
7258.0 3.5476 3.3177 3.2208 149.9373 7.9315 -0.0051 0.3147 3.4706 2.4531 -69.5982 0.3265
7258.5 3.5969 3.3687 3.2352 151.7204 7.9315 -0.0070 0.3093 3.4981 2.4383 -69.4911 0.3118
7259.0 3.5835 3.3858 3.2214 145.5927 7.9201 -0.0057 0.2941 3.4386 2.4422 -69.3906 0.3110
7259.5 3.5015 3.3196 3.2230 153.1141 7.9315 -0.0044 0.3012 3.3831 2.4445 -69.2589 0.2998
7260.0 3.3974 3.3415 3.2535 150.7801 7.9087 -0.0036 0.3410 3.3415 2.4445 -69.2411 0.3068
7260.5 3.3176 3.2580 3.2346 155.8700 7.9315 -0.0024 0.3870 3.3471 2.4428 -69.2422 0.3355
7261.0 3.1808 3.2564 3.2638 158.3991 7.9315 -0.0021 0.4042 3.3591 2.4385 -69.0536 0.3674
7261.5 3.4902 3.3265 3.3821 150.6184 7.9087 -0.0021 0.3826 3.4226 2.4383 -69.0804 0.3704
7262.0 3.7060 3.6590 3.7328 139.9846 7.9315 -0.0043 0.3333 3.5000 2.4354 -69.2321 0.3483
7262.5 4.1070 4.2419 4.3990 129.1564 7.9087 -0.0037 0.3155 3.5305 2.4418 -69.1328 0.3210
7263.0 3.8934 4.1995 4.2966 132.7227 7.9087 -0.0025 0.3301 3.5085 2.4423 -69.1786 0.3183
7263.5 3.9966 4.1142 4.1170 142.0600 7.9315 -0.0024 0.3452 3.5073 2.4388 -69.3036 0.3368
7264.0 4.2262 3.9250 3.8204 136.3543 7.9087 -0.0037 0.3538 3.6123 2.4360 -69.3393 0.3368
7264.5 4.0021 3.8507 3.5558 128.6384 7.9087 -0.0056 0.3264 3.7448 2.4482 -69.4375 0.3226
7265.0 3.7677 3.7239 3.4200 111.9097 7.9087 -0.0074 0.3028 3.8568 2.4608 -69.7232 0.3042
7265.5 3.5959 3.6130 3.2675 112.1691 7.9087 -0.0058 0.2927 3.8005 2.4833 -70.1071 0.2892
7266.0 3.3061 3.6121 3.2950 113.9846 7.8859 -0.0028 0.2870 3.7024 2.4878 -70.4018 0.2955
7266.5 3.1978 3.7123 3.2733 125.7849 7.8859 -0.0006 0.3169 3.6015 2.4792 -69.7969 0.3024
7267.0 3.4547 3.8009 3.3156 124.2291 7.8859 -0.0025 0.3237 3.5983 2.4597 -69.3661 0.3192
7267.5 3.4136 4.1120 3.5007 125.5910 7.9087 -0.0035 0.3385 3.5833 2.4611 -69.2054 0.3014
7268.0 3.7872 4.3004 3.6453 125.0723 7.8859 -0.0042 0.3111 3.5640 2.4740 -68.9453 0.3169
7268.5 4.0810 4.3174 3.5773 126.8878 7.8859 0.0009 0.3199 3.5185 2.4805 -68.7143 0.3019
7269.0 3.1562 3.0660 2.6464 130.2914 7.8859 0.0037 0.2891 3.4857 2.4603 -68.9375 0.3261
7269.5 2.4242 2.3187 2.1615 137.0345 7.8859 0.0039 0.2860 3.3195 2.4108 -69.0781 0.3083
7270.0 1.8800 1.7291 1.6467 162.4503 7.9087 0.0336 0.2916 3.0941 2.3731 -69.1161 0.3255
7270.5 1.0949 1.1020 1.0695 212.4091 7.9315 0.0812 0.3694 2.8519 2.3369 -69.3214 0.3401
7271.0 0.7027 0.6759 0.6790 264.0525 8.6389 0.0985 0.4502 2.6422 2.2693 -70.3482 0.3970
7271.5 0.5586 0.5684 0.5516 299.0647 9.5060 0.0721 0.4716 2.5123 2.2189 -69.9531 0.4079
7272.0 0.6171 0.6254 0.6032 285.8364 8.8899 0.0267 0.4105 2.5318 2.2109 -68.3482 0.3943
7272.5 0.9190 0.8621 0.8045 241.4551 8.5591 0.0327 0.3530 2.7742 2.3203 -66.9554 0.3443
7273.0 1.5231 1.4187 1.2267 204.8880 8.0456 0.0491 0.3194 2.9833 2.4129 -66.5357 0.3350
7273.5 2.1818 1.7864 1.5490 172.9230 8.1369 0.0641 0.3427 3.0622 2.4692 -66.5000 0.3307
