~VERSION INFORMATION
VERS.           2.0   :CWLS Log ASCII Standard - VERSION 2.0
WRAP.           NO    :One Line per depth step
PROD.  Schlumberger   :LAS Producer
PROG.  DLIS to ASCII 19C2-270                          :LAS Program name and version
CREA.        2013/09/21 19:52                          :LAS Creation date {YYYY/MM/DD hh:mm}
DLIS_CREA.  2013-Sep-21 19:47                          :DLIS Creation date and time {YYYY-MMM-DD hh:mm}
SOURCE.     49-021-21035_McGahan Farms 42-31_Run_PEX_Mainpass.dlis  :DLIS File Name
FILE-ID.     MaxWell_3Dlis                             :File Identification Number
#--------------------------------------------------
~WELL INFORMATION
#MNEM.UNIT      DATA             DESCRIPTION
#---- ------ --------------   -----------------------------
STRT .F      1000.5          :START DEPTH        # original; data subset to 5500-8000
STOP .F      7716.5          :STOP DEPTH        # original; data subset to 5500-8000
STEP .F       0.5            :STEP     
NULL .          -999.25      :NULL VALUE
COMP .        Bear Oil & Gas, Inc                      :COMPANY
WELL .        McGahan Farms 42-31                      :WELL
FLD  .        Wildcat                                  :FIELD
LOC  .        Lat/Long: 41.3098/-104.1197              :LOCATION
CNTY .        Laramie                                  :COUNTY
STAT .        Wyoming                                  :STATE
CTRY .        USA                                      :COUNTRY
API  .        49-021-21035                             :API NUMBER
UWI  .        49021210350000                           :UNIQUE WELL ID
DATE .        21-Sep-2013                              :LOG DATE {DD-MMM-YYYY}
SRVC .        Schlumberger                             :SERVICE COMPANY
LATI .DEG     41.309800 degrees                        :LATITUDE
LONG .DEG     -104.11970 degrees                       :LONGITUDE
GDAT .                                                 :GeoDetic Datum
SECT .        31                                       :Section
RANG .        60W                                      :Range
TOWN .        16N                                      :Township
#-----------------------------------------------------------------------------
~PARAMETER INFORMATION
#MNEM.UNIT    VALUE                      DESCRIPTION
#---- -----   --------------------       ------------------------
CN   .        Bear Oil & Gas  Inc        :Company Name
WN   .        McGahan Farms 42-31        :Well Name
FN   .        Wildcat                    :Field Name
FL   .        Lat/Long  41.3098/-104.1197 :Field Location
FL1  .        SHL   2375' FNL X 190' FEL SENE :Field Location, Line 1
COUN .        Laramie                    :County or Parish
STAT .        Wyoming                    :State or Province
NATI .        USA                        :Nation
DATE .        21-Sep-2013                :Tools Above Rotary Table Date
APIN .        49-021-21035               :API Well Number
SECT .        31                         :Section
TOWN .        16N                        :Township
RANG .        60W                        :Range
DMF  .        KB                         :Drilling Measured From (Name of Drilling Elevation Reference)
LMF  .        KB                         :Logging Measured From (Name of Logging Elevation Reference)
PDAT .        GL                         :Permanent Datum
ENGI .        Arvin Shi                  :Engineer s Name
WITN .        Terry Eittreim             :Witness s Name
LATI .        41.309800 degrees          :Latitude
LONG .        -104.11970 degrees         :Longitude
LUL  .        Fort Morgan                :Logging Unit Location
LUN  .        3022                       :Logging Unit Number
RUN  .        Run 1                      :Run Number
SON  .        C6VJ-00079                 :Service Order Number
BHT  .DEGF     175.00000                 :Bottom Hole Temperature
BS   .IN         7.87500                 :Bit Size
MDEN .G/C3       2.65000                 :Matrix Density for Density Porosity
DFD  .LB/G       9.20000                 :Drilling Fluid Density
DFV  .S         80.00000                 :Drilling Fluid Viscosity
DFL  .C3      -999.25000                 :Drilling Fluid Loss
RMFS .OHMM       0.96000                 :Resistivity of Mud Filtrate Sample
EKB  .F       5307.00000                 :Elevation of Kelly Bushing
EGL  .F       5295.00000                 :Elevation of Ground Level
BLI  .F       7700.00000                 :Bottom Log Interval
BSAL .PPM     3275.14868                 :Borehole Salinity
FLEV .F          8.00000                 :Depth of Drilling Fluid Level to LMF (Log Measured From)
MCST .DEGF      98.00000                 :Mudcake Sample Temperature
MFST .DEGF      98.00000                 :Mud Filtrate Sample Temperature
MRT  .DEGF     175.00000                 :Maximum Recorded Temperature
MST  .DEGF      98.00000                 :Mud Sample Temperature
RMCS .OHMM       1.60000                 :Resistivity of Mud Cake Sample
RMS  .OHMM       1.28000                 :Resistivity of Mud Sample
RW   .OHMM       1.00000                 :Connate Water Resistivity
TDD  .F       7697.00000                 :Driller Total Depth
TDL  .F       7700.00000                 :Logger Total Depth
TLI  .F       1018.00000                 :Top Log Interval
HIDE .        Wildcat                    :Header Identifier
MATR .        SAND                       :Rock Matrix for Neutron Porosity Corrections
FNUM .           1.00000                 :F-Numerator for Formation Factor Formula
FEXP .           2.00000                 :Exponent "m" for Formation Factor Formula
DFT  .        Chemical Gel               :Drilling Fluid Type
DFPH .        -999.25000                 :Drilling Fluid pH
MCSS .        Calculated                 :Mudcake Sample Source
MFSS .        Calculated                 :Mud Filtrate Sample Source
FD   .G/C3       1.00000                 :Fluid Density
MSS  .        Flowline                   :Mud Sample Source
OS1  .                                   :Other Services Line 1
OS2  .                                   :Other Services Line 2
OS3  .                                   :Other Services Line 3
OS4  .                                   :Other Services Line 4
OS5  .                                   :Other Services Line 5
R1   .                                   :Remarks Line 1
R2   .                                   :Remarks Line 2
R3   .                                   :Remarks Line 3
R4   .                                   :Remarks Line 4
R5   .                                   :Remarks Line 5
R6   .                                   :Remarks Line 6
R7   .                                   :Remarks Line 7
R8   .                                   :Remarks Line 8
TCS  .        11 00 00                   :Time Circulation Stopped
TLAB .        17 20 49                   :Time Logger At Bottom
NMT  .        NOBARITE                   :HRDD Mud Type for Nuclear Devices
EPD  .C3         5295.000000             :Elevation of Permanent Datum above Mean Sea Level
APD  .F          12.000000               :Elevation of Depth Reference (LMF) above Permanent Datum
#-----------------------------------------------------------------------------
~CURVE INFORMATION
#MNEM.UNIT   API CODE                                  DESCRIPTION
#---- -----  --------                                  -----------------------
DEPT .F                                                :DEPTH (BOREHOLE) {F10.1}
AT10 .OHMM                                             :Array Induction Two Foot Resistivity A10 {F11.4}
AT30 .OHMM                                             :Array Induction Two Foot Resistivity A30 {F11.4}
AT90 .OHMM                                             :Array Induction Two Foot Resistivity A90 {F11.4}
GR   .GAPI                                             :Gamma Ray {F11.4}
HCAL .IN                                               :HRCC Caliper Calibrated {F11.4}
HDRA .G/C3                                             :Density Standoff Correction {F11.4}
NPHI .CFCF                                             :Thermal Neutron Porosity (original Ratio Method) in Selected Lithology {F11.4}
PEFZ .                                                 :Standard Resolution Formation Photoelectric Factor {F11.4}
RHOZ .G/C3                                             :Standard Resolution Formation Density {F11.4}
SP   .MV                                               :Spontaneous Potential {F11.4}
TNPH .CFCF                                             :Thermal Neutron Porosity (Ratio Method) in Selected Lithology {F11.4}
#-----------------------------------------------------------------------------
# 
#     DEPT       AF10       AF20       AF30       AF60       AF90       AO10       AO20       AO30       AO60       AO90       AT10       AT20       AT30       AT60       AT90     AHFCO60      AHMF      AHORT      AHORX      AHSCA     AHTCO10    AHTCO20    AHTCO30    AHTCO60    AHTCO90     AHTD1      AHTD2      AHTRT      AHTRX       CDF        CFTC       CNTC       CTEM       DCAL       DNPH       DPHZ       DSOZ       ECGR        ED        GDEV        GR        GTEM       HCAL       HDRA       HDRB       HGR        HMIN       HMNO       HNPO       HPRA       HTNP        ND        NPHI       NPOR       PEFZ    PXND_HILT     RHOZ       RSOZ     RWA_HILT     RXO8       RXOZ        SP        SPAR       STIT       TENS       TNPH     HTNP_SAN
#
~A  DEPT AT10 AT30 AT90 GR HCAL HDRA NPHI PEFZ RHOZ SP TNPH
# ...
6496.5 2.2742 2.0912 1.9660 165.8042 7.9502 0.1193 0.3381 3.3180 2.4759 -347.5179 0.2952
6497.0 2.3245 2.1346 2.0295 177.7061 7.9722 0.1176 0.3523 3.3956 2.4785 -347.6964 0.3247
6497.5 2.3334 2.1389 2.0400 178.5272 8.0161 0.1095 0.3609 3.4819 2.4796 -347.8750 0.3438
6498.0 2.3418 2.1338 2.0393 177.1668 7.9722 0.0930 0.3283 3.5379 2.4857 -347.8214 0.3419
6498.5 2.2708 2.0988 2.0196 172.6041 7.9722 0.0798 0.3177 3.5237 2.4901 -347.6429 0.3077
6499.0 2.1988 2.0213 1.9442 170.1109 7.9502 0.0714 0.3327 3.3924 2.4805 -347.9375 0.3119
6499.5 2.2459 2.0840 1.9992 173.9645 7.9722 0.0629 0.3450 3.2402 2.4759 -348.0357 0.3224
6500.0 2.3054 2.1260 2.0402 170.7910 7.9502 0.0452 0.3384 3.1875 2.4852 -347.7031 0.3229
6500.5 2.3878 2.1875 2.0953 172.8315 7.9062 0.0332 0.3304 3.2687 2.5012 -347.7321 0.3184
6501.0 2.4337 2.2256 2.1328 170.3382 7.9282 0.0482 0.3296 3.4112 2.5194 -347.8516 0.3270
6501.5 2.3427 2.1610 2.0743 185.4417 7.9722 0.0653 0.3482 3.4559 2.4972 -347.9286 0.3316
6502.0 2.2796 2.1083 2.0293 192.8092 8.0161 0.0816 0.3590 3.4012 2.4771 -347.7969 0.3404
6502.5 2.2085 2.0580 1.9848 197.5699 8.0381 0.0736 0.3761 3.3030 2.4535 -347.6161 0.3454
6503.0 2.2120 2.0463 1.9738 188.2748 8.0491 0.0682 0.3419 3.2595 2.4483 -347.6429 0.3604
6503.5 2.2716 2.1092 2.0272 185.2997 7.9941 0.0674 0.3361 3.2682 2.4473 -347.8906 0.3367
6504.0 2.2991 2.1427 2.0588 193.9144 7.9941 0.0723 0.3297 3.2916 2.4467 -347.8036 0.3282
6504.5 2.3337 2.1584 2.0755 202.9829 7.9612 0.0767 0.3533 3.3111 2.4518 -347.8571 0.3181
6505.0 2.4069 2.2091 2.1233 210.1232 7.9062 0.0776 0.3458 3.3321 2.4722 -348.0781 0.3387
6505.5 2.4752 2.2901 2.1933 207.4027 7.9282 0.0765 0.3427 3.3943 2.4764 -348.4643 0.3266
6506.0 2.5287 2.3160 2.2319 198.5621 7.9392 0.0736 0.3416 3.4693 2.4669 -349.4821 0.3327
6506.5 2.4537 2.2767 2.1981 185.4704 7.9502 0.0755 0.3632 3.5101 2.4532 -349.2656 0.3406
6507.0 2.4503 2.2658 2.1977 179.8027 7.9062 0.0670 0.3754 3.4468 2.4381 -348.1607 0.3606
6507.5 2.4318 2.2482 2.1756 188.6436 7.9282 0.0597 0.3609 3.3464 2.4480 -347.7857 0.3580
6508.0 2.4275 2.2605 2.1845 201.9902 7.9502 0.0409 0.3366 3.2682 2.4422 -347.4141 0.3368
6508.5 2.4885 2.2932 2.2140 204.1725 7.9392 0.0239 0.3275 3.2553 2.4468 -347.0804 0.3144
6509.0 2.5905 2.3766 2.3054 203.0389 7.9282 0.0080 0.3531 3.3295 2.4483 -346.8906 0.3192
6509.5 2.7040 2.4740 2.3701 210.7469 7.9282 -0.0008 0.3816 3.4735 2.4644 -346.8571 0.3399
6510.0 2.7610 2.5255 2.4467 222.4506 7.9392 -0.0010 0.3929 3.6065 2.4903 -346.6786 0.3737
6510.5 2.7631 2.5138 2.4421 236.5060 7.9502 -0.0008 0.3766 3.6848 2.5030 -346.5859 0.3988
6511.0 2.7621 2.4932 2.4284 239.6795 7.9282 -0.0020 0.3494 3.6735 2.5017 -346.6250 0.3751
6511.5 2.6918 2.4674 2.4107 239.4804 7.9282 -0.0049 0.3334 3.6422 2.4894 -346.6786 0.3347
6512.0 2.5821 2.3831 2.3269 245.1484 7.9392 -0.0081 0.3283 3.6462 2.4728 -346.4922 0.3242
6512.5 2.5199 2.3450 2.2969 250.2779 7.9502 -0.0079 0.3597 3.7271 2.4587 -346.4286 0.3209
6513.0 2.6116 2.4468 2.3970 266.7426 7.9502 -0.0082 0.3702 3.8718 2.4509 -346.5391 0.3549
6513.5 2.8168 2.5888 2.5327 272.8637 7.9282 -0.0084 0.4223 4.0156 2.4526 -346.5625 0.3598
6514.0 3.0389 2.7719 2.7066 279.6081 7.9282 -0.0097 0.4176 4.1403 2.4551 -346.6518 0.4061
6514.5 3.2002 2.9005 2.8344 291.8492 7.9502 -0.0089 0.4112 4.1838 2.4575 -346.6328 0.4207
6515.0 3.1594 2.8947 2.8291 301.5974 7.9502 -0.0058 0.3816 4.1378 2.4604 -346.3393 0.4103
6515.5 3.1079 2.8969 2.8299 299.2447 7.9282 -0.0045 0.3809 4.0618 2.4600 -346.4911 0.3758
6516.0 3.2120 2.9511 2.8907 295.9300 7.9282 -0.0052 0.3736 4.0508 2.4485 -346.6016 0.3905
6516.5 3.2696 2.9830 2.9227 282.1007 7.9172 -0.0063 0.3729 4.0466 2.4357 -346.5179 0.3714
6517.0 3.2162 3.0049 2.9407 292.7568 7.9062 -0.0079 0.3691 4.0400 2.4177 -346.7500 0.3683
6517.5 3.1027 2.9237 2.8637 292.3590 7.8842 -0.0045 0.3801 3.9285 2.4211 -347.0089 0.3611
6518.0 2.9825 2.7878 2.7544 298.9340 7.9172 -0.0039 0.3917 3.8878 2.4128 -347.0089 0.3774
6518.5 3.2596 3.0096 2.9696 312.5352 7.9062 -0.0028 0.4050 3.8975 2.4074 -346.8125 0.3943
6519.0 3.4898 3.2548 3.2038 318.2889 7.9282 -0.0034 0.3875 3.9825 2.3946 -346.6339 0.4023
6519.5 3.3680 3.1966 3.1621 323.4183 7.9172 -0.0029 0.3722 4.0477 2.3919 -346.5357 0.3729
6520.0 3.4189 3.1876 3.1698 302.3343 7.9282 -0.0010 0.3755 4.0398 2.3996 -346.4922 0.3634
6520.5 3.4604 3.2357 3.2079 302.9296 7.9282 -0.0012 0.4103 4.0589 2.3990 -346.2857 0.3713
6521.0 3.4895 3.3023 3.2575 311.6284 7.9282 -0.0016 0.4113 4.0901 2.3980 -346.1964 0.3938
6521.5 3.3542 3.2393 3.2044 311.8564 7.9062 -0.0040 0.4074 4.1514 2.3921 -346.3906 0.3936
6522.0 3.2546 3.0542 3.0346 302.3340 7.8842 -0.0063 0.4095 4.1769 2.3890 -346.5714 0.3985
6522.5 3.1743 3.0207 2.9729 297.7994 7.9062 -0.0094 0.4217 4.1740 2.3777 -346.5179 0.4014
6523.0 3.2002 3.0467 2.9838 287.8250 7.8732 -0.0101 0.4108 4.1156 2.3640 -346.2266 0.4312
6523.5 3.1808 2.9433 2.8715 268.6408 7.8622 -0.0080 0.3873 3.9931 2.3423 -346.0625 0.4168
6524.0 2.9131 2.7947 2.7104 237.8098 7.8732 -0.0002 0.3766 3.8205 2.3232 -346.2679 0.3880
6524.5 2.6033 2.4205 2.3684 224.6606 7.8402 0.0061 0.3855 3.6231 2.3200 -346.4609 0.3625
6525.0 2.3721 2.2174 2.1701 212.3051 7.8622 0.0060 0.3950 3.4528 2.3210 -346.2232 0.3717
6525.5 2.6382 2.4257 2.3203 207.5454 7.8842 0.0026 0.3837 3.3471 2.3373 -346.0938 0.3774
6526.0 2.7518 2.5971 2.4304 200.5166 7.8842 -0.0017 0.3644 3.3585 2.3398 -346.1607 0.3594
6526.5 2.9331 2.5422 2.3907 198.1368 7.9062 -0.0035 0.3530 3.4464 2.3309 -346.2109 0.3493
6527.0 2.4493 2.4618 2.3258 193.1485 7.9062 -0.0044 0.3700 3.4716 2.3061 -346.4107 0.3433
6527.5 2.0585 1.9342 1.8288 197.9106 7.8842 -0.0006 0.3963 3.4079 2.2946 -346.5446 0.3677
6528.0 2.0852 1.9057 1.8372 199.4971 7.9941 0.0001 0.4040 3.3241 2.2918 -346.2422 0.3927
6528.5 2.6759 2.3991 2.2151 197.4566 7.8842 -0.0015 0.4294 3.3894 2.2889 -346.0982 0.4018
6529.0 3.3259 2.9569 2.7353 187.8784 7.8622 -0.0071 0.4491 3.5505 2.2811 -346.0089 0.4269
6529.5 3.7006 3.2346 3.0096 195.5862 7.8842 -0.0076 0.4439 3.7111 2.2938 -346.0859 0.4596
6530.0 3.7854 3.3803 3.1290 208.8480 7.8622 -0.0079 0.4088 3.7811 2.3221 -346.1250 0.4318
6530.5 3.4918 3.1352 2.9946 220.2391 7.8842 -0.0073 0.3866 3.7526 2.3503 -346.4911 0.3757
6531.0 3.1331 2.8738 2.7733 208.9041 7.8842 -0.0075 0.3800 3.6915 2.3590 -346.2946 0.3694
6531.5 2.8585 2.6746 2.5984 191.6475 7.8842 -0.0071 0.3841 3.6155 2.3385 -346.0000 0.3759
6532.0 2.5409 2.4202 2.3479 177.1387 7.8732 0.0026 0.3689 3.4722 2.3271 -346.2589 0.3799
6532.5 2.1433 2.0033 1.9530 167.8440 7.8622 0.0098 0.3638 3.2797 2.3229 -346.5625 0.3480
6533.0 2.2409 2.0390 1.9786 163.2241 8.0161 0.0182 0.3531 3.0726 2.3513 -346.5156 0.3288
6533.5 2.5838 2.3474 2.2765 152.2575 7.8732 0.0131 0.3627 2.9774 2.3586 -346.6161 0.3293
6534.0 2.3888 2.2999 2.2232 153.3909 7.8842 0.0098 0.3868 2.9542 2.3593 -346.7031 0.3650
6534.5 2.3128 2.2584 2.1765 151.2666 7.8842 0.0043 0.3785 2.9611 2.3443 -346.7143 0.3973
6535.0 2.5481 2.4343 2.3098 166.0872 7.8842 0.0010 0.3580 3.0339 2.3382 -346.5804 0.3474
6535.5 2.8768 2.6828 2.5273 180.3695 7.9062 -0.0041 0.3383 3.1840 2.3366 -346.4844 0.3279
6536.0 3.2968 3.0852 2.7639 189.6917 7.8622 -0.0074 0.3400 3.3074 2.3393 -346.3929 0.3244
6536.5 2.8009 2.7080 2.5026 183.3447 7.8622 -0.0056 0.3652 3.2921 2.3409 -346.5536 0.3293
6537.0 2.5817 2.2635 2.1733 176.6859 7.8952 0.0001 0.3654 3.1406 2.3587 -346.7656 0.3488
6537.5 2.2887 2.1498 1.9817 167.2207 7.8842 0.0026 0.3607 2.9865 2.3752 -346.5982 0.3454
6538.0 2.5285 2.3436 2.0058 163.5082 7.9062 -0.0015 0.3358 2.9566 2.3919 -346.3984 0.3317
6538.5 2.7022 2.4943 2.2614 152.0309 7.8842 -0.0045 0.3083 2.9728 2.3865 -346.4911 0.3127
6539.0 2.3157 1.9342 1.7609 151.5784 7.8842 0.0025 0.3448 2.9385 2.3449 -346.8214 0.3175
6539.5 1.2270 1.2491 1.1884 155.3467 7.8842 0.0278 0.4030 2.8070 2.2901 -347.1016 0.3698
6540.0 0.7900 0.7411 0.7188 158.7476 7.9502 0.0395 0.4334 2.6772 2.2335 -347.2679 0.4274
6540.5 0.7460 0.7480 0.7254 173.2560 7.9941 0.0324 0.3959 2.7039 2.2316 -347.2054 0.4206
6541.0 1.2627 1.1915 1.1075 190.3163 7.8402 0.0143 0.3647 2.9985 2.2839 -346.8984 0.3702
