~VERSION INFORMATION
VERS.           1.2   :CWLS Log ASCII Standard - VERSION 1.2
WRAP.           NO    :One Line per depth step
PROD.  Schlumberger   :LAS Producer
PROG.  DLIS to ASCII 17C0-152                          :LAS Program name and version
CREA.        2013/08/16 09:04                          :LAS Creation date {YYYY/MM/DD hh:mm}
DLIS_CREA.  2013-Aug-16 00:16                          :DLIS Creation date and time {YYYY-MMM-DD hh:mm}
SOURCE.     960568ea-4174-41e0-a405-0f32a02141a6       :DLIS File Name
#--------------------------------------------------
~WELL INFORMATION
#MNEM.UNIT      DATA             DESCRIPTION
#---- ------ --------------   -----------------------------
STRT .F      457.0000        :START DEPTH        # original; data subset to 5500-8000
STOP .F      7701.0000       :STOP DEPTH        # original; data subset to 5500-8000
STEP .F       0.5000         :STEP       
NULL .          -999.25      :NULL VALUE
COMP .                 COMPANY:  Bear Oil & Gas, Inc.               
WELL .                    WELL:  Fornstrom 13-32A                   
FLD  .                   FIELD:  Wildcat                            
LOC  .                LOCATION:  SHL: NWSW 1925' FSL & 540" FWL     
CNTY .                  COUNTY:  Laramie                            
STAT .                   STATE:  Wyoming                            
CTRY .                 COUNTRY:  United States                      
SRVC .         SERVICE COMPANY:  Schlumberger                       
LATI .DEG             LATITUDE:  41.307320 degrees                  
LONG .DEG            LONGITUDE:  -104.11715 degrees                 
API  .              API NUMBER:  49-021-21022                       
DATE .                LOG DATE:  15-Aug-2013
UWI  .          UNIQUE WELL ID:  49021210220000                     
#-----------------------------------------------------------------------------
~PARAMETER INFORMATION
#MNEM.UNIT    VALUE                      DESCRIPTION
#---- -----   --------------------       ------------------------
CN   .        Bear Oil & Gas  Inc.       :Company Name
WN   .        Fornstrom 13-32A           :Well Name
FN   .        Wildcat                    :Field Name
FL   .        SHL  NWSW 1925' FSL & 540  FWL :Field Location
FL1  .        Sec. 32  T. 16N  R. 60W    :Field Location, Line 1
COUN .        Laramie                    :County or Parish
STAT .        Wyoming                    :State or Province
NATI .        United States              :Nation
DATE .        15-Aug-2013                :Tools Above Rotary Table Date
APIN .        49-021-21022               :API Well Number
SECT .        32                         :Section
TOWN .        16N                        :Township
RANG .        60W                        :Range
DMF  .        KB                         :Drilling Measured From (Name of Drilling Elevation Reference)
LMF  .        KB                         :Logging Measured From (Name of Logging Elevation Reference)
PDAT .        GL                         :Permanent Datum
ENGI .        Max Pace                   :Engineer s Name
WITN .        Tery Eittreim              :Witness s Name
LATI .        41.307320 degrees          :Latitude
LONG .        -104.11715 degrees         :Longitude
LUL  .        Fort Morgan  CO            :Logging Unit Location
LUN  .        3030                       :Logging Unit Number
RUN  .        Run 1                      :Run Number
SON  .        CA0R-00040                 :Service Order Number
BHT  .DEGF     168.00000                 :Bottom Hole Temperature
BS   .IN         7.87500                 :Bit Size
MDEN .G/C3       2.65000                 :Matrix Density for Density Porosity
DFD  .LB/G       8.80000                 :Drilling Fluid Density
DFV  .S         36.00000                 :Drilling Fluid Viscosity
DFL  .C3         5.00000                 :Drilling Fluid Loss
RMFS .OHMM       1.11000                 :Resistivity of Mud Filtrate Sample
EKB  .F       5298.00000                 :Elevation of Kelly Bushing
EGL  .F       5286.00000                 :Elevation of Ground Level
BLI  .F       7687.00000                 :Bottom Log Interval
BSAL .PPM     3295.90967                 :Borehole Salinity
FLEV .F          8.00000                 :Depth of Drilling Fluid Level to LMF (Log Measured From)
MCST .DEGF      84.00000                 :Mudcake Sample Temperature
MFST .DEGF      84.00000                 :Mud Filtrate Sample Temperature
MRT  .DEGF     168.00000                 :Maximum Recorded Temperature
MST  .DEGF      84.00000                 :Mud Sample Temperature
RMCS .OHMM       1.85000                 :Resistivity of Mud Cake Sample
RMS  .OHMM       1.48000                 :Resistivity of Mud Sample
RW   .OHMM       1.00000                 :Connate Water Resistivity
TDD  .F       7680.00000                 :Driller Total Depth
TDL  .F       7687.00000                 :Logger Total Depth
TLI  .F       1026.25000                 :Top Log Interval
HIDE .        Wildcat                    :Header Identifier
MATR .        SAND                       :Rock Matrix for Neutron Porosity Corrections
FNUM .           1.00000                 :F-Numerator for Formation Factor Formula
FEXP .           2.00000                 :Exponent "m" for Formation Factor Formula
DFT  .        Fresh Water                :Drilling Fluid Type
DFPH .           8.50000                 :Drilling Fluid pH
MCSS .        Calculated                 :Mudcake Sample Source
MFSS .        Calculated                 :Mud Filtrate Sample Source
FD   .G/C3       1.00000                 :Fluid Density
MSS  .        Active Tank                :Mud Sample Source
OS1  .                                   :Other Services Line 1
OS2  .                                   :Other Services Line 2
OS3  .                                   :Other Services Line 3
OS4  .                                   :Other Services Line 4
OS5  .                                   :Other Services Line 5
R1   .                                   :Remarks Line 1
R2   .                                   :Remarks Line 2
R3   .                                   :Remarks Line 3
R4   .                                   :Remarks Line 4
R5   .                                   :Remarks Line 5
R6   .                                   :Remarks Line 6
R7   .                                   :Remarks Line 7
R8   .                                   :Remarks Line 8
TCS  .        14 00 00                   :Time Circulation Stopped
TLAB .        22 20 59                   :Time Logger At Bottom
NMT  .        NOBARITE                   :HRDD Mud Type for Nuclear Devices
EPD  .F         5286.000000              :Elevation of Permanent Datum above Mean Sea Level
APD  .F          12.000000               :Elevation of Depth Reference (LMF) above Permanent Datum
#-----------------------------------------------------------------------------
~CURVE INFORMATION
#MNEM.UNIT   API CODE                                  DESCRIPTION
#---- -----  --------                                  -----------------------
DEPT .F                                                :DEPTH (BOREHOLE) {F12.4}
AT10 .OHMM                                             :Array Induction Two Foot Resistivity A10 {F11.4}
AT30 .OHMM                                             :Array Induction Two Foot Resistivity A30 {F11.4}
AT90 .OHMM                                             :Array Induction Two Foot Resistivity A90 {F11.4}
GR   .GAPI                                             :Gamma Ray {F11.4}
HCAL .IN                                               :HRCC Caliper Calibrated {F11.4}
HDRA .G/C3                                             :Density Standoff Correction {F11.4}
NPHI .CFCF                                             :Thermal Neutron Porosity (original Ratio Method) in Selected Lithology {F11.4}
PEFZ .                                                 :Standard Resolution Formation Photoelectric Factor {F11.4}
RHOZ .G/C3                                             :Standard Resolution Formation Density {F11.4}
SP   .MV                                               :Spontaneous Potential {F11.4}
TNPH .CFCF                                             :Thermal Neutron Porosity (Ratio Method) in Selected Lithology {F11.4}
#-----------------------------------------------------------------------------
# 
#      DEPT        AF10       AF20       AF30       AF60       AF90       AO10       AO20       AO30       AO60       AO90       AT10       AT20       AT30       AT60       AT90     AHFCO60      AHMF      AHORT      AHORX      AHSCA     AHTCO10    AHTCO20    AHTCO30    AHTCO60    AHTCO90     AHTD1      AHTD2      AHTRT      AHTRX       CDF        CFTC       CNTC       CTEM       DCAL       DNPH       DPHZ       DSOZ       ECGR        ED        GDEV        GR        GTEM       HCAL       HDRA       HDRB       HGR        HMIN       HMNO       HNPO       HPRA       HTNP        ND        NPHI       NPOR       PEFZ    PXND_HILT     RHOZ       RSOZ     RWA_HILT     RXO8       RXOZ        SP        SPAR       STIT       TENS       TNPH     HTNP_SAN
#
~A  DEPT AT10 AT30 AT90 GR HCAL HDRA NPHI PEFZ RHOZ SP TNPH
# ...
5633.5000 1.4809 1.4383 1.4133 101.1810 7.9686 0.0592 0.3960 3.1212 2.4312 51.1875 0.3872
5634.0000 1.4047 1.3608 1.3345 100.0506 8.0379 0.0572 0.3796 3.1098 2.4354 51.3958 0.3691
5634.5000 1.3801 1.3326 1.3047 108.5288 7.9917 0.0472 0.4057 3.1108 2.4438 51.6146 0.3557
5635.0000 1.3968 1.3495 1.3192 107.6807 7.9917 0.0384 0.4429 3.1285 2.4401 51.8229 0.3895
5635.5000 1.4328 1.3788 1.3451 104.8550 7.9223 0.0433 0.4541 3.1861 2.4462 51.6354 0.4068
5636.0000 1.4735 1.4208 1.3855 100.8985 7.9686 0.0491 0.4318 3.2756 2.4533 51.8333 0.4217
5636.5000 1.5572 1.4739 1.4324 108.5295 7.8992 0.0472 0.3993 3.4004 2.4649 51.6042 0.4045
5637.0000 1.6518 1.5715 1.5237 116.1601 7.8299 0.0532 0.4131 3.5134 2.4577 51.1458 0.3871
5637.5000 1.7161 1.6073 1.5656 116.7259 7.7605 0.0911 0.4374 3.5489 2.4790 50.8646 0.4007
5638.0000 1.6565 1.5600 1.5249 108.2473 7.8067 0.1106 0.4320 3.4015 2.4609 50.9271 0.4122
5638.5000 1.6015 1.5187 1.4881 106.2689 8.0379 0.1130 0.3939 3.2094 2.4550 51.6667 0.4040
5639.0000 1.5632 1.4785 1.4429 102.0291 7.9454 0.0833 0.3797 3.1067 2.4210 51.6979 0.3764
5639.5000 1.5043 1.4333 1.4143 98.3546 7.8299 0.0819 0.4142 3.2180 2.4465 51.2708 0.3605
5640.0000 1.4404 1.3828 1.3476 92.9847 7.8992 0.0875 0.3925 3.4558 2.4682 51.1146 0.3785
5640.5000 1.4702 1.3991 1.3637 95.2457 7.9686 0.0992 0.3898 3.6676 2.4733 51.0104 0.3576
5641.0000 1.5211 1.4331 1.3934 100.8984 7.8761 0.1145 0.3707 3.7476 2.4804 51.1979 0.3705
5641.5000 1.5521 1.4752 1.4278 105.4205 8.0148 0.1194 0.3999 3.6480 2.4805 51.3125 0.3609
5642.0000 1.5959 1.5150 1.4631 109.9430 8.2691 0.1123 0.3935 3.4742 2.4817 51.2396 0.3824
5642.5000 1.6476 1.5547 1.4997 113.3342 7.9917 0.0910 0.3853 3.2942 2.4675 51.5729 0.3778
5643.0000 1.6548 1.5748 1.5134 109.0948 8.0379 0.0703 0.4490 3.1733 2.4605 51.7917 0.3615
5643.5000 1.6637 1.5827 1.5265 111.3558 7.9917 0.0596 0.4774 3.1703 2.4779 51.9063 0.4086
5644.0000 1.6752 1.6162 1.5608 104.8552 8.0610 0.0615 0.4820 3.2770 2.4931 51.8438 0.4363
5644.5000 1.6595 1.6053 1.5539 111.6380 7.8761 0.0794 0.4132 3.4046 2.5068 51.6354 0.4515
5645.0000 1.5365 1.4943 1.4527 107.3987 7.9454 0.0888 0.3753 3.4033 2.4833 51.8021 0.4051
5645.5000 1.4474 1.4043 1.3721 107.9639 7.8992 0.0901 0.3844 3.3161 2.4525 51.4792 0.3708
5646.0000 1.3481 1.3132 1.2819 105.1383 8.0841 0.0806 0.4142 3.2208 2.4207 51.3333 0.3688
5646.5000 1.3054 1.2739 1.2432 100.3334 8.0379 0.0716 0.4498 3.1699 2.4084 51.6771 0.3983
5647.0000 1.3129 1.2725 1.2384 100.6159 8.0379 0.0655 0.4472 3.1499 2.4127 52.0000 0.4218
5647.5000 1.3276 1.2824 1.2448 99.4846 7.9686 0.0505 0.4170 3.1357 2.4033 52.2396 0.4100
5648.0000 1.3249 1.2783 1.2397 107.3988 7.9454 0.0466 0.4401 3.1771 2.4162 51.9688 0.3912
5648.5000 1.3254 1.2703 1.2315 113.3344 8.0379 0.0348 0.4771 3.2189 2.4231 51.6458 0.4108
5649.0000 1.3413 1.2809 1.2390 117.5743 7.9223 0.0383 0.5239 3.2619 2.4540 51.9063 0.4439
5649.5000 1.3441 1.2838 1.2421 115.3127 7.9454 0.0412 0.4663 3.2458 2.4521 51.7604 0.4761
5650.0000 1.3370 1.2864 1.2440 110.7907 8.0379 0.0539 0.4206 3.2056 2.4425 51.9375 0.4234
5650.5000 1.3620 1.3041 1.2599 112.2040 7.9454 0.0633 0.4371 3.1764 2.4213 51.9375 0.3987
5651.0000 1.4024 1.3360 1.2880 114.4649 7.8992 0.0623 0.4474 3.1549 2.4144 51.9896 0.4022
5651.5000 1.4321 1.3592 1.3100 115.8785 7.8992 0.0602 0.4572 3.1686 2.4146 52.5833 0.4101
5652.0000 1.4427 1.3667 1.3152 105.9861 7.8992 0.0518 0.3929 3.1861 2.4191 52.5938 0.4183
5652.5000 1.4200 1.3515 1.3023 98.9203 7.8761 0.0481 0.4026 3.2091 2.4198 52.7604 0.3787
5653.0000 1.4127 1.3349 1.2882 99.2019 7.8530 0.0459 0.3755 3.2170 2.4232 52.8542 0.3935
5653.5000 1.4055 1.3309 1.2830 104.2899 7.8530 0.0504 0.3951 3.2107 2.4300 52.5938 0.3605
5654.0000 1.4207 1.3440 1.2917 103.7245 7.8761 0.0569 0.3824 3.2235 2.4388 52.6354 0.3719
5654.5000 1.4145 1.3411 1.2898 104.8557 7.8299 0.0541 0.4086 3.2302 2.4353 52.2396 0.3642
5655.0000 1.4231 1.3402 1.2888 100.8987 7.8761 0.0469 0.3897 3.2273 2.4337 52.4688 0.3843
5655.5000 1.4210 1.3382 1.2876 109.3782 7.8299 0.0434 0.4100 3.2081 2.4391 53.1146 0.3603
5656.0000 1.4217 1.3484 1.2980 106.8344 7.8761 0.0410 0.4217 3.1545 2.4420 53.0208 0.3902
5656.5000 1.4368 1.3563 1.3179 107.3993 7.8299 0.0481 0.4309 3.0921 2.4362 53.0104 0.4052
5657.0000 1.4310 1.3498 1.3012 102.0291 7.7374 0.0484 0.4320 3.0128 2.4234 52.7768 0.3935
5657.5000 1.5060 1.4099 1.3642 107.3985 7.5987 0.0433 0.3922 2.9610 2.4376 52.4625 0.3801
5658.0000 1.7287 1.5934 1.5403 110.5077 7.7836 0.0350 0.3537 2.9497 2.4676 52.7500 0.3382
5658.5000 2.0216 1.8705 1.7975 113.3340 7.8299 0.0249 0.3183 2.9664 2.4979 52.3229 0.3165
5659.0000 2.1625 1.9648 1.8822 113.3346 7.8530 0.0189 0.3169 2.9595 2.4976 52.4271 0.3058
5659.5000 2.0597 1.9211 1.8602 120.9653 7.8761 0.0106 0.3333 2.9411 2.4772 52.8333 0.3115
5660.0000 2.0198 1.8765 1.8231 122.3786 7.7374 0.0217 0.3489 2.9777 2.4591 52.7813 0.3286
5660.5000 2.0720 1.9307 1.8826 119.5521 7.6911 0.0422 0.3314 3.0678 2.4607 52.8229 0.3296
5661.0000 2.1135 1.9841 1.9390 117.0083 7.6449 0.0609 0.3269 3.1421 2.4788 52.7813 0.3086
5661.5000 2.0992 1.9750 1.9379 115.0298 7.6911 0.0619 0.3174 3.1316 2.4899 52.9583 0.3156
5662.0000 2.0909 1.9737 1.9408 113.8993 7.7374 0.0585 0.3295 3.0979 2.4969 53.0729 0.3222
5662.5000 2.1170 2.0136 1.9801 111.3558 7.7605 0.0528 0.3299 3.0625 2.4924 52.6146 0.3216
5663.0000 2.1288 2.0213 1.9846 115.5950 7.7374 0.0529 0.3441 3.0630 2.4894 52.4375 0.3133
5663.5000 2.0829 1.9986 1.9632 116.1603 7.7374 0.0499 0.3500 3.0596 2.4786 52.5833 0.3364
5664.0000 2.0551 1.9621 1.9280 109.3770 7.7374 0.0516 0.3788 3.0660 2.4775 52.9479 0.3431
5664.5000 2.0465 1.9502 1.9156 101.7462 7.7605 0.0478 0.3694 3.0547 2.4761 53.4167 0.3587
5665.0000 2.1065 2.0065 1.9603 104.8549 7.7605 0.0494 0.3579 3.0524 2.4833 52.8333 0.3466
5665.5000 2.1810 2.0780 2.0367 108.8121 7.8067 0.0498 0.3163 3.0515 2.4913 52.6563 0.3441
5666.0000 2.1489 2.0447 2.0000 117.2915 7.7605 0.0496 0.3084 3.0490 2.4908 52.6042 0.3152
5666.5000 2.0713 1.9679 1.9277 118.1388 7.8992 0.0506 0.3418 3.0477 2.4892 52.1771 0.3076
5667.0000 1.9950 1.9110 1.8669 124.3571 7.8067 0.0520 0.3680 3.0469 2.4825 52.5521 0.3330
5667.5000 1.9190 1.8358 1.7976 117.0078 7.8299 0.0590 0.3936 3.0745 2.4849 52.9792 0.3504
5668.0000 1.8724 1.7913 1.7472 110.2259 7.8067 0.0585 0.3703 3.1073 2.4862 53.2604 0.3715
5668.5000 1.8557 1.7810 1.7302 100.8988 7.7836 0.0542 0.3737 3.1194 2.4862 53.9063 0.3538
5669.0000 1.9363 1.8151 1.7613 104.2909 7.7374 0.0479 0.3515 3.0991 2.4824 53.6563 0.3508
5669.5000 1.9645 1.8645 1.7930 108.2464 7.7721 0.0475 0.3300 3.0627 2.4860 53.5938 0.3307
5670.0000 2.0137 1.9149 1.8441 118.4218 7.7605 0.0495 0.3306 3.0289 2.4779 53.4688 0.3217
5670.5000 1.9963 1.8953 1.8361 119.8344 7.7605 0.0497 0.3303 2.9839 2.4775 53.3229 0.3258
5671.0000 1.9909 1.8663 1.8128 125.7703 7.7374 0.0469 0.3193 2.9287 2.4762 53.5833 0.3235
5671.5000 1.9752 1.8490 1.7949 127.4653 7.8067 0.0451 0.3090 2.8709 2.4884 53.3125 0.3137
5672.0000 1.9207 1.8453 1.7981 133.6838 7.7836 0.0475 0.3577 2.8131 2.4911 53.6875 0.3069
5672.5000 1.8213 1.7107 1.6702 137.9234 7.7605 0.0415 0.3901 2.7477 2.4795 54.1667 0.3402
5673.0000 1.8051 1.7164 1.6727 134.8139 7.7605 0.0270 0.3848 2.6909 2.4601 54.0313 0.3629
5673.5000 2.0316 1.9032 1.8263 127.7486 7.7258 0.0201 0.3328 2.7354 2.4690 53.6979 0.3491
5674.0000 2.2448 2.0899 2.0083 121.2477 7.6911 0.0298 0.3319 2.8521 2.4851 52.9688 0.3220
5674.5000 2.2388 2.1092 2.0293 115.3131 7.7374 0.0466 0.3367 2.9974 2.5142 52.8125 0.3220
5675.0000 2.2502 2.1070 2.0226 107.3987 7.7143 0.0460 0.3429 3.0802 2.5186 52.9688 0.3208
5675.5000 2.3223 2.1680 2.0975 98.6381 7.7374 0.0297 0.3306 3.1182 2.5088 52.8646 0.3261
5676.0000 2.4063 2.2512 2.1649 98.9206 7.7143 0.0232 0.3155 3.1757 2.5095 53.0000 0.3132
5676.5000 2.5005 2.3510 2.2688 103.1597 7.7143 0.0190 0.2832 3.2442 2.5116 52.9167 0.2959
5677.0000 2.6278 2.4548 2.3665 98.6373 7.6449 0.0219 0.2614 3.3140 2.5353 53.0833 0.2686
5677.5000 2.5386 2.4406 2.3584 97.5072 7.6911 0.0152 0.2621 3.3021 2.5320 53.3333 0.2576
