~VERSION INFORMATION
VERS.           1.2   :CWLS Log ASCII Standard - VERSION 1.2
WRAP.           NO    :One Line per depth step
PROD.  Schlumberger   :LAS Producer
PROG.  DLIS to ASCII 17C0-152                          :LAS Program name and version
CREA.        2013/11/03 06:14                          :LAS Creation date {YYYY/MM/DD hh:mm}
DLIS_CREA.  2013-Nov-02 20:25                          :DLIS Creation date and time {YYYY-MMM-DD hh:mm}
SOURCE.     36f617ea-a8f9-4f31-9cfe-b4906ac6e0fc       :DLIS File Name
#--------------------------------------------------
~WELL INFORMATION
#MNEM.UNIT      DATA             DESCRIPTION
#---- ------ --------------   -----------------------------
STRT .F      1000.5000       :START DEPTH        # original; data subset to 5500-8000
STOP .F      7745.0000       :STOP DEPTH        # original; data subset to 5500-8000
STEP .F       0.5000         :STEP       
NULL .          -999.25      :NULL VALUE
COMP .                 COMPANY:  Bear Oil & Gas, Inc.               
WELL .                    WELL:  Marquardt 34-31                    
FLD  .                   FIELD:  Wildcat                            
LOC  .                LOCATION:  SWSE, Sec. 31, T16N, R60W          
CNTY .                  COUNTY:  Laramie                            
STAT .                   STATE:  Wyoming                            
CTRY .                 COUNTRY:                                     
SRVC .         SERVICE COMPANY:  Schlumberger                       
LATI .DEG             LATITUDE:  41.305550 degrees                  
LONG .DEG            LONGITUDE:  -104.12401 degrees                 
API  .              API NUMBER:  49-021-21046-0000                  
DATE .                LOG DATE:  02-Nov-2013
UWI  .          UNIQUE WELL ID:                                     
#-----------------------------------------------------------------------------
~PARAMETER INFORMATION
#MNEM.UNIT    VALUE                      DESCRIPTION
#---- -----   --------------------       ------------------------
CN   .        Bear Oil & Gas  Inc.       :Company Name
WN   .        Marquardt 34-31            :Well Name
FN   .        Wildcat                    :Field Name
FL   .        SWSE  Sec. 31  T16N  R60W  :Field Location
FL1  .        SHL  1265' FSL X 1340' FEL :Field Location, Line 1
COUN .        Laramie                    :County or Parish
STAT .        Wyoming                    :State or Province
NATI .                                   :Nation
DATE .        02-Nov-2013                :Tools Above Rotary Table Date
APIN .        49-021-21046-0000          :API Well Number
SECT .        31                         :Section
TOWN .        16N                        :Township
RANG .        60W                        :Range
DMF  .        KB                         :Drilling Measured From (Name of Drilling Elevation Reference)
LMF  .        KB                         :Logging Measured From (Name of Logging Elevation Reference)
PDAT .        GL                         :Permanent Datum
ENGI .        Heather Hoffman            :Engineer s Name
WITN .        Terry Eittreim             :Witness s Name
LATI .        41.305550 degrees          :Latitude
LONG .        -104.12401 degrees         :Longitude
LUL  .        Fort Morgan  CO            :Logging Unit Location
LUN  .        2135                       :Logging Unit Number
RUN  .        PEX BHC AIT                :Run Number
SON  .        CQQL-00004                 :Service Order Number
BHT  .DEGF     185.00000                 :Bottom Hole Temperature
BS   .IN         7.87500                 :Bit Size
MDEN .G/C3       2.65000                 :Matrix Density for Density Porosity
DFD  .LB/G       9.10000                 :Drilling Fluid Density
DFV  .S         82.00000                 :Drilling Fluid Viscosity
DFL  .C3      -999.25000                 :Drilling Fluid Loss
RMFS .OHMM       1.18400                 :Resistivity of Mud Filtrate Sample
EKB  .F       10594.00000                :Elevation of Kelly Bushing
EGL  .F       5291.00000                 :Elevation of Ground Level
BLI  .F       7724.00000                 :Bottom Log Interval
BSAL .PPM        0.00000                 :Borehole Salinity
FLEV .F         50.00000                 :Depth of Drilling Fluid Level to LMF (Log Measured From)
MCST .DEGF      85.00000                 :Mudcake Sample Temperature
MFST .DEGF      85.00000                 :Mud Filtrate Sample Temperature
MRT  .DEGF     185.00000                 :Maximum Recorded Temperature
MST  .DEGF      85.00000                 :Mud Sample Temperature
RMCS .OHMM       1.77600                 :Resistivity of Mud Cake Sample
RMS  .OHMM       1.48000                 :Resistivity of Mud Sample
RW   .OHMM       1.00000                 :Connate Water Resistivity
TDD  .F       7719.99951                 :Driller Total Depth
TDL  .F       7724.00000                 :Logger Total Depth
TLI  .F       1024.00000                 :Top Log Interval
HIDE .        Wildcat                    :Header Identifier
MATR .        SAND                       :Rock Matrix for Neutron Porosity Corrections
FNUM .           1.00000                 :F-Numerator for Formation Factor Formula
FEXP .           2.00000                 :Exponent "m" for Formation Factor Formula
DFT  .        WATER                      :Drilling Fluid Type
DFPH .        -999.25000                 :Drilling Fluid pH
MCSS .        Calculated                 :Mudcake Sample Source
MFSS .        Calculated                 :Mud Filtrate Sample Source
FD   .G/C3       1.00000                 :Fluid Density
MSS  .        Active Tank                :Mud Sample Source
OS1  .                                   :Other Services Line 1
OS2  .                                   :Other Services Line 2
OS3  .                                   :Other Services Line 3
OS4  .                                   :Other Services Line 4
OS5  .                                   :Other Services Line 5
R1   .                                   :Remarks Line 1
R2   .                                   :Remarks Line 2
R3   .                                   :Remarks Line 3
R4   .                                   :Remarks Line 4
R5   .                                   :Remarks Line 5
R6   .                                   :Remarks Line 6
R7   .                                   :Remarks Line 7
R8   .        This is first run in hole. :Remarks Line 8
TCS  .        09 55 00                   :Time Circulation Stopped
TLAB .        20 18 33                   :Time Logger At Bottom
NMT  .        NOBARITE                   :HRDD Mud Type for Nuclear Devices
EPD  .C3         5291.000000             :Elevation of Permanent Datum above Mean Sea Level
APD  .F         5303.000000              :Elevation of Depth Reference (LMF) above Permanent Datum
#-----------------------------------------------------------------------------
~CURVE INFORMATION
#MNEM.UNIT   API CODE                                  DESCRIPTION
#---- -----  --------                                  -----------------------
DEPT .F                                                :DEPTH (BOREHOLE) {F12.4}
AT10 .OHMM                                             :Array Induction Two Foot Resistivity A10 {F11.4}
AT30 .OHMM                                             :Array Induction Two Foot Resistivity A30 {F11.4}
AT90 .OHMM                                             :Array Induction Two Foot Resistivity A90 {F11.4}
DT   .US/F                                             :Delta-T (also called Slowness or Interval Transit Time) {F11.4}
GR   .GAPI                                             :Gamma Ray {F11.4}
HCAL .IN                                               :HRCC Caliper Calibrated {F11.4}
HDRA .G/C3                                             :Density Standoff Correction {F11.4}
NPHI .CFCF                                             :Thermal Neutron Porosity (original Ratio Method) in Selected Lithology {F11.4}
PEFZ .                                                 :Standard Resolution Formation Photoelectric Factor {F11.4}
RHOZ .G/C3                                             :Standard Resolution Formation Density {F11.4}
SP   .MV                                               :Spontaneous Potential {F11.4}
TNPH .CFCF                                             :Thermal Neutron Porosity (Ratio Method) in Selected Lithology {F11.4}
#-----------------------------------------------------------------------------
# 
#      DEPT        AF10       AF20       AF30       AF60       AF90       AO10       AO20       AO30       AO60       AO90       AT10       AT20       AT30       AT60       AT90     AHFCO60      AHMF      AHORT      AHORX      AHSCA     AHTCO10    AHTCO20    AHTCO30    AHTCO60    AHTCO90     AHTD1      AHTD2      AHTRT      AHTRX       CDF        CFTC       CNTC       CTEM       DCAL       DNPH       DPHZ       DSOZ        DT        ECGR        ED        GDEV        GR        GTEM       HCAL       HDRA       HDRB       HGR        HMIN       HMNO       HNPO       HPRA       HTNP       ITT         ND        NPHI       NPOR       PEFZ    PXND_HILT     RHOZ       RSOZ     RWA_HILT     RXO8       RXOZ        SP        SPAR       SPHI       STIT       TENS       TNPH     HTNP_SAN
#
~A  DEPT AT10 AT30 AT90 DT GR HCAL HDRA NPHI PEFZ RHOZ SP TNPH
# ...
7540.5000 15.4829 18.4883 18.7269 65.7183 38.1736 7.5804 0.0096 0.1157 1.9955 2.5045 -207.0859 0.1137
7541.0000 12.4282 13.0944 14.9620 68.7216 44.9913 7.6249 0.0200 0.1406 2.0601 2.5299 -205.7266 0.1250
7541.5000 12.7273 12.5805 12.6122 70.4586 53.5135 7.6249 0.0238 0.1506 2.1291 2.5510 -205.0714 0.1477
7542.0000 15.5245 14.3971 14.1069 69.4680 55.7760 7.6695 0.0135 0.1459 2.2185 2.5652 -205.3750 0.1477
7542.5000 17.2657 17.0786 16.3884 69.6301 62.3586 7.6695 0.0001 0.1488 2.3578 2.5610 -206.3438 0.1363
7543.0000 22.6107 22.8586 23.0570 66.4339 62.1526 7.6472 0.0045 0.1482 2.4799 2.5688 -209.0268 0.1419
7543.5000 39.5399 40.8250 34.9894 65.2697 54.1596 7.5358 0.0080 0.1367 2.4492 2.5426 -212.5313 0.1303
7544.0000 68.7041 91.1096 63.0529 63.3137 44.2561 7.6138 0.0097 0.1054 2.3214 2.5141 -214.8125 0.1026
7544.5000 111.6016 134.4451 86.3685 59.8527 45.1086 7.5804 0.0036 0.0886 2.2807 2.4993 -216.4766 0.0863
7545.0000 122.5552 132.6230 94.6416 58.3631 48.3706 7.5692 0.0011 0.0818 2.3701 2.5299 -217.9196 0.0772
7545.5000 113.0852 148.0910 77.4673 58.3926 43.9332 7.6026 -0.0008 0.0775 2.4767 2.5583 -219.6094 0.0720
7546.0000 95.9889 141.4367 61.5114 60.5954 34.6470 7.6249 -0.0010 0.0794 2.4425 2.5583 -221.3661 0.0742
7546.5000 83.1819 115.3922 48.7404 61.5823 31.6201 7.6026 -0.0001 0.0939 2.2885 2.5256 -222.7578 0.0803
7547.0000 61.2858 86.1266 38.7176 63.2828 31.5317 7.5804 -0.0035 0.0965 2.0955 2.4936 -224.0156 0.0911
7547.5000 51.4501 71.3518 33.6669 63.6910 33.2948 7.5581 0.0042 0.1029 1.9898 2.4837 -224.7946 0.0951
7548.0000 45.0013 62.1178 30.3805 63.6958 32.8245 7.5804 0.0045 0.0986 1.9895 2.4795 -225.0469 0.1036
7548.5000 40.9886 56.3578 29.1088 63.3757 30.3270 7.5804 0.0094 0.1007 2.1671 2.5136 -225.3482 0.1053
7549.0000 35.0341 51.8717 27.4542 63.6049 29.1809 7.5804 0.0006 0.1172 2.5640 2.5533 -225.6250 0.1110
7549.5000 30.4618 45.5857 26.5677 63.6979 26.8302 7.5692 0.0109 0.1402 2.9394 2.6100 -224.7411 0.1235
7550.0000 27.9707 43.4100 26.9122 63.9410 28.4759 7.5358 0.0218 0.1527 2.9784 2.6048 -223.2411 0.1342
7550.5000 27.9806 46.4310 26.9229 64.8423 31.5614 7.5358 0.0230 0.1370 2.6155 2.5640 -221.5625 0.1345
7551.0000 30.6543 51.2487 35.6729 65.1213 35.0876 7.5804 0.0100 0.1224 2.2061 2.5175 -219.4219 0.1187
7551.5000 39.1936 40.5334 32.3605 64.4166 38.2026 7.5581 0.0056 0.1202 2.0082 2.4994 -216.8750 0.1109
7552.0000 30.9940 27.8029 23.8012 64.2917 34.1474 7.5469 0.0074 0.1220 1.9779 2.5013 -213.2266 0.1127
7552.5000 17.2902 14.8907 13.3476 64.5284 38.5261 7.5581 0.0080 0.1168 2.0677 2.4986 -208.5179 0.1226
7553.0000 8.9016 8.2358 7.7144 67.5062 51.6324 7.6026 0.0104 0.1453 2.2782 2.5135 -203.2188 0.1468
7553.5000 4.6613 4.8193 4.5681 73.6070 84.2810 7.6918 0.0307 0.2114 2.5907 2.5517 -199.6339 0.2034
7554.0000 3.2316 3.5051 3.3003 81.5181 126.4507 7.7587 0.0526 0.2878 2.8400 2.5797 -198.1563 0.2791
7554.5000 2.9760 3.1280 2.9233 87.3835 143.3781 7.8032 0.0671 0.3226 2.9606 2.5950 -197.4821 0.3185
7555.0000 3.1537 3.0856 2.8526 85.5089 148.5791 7.6918 0.0646 0.3198 2.9802 2.6012 -196.9766 0.3063
7555.5000 3.2823 3.0442 2.7439 84.5405 138.7057 7.7587 0.0657 0.3039 3.0393 2.6302 -196.6696 0.2996
7556.0000 3.1972 2.9277 2.5966 83.0816 140.8209 7.7364 0.0631 0.3128 3.1076 2.6536 -196.7266 0.2999
7556.5000 3.0560 2.7076 2.4222 83.8524 138.9110 7.7141 0.0695 0.3179 3.1121 2.6592 -196.8661 0.3154
7557.0000 2.8216 2.6508 2.3626 84.8125 135.6195 7.7364 0.0685 0.3326 2.9945 2.6119 -197.2031 0.3108
7557.5000 2.9144 2.8464 2.5216 85.4724 129.1834 7.7364 0.0757 0.3209 2.8257 2.5801 -197.5446 0.3186
7558.0000 3.3727 3.2477 2.8556 82.4005 126.8622 7.6918 0.0931 0.3228 2.6999 2.5610 -198.1563 0.2976
7558.5000 3.9424 3.9402 3.3894 81.9597 115.3424 7.7141 0.1147 0.3066 2.6226 2.5484 -199.2679 0.2853
7559.0000 4.8373 4.7457 4.0825 80.6526 109.1716 7.6472 0.1317 0.2996 2.5795 2.5450 -200.9609 0.2703
7559.5000 5.8366 5.3502 4.6012 75.7867 107.7606 7.6695 0.1123 0.2844 2.5501 2.5253 -203.4018 0.2565
7560.0000 9.0840 8.5352 6.8761 74.8692 103.0296 7.6918 0.0809 0.2365 2.5139 2.5460 -208.6016 0.2356
7560.5000 20.8491 16.1606 14.2750 72.5695 89.7762 7.6695 0.0380 0.1832 2.4225 2.5399 -213.3571 0.1730
7561.0000 17.7312 16.7606 16.5438 68.5533 66.5608 7.6918 0.0153 0.1349 2.2661 2.5400 -215.6875 0.1415
7561.5000 15.5268 17.0383 18.8204 68.3920 58.8323 7.6695 0.0022 0.1374 2.1387 2.5241 -216.7679 0.1291
7562.0000 14.4450 16.9521 19.8682 69.1563 62.2117 7.6806 -0.0002 0.1416 2.0473 2.5215 -217.6094 0.1378
7562.5000 13.7097 16.1563 18.2440 69.5304 67.0902 7.6918 -0.0020 0.1475 2.0356 2.5156 -218.6339 0.1382
7563.0000 14.5538 18.9491 21.2716 68.7240 70.9102 7.7141 -0.0014 0.1485 2.0253 2.5077 -219.5859 0.1404
7563.5000 19.3432 26.8535 28.0001 67.8716 67.5308 7.6026 0.0002 0.1480 2.0305 2.4815 -221.1339 0.1380
7564.0000 32.2825 55.9031 43.2155 66.7825 57.5098 7.5135 0.0045 0.1360 2.0164 2.4434 -224.2734 0.1330
7564.5000 53.6235 81.4228 68.9937 65.7243 38.4085 7.4689 0.0166 0.1260 1.9793 2.4083 -227.4107 0.1215
7565.0000 70.6675 74.5575 61.6551 65.5497 25.7428 7.4689 0.0326 0.1222 1.9428 2.3966 -229.9766 0.1128
7565.5000 71.6320 92.2682 55.5619 65.3619 21.4230 7.4243 0.0499 0.1215 1.9114 2.4114 -231.9464 0.1113
7566.0000 73.7064 118.5755 79.3418 65.3067 21.8049 7.4021 0.0621 0.1192 1.8925 2.4212 -233.8047 0.1095
7566.5000 77.3651 163.0079 125.5536 65.1290 21.3054 7.3798 0.0676 0.1111 1.8651 2.4120 -235.5357 0.1090
7567.0000 85.2555 241.2797 193.3042 65.2988 19.6597 7.4021 0.0619 0.1046 1.8279 2.3917 -236.8672 0.1066
7567.5000 90.5132 276.9408 275.7299 65.3955 20.4530 7.3575 0.0463 0.0990 1.7954 2.3818 -237.9643 0.1022
7568.0000 90.2112 246.5903 313.7838 65.7551 23.5092 7.4021 0.0340 0.0994 1.7989 2.3770 -238.9297 0.0978
7568.5000 92.3956 179.8573 317.4593 65.9612 24.3320 7.4466 0.0210 0.1026 1.8352 2.3672 -239.8214 0.0984
7569.0000 94.1562 178.7231 267.3723 66.0774 24.3323 7.4466 0.0152 0.1052 1.9172 2.3759 -240.8203 0.0999
7569.5000 92.3711 165.3340 240.6499 65.9267 22.3928 7.4689 0.0030 0.1198 2.0530 2.4000 -241.9732 0.1040
7570.0000 93.5925 157.8924 223.1597 64.7532 22.7453 7.4466 0.0069 0.1323 2.2519 2.4485 -243.1797 0.1170
7570.5000 92.7756 162.2597 218.4690 63.5217 24.2146 7.4243 0.0074 0.1358 2.3896 2.4680 -244.2054 0.1243
7571.0000 95.0721 146.1997 193.6618 63.6003 23.0979 7.4689 0.0268 0.1207 2.3695 2.4889 -244.5859 0.1205
7571.5000 91.6959 134.1687 171.0632 63.6570 24.1853 7.4466 0.0330 0.1110 2.1702 2.4729 -245.2232 0.1044
7572.0000 90.4530 125.2638 155.8078 64.6097 21.5405 7.4466 0.0318 0.1059 1.9405 2.4430 -246.3828 0.0994
7572.5000 84.7052 108.9813 126.6524 65.1484 22.0400 7.4466 0.0170 0.1089 1.7946 2.4010 -246.9911 0.0998
7573.0000 86.4310 109.5548 129.4621 64.7688 23.5386 7.4466 0.0093 0.1167 1.7515 2.3824 -246.9453 0.1062
7573.5000 85.5744 105.5043 122.8795 65.3069 27.0650 7.4021 0.0206 0.1247 1.7675 2.3845 -246.6429 0.1151
7574.0000 83.2144 102.6962 120.8796 66.5605 31.3849 7.4021 0.0302 0.1305 1.7917 2.3634 -246.5469 0.1217
7574.5000 83.0734 92.6605 113.2766 66.2056 31.8551 7.3129 0.0498 0.1307 1.8177 2.3472 -246.2054 0.1219
7575.0000 81.7586 84.7677 98.6015 66.5692 30.3564 7.0232 0.0747 0.1254 1.8353 2.3598 -245.8125 0.1182
7575.5000 81.5245 83.9757 98.8947 65.9598 31.6494 7.0232 0.0986 0.1202 1.8532 2.3984 -245.3482 0.1140
7576.0000 77.8865 82.5387 97.1883 65.0102 30.7091 7.1457 0.1013 0.1147 1.8589 2.4252 -244.9141 0.1117
7576.5000 79.3194 81.3402 94.2276 65.4840 31.7377 7.2460 0.0895 0.1169 1.8563 2.4408 -244.2500 0.1124
7577.0000 80.0386 77.4117 88.4932 66.3303 29.6218 7.3686 0.0623 0.1233 1.8325 2.4353 -243.7188 0.1144
7577.5000 78.5539 70.6091 80.3964 66.1126 35.2638 7.2906 0.0380 0.1246 1.8060 2.4304 -243.4643 0.1183
7578.0000 76.7895 66.7457 74.6415 66.0328 36.7039 7.4355 0.0181 0.1261 1.7847 2.4185 -243.5078 0.1160
7578.5000 74.6267 64.0048 64.7052 65.2497 35.7635 7.4243 0.0163 0.1203 1.7824 2.4197 -243.6161 0.1134
7579.0000 73.1690 59.0588 59.4611 64.9526 30.7385 7.4021 0.0260 0.1198 1.7865 2.4349 -244.1607 0.1110
7579.5000 70.1249 55.5111 53.6379 64.7281 29.2986 7.3798 0.0368 0.1230 1.8027 2.4426 -244.6250 0.1103
