~VERSION INFORMATION
VERS.           2.0   :CWLS Log ASCII Standard - VERSION 2.0
WRAP.           NO    :One Line per depth step
PROD.  Schlumberger   :LAS Producer
PROG.  DLIS to ASCII 19C2-270                          :LAS Program name and version
CREA.        2013/09/21 19:52                          :LAS Creation date {YYYY/MM/DD hh:mm}
DLIS_CREA.  2013-Sep-21 19:47                          :DLIS Creation date and time {YYYY-MMM-DD hh:mm}
SOURCE.     49-021-21035_McGahan Farms 42-31_Run_PEX_Mainpass.dlis  :DLIS File Name
FILE-ID.     MaxWell_3Dlis                             :File Identification Number
#--------------------------------------------------
~WELL INFORMATION
#MNEM.UNIT      DATA             DESCRIPTION
#---- ------ --------------   -----------------------------
STRT .F      1000.5          :START DEPTH        # original; data subset to 5500-8000
STOP .F      7716.5          :STOP DEPTH        # original; data subset to 5500-8000
STEP .F       0.5            :STEP     
NULL .          -999.25      :NULL VALUE
COMP .        Bear Oil & Gas, Inc                      :COMPANY
WELL .        McGahan Farms 42-31                      :WELL
FLD  .        Wildcat                                  :FIELD
LOC  .        Lat/Long: 41.3098/-104.1197              :LOCATION
CNTY .        Laramie                                  :COUNTY
STAT .        Wyoming                                  :STATE
CTRY .        USA                                      :COUNTRY
API  .        49-021-21035                             :API NUMBER
UWI  .        49021210350000                           :UNIQUE WELL ID
DATE .        21-Sep-2013                              :LOG DATE {DD-MMM-YYYY}
SRVC .        Schlumberger                             :SERVICE COMPANY
LATI .DEG     41.309800 degrees                        :LATITUDE
LONG .DEG     -104.11970 degrees                       :LONGITUDE
GDAT .                                                 :GeoDetic Datum
SECT .        31                                       :Section
RANG .        60W                                      :Range
TOWN .        16N                                      :Township
#-----------------------------------------------------------------------------
~PARAMETER INFORMATION
#MNEM.UNIT    VALUE                      DESCRIPTION
#---- -----   --------------------       ------------------------
CN   .        Bear Oil & Gas  Inc        :Company Name
WN   .        McGahan Farms 42-31        :Well Name
FN   .        Wildcat                    :Field Name
FL   .        Lat/Long  41.3098/-104.1197 :Field Location
FL1  .        SHL   2375' FNL X 190' FEL SENE :Field Location, Line 1
COUN .        Laramie                    :County or Parish
STAT .        Wyoming                    :State or Province
NATI .        USA                        :Nation
DATE .        21-Sep-2013                :Tools Above Rotary Table Date
APIN .        49-021-21035               :API Well Number
SECT .        31                         :Section
TOWN .        16N                        :Township
RANG .        60W                        :Range
DMF  .        KB                         :Drilling Measured From (Name of Drilling Elevation Reference)
LMF  .        KB                         :Logging Measured From (Name of Logging Elevation Reference)
PDAT .        GL                         :Permanent Datum
ENGI .        Arvin Shi                  :Engineer s Name
WITN .        Terry Eittreim             :Witness s Name
LATI .        41.309800 degrees          :Latitude
LONG .        -104.11970 degrees         :Longitude
LUL  .        Fort Morgan                :Logging Unit Location
LUN  .        3022                       :Logging Unit Number
RUN  .        Run 1                      :Run Number
SON  .        C6VJ-00079                 :Service Order Number
BHT  .DEGF     175.00000                 :Bottom Hole Temperature
BS   .IN         7.87500                 :Bit Size
MDEN .G/C3       2.65000                 :Matrix Density for Density Porosity
DFD  .LB/G       9.20000                 :Drilling Fluid Density
DFV  .S         80.00000                 :Drilling Fluid Viscosity
DFL  .C3      -999.25000                 :Drilling Fluid Loss
RMFS .OHMM       0.96000                 :Resistivity of Mud Filtrate Sample
EKB  .F       5307.00000                 :Elevation of Kelly Bushing
EGL  .F       5295.00000                 :Elevation of Ground Level
BLI  .F       7700.00000                 :Bottom Log Interval
BSAL .PPM     3275.14868                 :Borehole Salinity
FLEV .F          8.00000                 :Depth of Drilling Fluid Level to LMF (Log Measured From)
MCST .DEGF      98.00000                 :Mudcake Sample Temperature
MFST .DEGF      98.00000                 :Mud Filtrate Sample Temperature
MRT  .DEGF     175.00000                 :Maximum Recorded Temperature
MST  .DEGF      98.00000                 :Mud Sample Temperature
RMCS .OHMM       1.60000                 :Resistivity of Mud Cake Sample
RMS  .OHMM       1.28000                 :Resistivity of Mud Sample
RW   .OHMM       1.00000                 :Connate Water Resistivity
TDD  .F       7697.00000                 :Driller Total Depth
TDL  .F       7700.00000                 :Logger Total Depth
TLI  .F       1018.00000                 :Top Log Interval
HIDE .        Wildcat                    :Header Identifier
MATR .        SAND                       :Rock Matrix for Neutron Porosity Corrections
FNUM .           1.00000                 :F-Numerator for Formation Factor Formula
FEXP .           2.00000                 :Exponent "m" for Formation Factor Formula
DFT  .        Chemical Gel               :Drilling Fluid Type
DFPH .        -999.25000                 :Drilling Fluid pH
MCSS .        Calculated                 :Mudcake Sample Source
MFSS .        Calculated                 :Mud Filtrate Sample Source
FD   .G/C3       1.00000                 :Fluid Density
MSS  .        Flowline                   :Mud Sample Source
OS1  .                                   :Other Services Line 1
OS2  .                                   :Other Services Line 2
OS3  .                                   :Other Services Line 3
OS4  .                                   :Other Services Line 4
OS5  .                                   :Other Services Line 5
R1   .                                   :Remarks Line 1
R2   .                                   :Remarks Line 2
R3   .                                   :Remarks Line 3
R4   .                                   :Remarks Line 4
R5   .                                   :Remarks Line 5
R6   .                                   :Remarks Line 6
R7   .                                   :Remarks Line 7
R8   .                                   :Remarks Line 8
TCS  .        11 00 00                   :Time Circulation Stopped
TLAB .        17 20 49                   :Time Logger At Bottom
NMT  .        NOBARITE                   :HRDD Mud Type for Nuclear Devices
EPD  .C3         5295.000000             :Elevation of Permanent Datum above Mean Sea Level
APD  .F          12.000000               :Elevation of Depth Reference (LMF) above Permanent Datum
#-----------------------------------------------------------------------------
~CURVE INFORMATION
#MNEM.UNIT   API CODE                                  DESCRIPTION
#---- -----  --------                                  -----------------------
DEPT .F                                                :DEPTH (BOREHOLE) {F10.1}
AT10 .OHMM                                             :Array Induction Two Foot Resistivity A10 {F11.4}
AT30 .OHMM                                             :Array Induction Two Foot Resistivity A30 {F11.4}
AT90 .OHMM                                             :Array Induction Two Foot Resistivity A90 {F11.4}
GR   .GAPI                                             :Gamma Ray {F11.4}
HCAL .IN                                               :HRCC Caliper Calibrated {F11.4}
HDRA .G/C3                                             :Density Standoff Correction {F11.4}
NPHI .CFCF                                             :Thermal Neutron Porosity (original Ratio Method) in Selected Lithology {F11.4}
PEFZ .                                                 :Standard Resolution Formation Photoelectric Factor {F11.4}
RHOZ .G/C3                                             :Standard Resolution Formation Density {F11.4}
SP   .MV                                               :Spontaneous Potential {F11.4}
TNPH .CFCF                                             :Thermal Neutron Porosity (Ratio Method) in Selected Lithology {F11.4}
#-----------------------------------------------------------------------------
# 
#     DEPT       AF10       AF20       AF30       AF60       AF90       AO10       AO20       AO30       AO60       AO90       AT10       AT20       AT30       AT60       AT90     AHFCO60      AHMF      AHORT      AHORX      AHSCA     AHTCO10    AHTCO20    AHTCO30    AHTCO60    AHTCO90     AHTD1      AHTD2      AHTRT      AHTRX       CDF        CFTC       CNTC       CTEM       DCAL       DNPH       DPHZ       DSOZ       ECGR        ED        GDEV        GR        GTEM       HCAL       HDRA       HDRB       HGR        HMIN       HMNO       HNPO       HPRA       HTNP        ND        NPHI       NPOR       PEFZ    PXND_HILT     RHOZ       RSOZ     RWA_HILT     RXO8       RXOZ        SP        SPAR       STIT       TENS       TNPH     HTNP_SAN
#
~A  DEPT AT10 AT30 AT90 GR HCAL HDRA NPHI PEFZ RHOZ SP TNPH
# ...
6089.0 3.4632 3.2459 3.0860 101.2977 7.9502 -0.0034 0.2918 2.8474 2.5621 -357.1667 0.2700
6089.5 3.4615 3.2588 3.1036 100.2399 7.9502 -0.0081 0.2723 2.9057 2.5510 -357.5104 0.2805
6090.0 3.4605 3.2637 3.1142 102.3551 7.8842 -0.0082 0.2662 2.9499 2.5485 -357.5729 0.2681
6090.5 3.4563 3.2775 3.1337 99.1817 7.8402 -0.0054 0.2534 2.9662 2.5451 -357.4479 0.2661
6091.0 3.4173 3.2328 3.0900 102.0908 7.8183 0.0015 0.2539 2.9606 2.5489 -357.3854 0.2496
6091.5 3.3847 3.2065 3.0706 97.5950 7.9722 0.0090 0.2530 2.9374 2.5534 -357.4896 0.2469
6092.0 3.3944 3.2195 3.0717 94.6856 7.9062 0.0156 0.2680 2.9314 2.5523 -357.5417 0.2420
6092.5 3.3763 3.2102 3.0682 95.4792 7.9062 0.0146 0.2749 2.9300 2.5407 -357.6563 0.2555
6093.0 3.4147 3.2360 3.0895 97.5944 7.9062 0.0103 0.2802 2.9361 2.5399 -357.7813 0.2586
6093.5 3.4870 3.3063 3.1542 100.5041 7.9282 0.0010 0.2718 2.9483 2.5408 -357.8125 0.2633
6094.0 3.5241 3.3311 3.1894 102.6199 7.9282 -0.0024 0.2754 2.9429 2.5415 -357.5104 0.2655
6094.5 3.5809 3.3704 3.2235 104.4717 7.9722 -0.0053 0.2680 2.9264 2.5343 -357.5104 0.2716
6095.0 3.6816 3.4693 3.3162 106.3223 7.9502 -0.0066 0.2620 2.9389 2.5249 -357.8021 0.2600
6095.5 3.8051 3.5937 3.4344 105.7940 7.9941 -0.0067 0.2602 2.9431 2.5344 -357.8250 0.2485
6096.0 3.8450 3.6386 3.4743 105.0005 7.9941 -0.0045 0.2540 2.9435 2.5531 -357.8854 0.2480
6096.5 3.8467 3.6466 3.4896 99.1821 7.9941 -0.0031 0.2646 2.9466 2.5669 -357.8125 0.2463
6097.0 3.8374 3.6741 3.5177 96.5368 7.9722 -0.0034 0.2635 2.9822 2.5664 -357.6771 0.2569
6097.5 3.7956 3.6181 3.4762 93.6275 7.9722 -0.0037 0.2655 3.0043 2.5595 -357.7917 0.2602
6098.0 3.7223 3.5515 3.4041 95.4786 7.9722 -0.0018 0.2513 2.9515 2.5631 -357.9375 0.2595
6098.5 3.8362 3.6489 3.4959 93.0979 8.0161 -0.0029 0.2632 2.9078 2.5611 -358.2188 0.2482
6099.0 3.9934 3.7740 3.6091 95.4786 7.9941 -0.0056 0.2636 2.8918 2.5584 -358.2396 0.2562
6099.5 4.1098 3.9086 3.7318 91.2473 7.9722 -0.0073 0.2629 2.9326 2.5482 -358.3438 0.2480
6100.0 4.2738 4.0576 3.8783 88.6023 7.9722 -0.0018 0.2766 2.9655 2.5433 -358.6146 0.2522
6100.5 4.2758 4.0851 3.9079 85.9575 7.9941 -0.0007 0.2712 2.9958 2.5410 -358.7604 0.2613
6101.0 4.2335 4.0508 3.8907 89.1310 8.0161 -0.0013 0.2813 2.9754 2.5575 -358.8438 0.2586
6101.5 4.2076 4.0349 3.8760 91.5118 7.9941 -0.0136 0.2449 2.9266 2.5715 -358.6667 0.2695
6102.0 4.1772 4.0093 3.8563 97.8593 8.0381 -0.0110 0.2531 2.8750 2.5822 -358.5417 0.2433
6102.5 4.1214 3.9607 3.8158 96.5371 8.0161 -0.0089 0.2443 2.8425 2.5771 -358.1458 0.2539
6103.0 4.0765 3.9059 3.7627 93.6280 8.0381 -0.0012 0.2491 2.8166 2.5713 -358.1250 0.2371
6103.5 4.0992 3.9469 3.7967 86.7509 8.0161 -0.0016 0.2527 2.8311 2.5546 -358.3646 0.2373
6104.0 4.1051 3.9457 3.8074 90.4540 8.0381 0.0038 0.2573 2.8754 2.5403 -358.4167 0.2416
6104.5 3.9755 3.8229 3.6952 92.9395 8.0601 0.0025 0.2561 2.9443 2.5274 -358.2083 0.2515
6105.0 3.8301 3.6797 3.5540 95.0560 8.0381 0.0049 0.2635 2.9584 2.5300 -357.8125 0.2541
6105.5 3.9385 3.7377 3.6090 87.9143 8.0161 -0.0030 0.2570 2.9427 2.5323 -358.1042 0.2576
6106.0 4.0483 3.8903 3.7400 89.6607 8.0381 -0.0017 0.2525 2.9044 2.5411 -358.2813 0.2467
6106.5 3.9657 3.8559 3.7099 89.6600 8.0161 -0.0054 0.2414 2.8861 2.5455 -358.2708 0.2436
6107.0 3.9006 3.7339 3.6227 93.3630 8.0381 -0.0047 0.2477 2.9070 2.5460 -358.1875 0.2350
6107.5 3.9354 3.7477 3.6226 95.7427 8.0381 -0.0045 0.2585 2.9381 2.5464 -358.1042 0.2429
6108.0 3.9251 3.7799 3.6382 98.9167 8.0161 -0.0058 0.2508 2.9909 2.5422 -358.2125 0.2510
6108.5 3.8970 3.7413 3.6285 96.0074 8.0601 -0.0061 0.2557 2.9969 2.5436 -358.2708 0.2466
6109.0 3.8785 3.7276 3.6043 96.2722 8.1041 -0.0065 0.2603 2.9806 2.5417 -358.3438 0.2543
6109.5 3.8623 3.7223 3.6007 87.5445 8.1700 -0.0055 0.2607 2.9152 2.5405 -358.2708 0.2542
6110.0 3.8566 3.6895 3.5608 84.8998 8.3019 -0.0055 0.2632 2.8826 2.5312 -358.1696 0.2518
6110.5 3.8588 3.6969 3.5567 79.0810 8.3019 -0.0067 0.2624 2.9014 2.5169 -358.1771 0.2531
6111.0 3.8961 3.7426 3.5941 81.4614 8.1700 -0.0085 0.2765 2.9379 2.5127 -357.8750 0.2604
6111.5 3.8406 3.6800 3.5470 89.1315 8.1041 -0.0087 0.2679 2.9331 2.5201 -357.6000 0.2717
6112.0 3.7932 3.6511 3.5074 90.1892 8.0821 -0.0096 0.2650 2.8798 2.5309 -357.7813 0.2580
6112.5 3.8832 3.7081 3.5649 97.8597 8.1261 -0.0095 0.2684 2.8563 2.5394 -357.9896 0.2558
6113.0 3.9400 3.7640 3.6137 96.8014 8.0821 -0.0079 0.2565 2.9082 2.5403 -358.0938 0.2642
6113.5 3.9853 3.8250 3.6631 100.2401 8.1041 -0.0048 0.2527 2.9532 2.5519 -357.9688 0.2509
6114.0 3.8607 3.7380 3.5914 98.3885 8.0601 -0.0007 0.2407 2.9480 2.5563 -357.8333 0.2507
6114.5 3.7753 3.6251 3.4761 96.8019 8.0601 0.0011 0.2492 2.8680 2.5546 -357.8542 0.2410
6115.0 3.8070 3.6372 3.4979 95.7439 8.0821 0.0020 0.2540 2.8220 2.5394 -358.0208 0.2459
6115.5 3.8231 3.6792 3.5329 92.5697 8.1480 0.0030 0.2633 2.8122 2.5359 -357.8854 0.2421
6116.0 3.8289 3.6554 3.5171 92.8342 8.1261 0.0027 0.2680 2.8551 2.5325 -357.5729 0.2521
6116.5 3.8513 3.6640 3.5155 102.0912 8.1261 0.0031 0.2522 2.9021 2.5335 -357.5521 0.2582
6117.0 3.9213 3.7498 3.5953 100.2398 8.0601 0.0043 0.2546 2.9287 2.5422 -357.8438 0.2426
6117.5 3.9784 3.7975 3.6500 100.7683 8.0381 0.0022 0.2541 2.9315 2.5473 -357.8854 0.2483
6118.0 3.9113 3.7388 3.5854 90.4534 8.0381 -0.0001 0.2699 2.9125 2.5557 -357.8438 0.2466
6118.5 3.8652 3.6893 3.5387 97.8590 8.0381 -0.0047 0.2509 2.9066 2.5450 -357.8750 0.2592
6119.0 3.8276 3.6440 3.4936 98.1240 8.0601 -0.0058 0.2421 2.9071 2.5412 -357.7396 0.2433
6119.5 3.7576 3.6040 3.4537 99.1815 8.0381 -0.0037 0.2402 2.8830 2.5441 -357.5313 0.2364
6120.0 3.7152 3.5452 3.3928 92.3050 8.0601 0.0007 0.2516 2.8667 2.5539 -357.3958 0.2454
6120.5 3.6459 3.4766 3.3290 93.3632 8.0821 0.0052 0.2631 2.8132 2.5675 -357.5417 0.2506
6121.0 3.7736 3.5225 3.3605 91.5117 7.9722 0.0021 0.2715 2.8120 2.5580 -357.7292 0.2499
6121.5 3.8687 3.6875 3.5032 92.3052 8.0381 -0.0040 0.2596 2.8355 2.5444 -357.6042 0.2513
6122.0 3.8598 3.6967 3.5193 92.0402 7.9722 -0.0085 0.2623 2.8929 2.5349 -357.4792 0.2516
6122.5 3.8120 3.6095 3.4603 97.8594 7.9941 -0.0086 0.2665 2.9293 2.5365 -357.5521 0.2554
6123.0 3.7343 3.5404 3.3828 99.7103 8.0161 -0.0063 0.2642 2.9105 2.5458 -357.6458 0.2544
6123.5 3.7501 3.5420 3.3831 97.0659 8.0161 -0.0038 0.2541 2.8629 2.5591 -357.8125 0.2519
6124.0 3.8693 3.6557 3.4795 94.1563 8.0161 -0.0032 0.2460 2.8387 2.5669 -358.0208 0.2426
6124.5 3.9833 3.7734 3.5817 98.6529 7.9941 -0.0037 0.2527 2.8262 2.5711 -357.7604 0.2409
6125.0 4.0251 3.7934 3.5940 103.4132 8.0381 -0.0036 0.2564 2.8344 2.5753 -357.8229 0.2438
6125.5 3.9371 3.7635 3.5719 98.3884 8.0381 -0.0034 0.2609 2.8779 2.5743 -357.7292 0.2498
6126.0 3.8079 3.6136 3.4379 96.2727 8.0601 -0.0044 0.2654 2.9489 2.5630 -357.5313 0.2589
6126.5 3.7293 3.5532 3.3776 95.4796 8.0821 0.0007 0.2594 3.0129 2.5424 -357.5625 0.2666
6127.0 3.7145 3.5360 3.3622 103.7839 8.0821 0.0016 0.2724 3.0182 2.5308 -357.4375 0.2551
6127.5 3.6799 3.5239 3.3539 100.8743 8.0601 0.0036 0.2761 2.9827 2.5368 -357.4688 0.2629
6128.0 3.7078 3.5123 3.3457 97.7004 8.0601 -0.0017 0.2698 2.9433 2.5487 -357.4792 0.2669
6128.5 3.7909 3.5881 3.4179 90.1893 8.0601 -0.0009 0.2553 2.9269 2.5627 -357.5833 0.2541
6129.0 3.9009 3.6960 3.5179 88.0735 8.0821 -0.0003 0.2566 2.9381 2.5645 -357.7500 0.2473
6129.5 3.8469 3.6612 3.4904 93.6274 8.0601 -0.0012 0.2642 2.9620 2.5565 -357.6750 0.2479
6130.0 3.7622 3.5745 3.4215 97.5949 8.0601 -0.0015 0.2502 2.9140 2.5550 -357.4896 0.2567
6130.5 3.7468 3.5701 3.4166 96.2724 8.1041 -0.0027 0.2440 2.8561 2.5553 -357.2604 0.2462
6131.0 3.6898 3.5319 3.3920 87.5447 8.0931 0.0005 0.2425 2.8097 2.5752 -357.3646 0.2422
6131.5 3.6067 3.4297 3.2940 89.1311 8.0931 0.0005 0.2551 2.8236 2.5712 -357.4792 0.2446
6132.0 3.5913 3.4141 3.2781 97.3303 8.0601 0.0020 0.2787 2.8303 2.5707 -357.5714 0.2530
6132.5 3.6289 3.4380 3.2979 102.7256 8.1041 -0.0005 0.2935 2.8425 2.5566 -357.4271 0.2697
6133.0 3.6320 3.4507 3.3118 99.8168 8.1041 0.0007 0.2904 2.8261 2.5677 -357.5500 0.2793
6133.5 3.6624 3.4862 3.3413 96.6427 8.0821 0.0006 0.2713 2.8457 2.5715 -357.6563 0.2747
