~VERSION INFORMATION
VERS.           1.2   :CWLS Log ASCII Standard - VERSION 1.2
WRAP.           NO    :One Line per depth step
PROD.  Schlumberger   :LAS Producer
PROG.  DLIS to ASCII 17C0-152                          :LAS Program name and version
CREA.        2013/11/03 06:14                          :LAS Creation date {YYYY/MM/DD hh:mm}
DLIS_CREA.  2013-Nov-02 20:25                          :DLIS Creation date and time {YYYY-MMM-DD hh:mm}
SOURCE.     36f617ea-a8f9-4f31-9cfe-b4906ac6e0fc       :DLIS File Name
#--------------------------------------------------
~WELL INFORMATION
#MNEM.UNIT      DATA             DESCRIPTION
#---- ------ --------------   -----------------------------
STRT .F      1000.5000       :START DEPTH        # original; data subset to 5500-8000
STOP .F      7745.0000       :STOP DEPTH        # original; data subset to 5500-8000
STEP .F       0.5000         :STEP       
NULL .          -999.25      :NULL VALUE
COMP .                 COMPANY:  Bear Oil & Gas, Inc.               
WELL .                    WELL:  Marquardt 34-31                    
FLD  .                   FIELD:  Wildcat                            
LOC  .                LOCATION:  SWSE, Sec. 31, T16N, R60W          
CNTY .                  COUNTY:  Laramie                            
STAT .                   STATE:  Wyoming                            
CTRY .                 COUNTRY:                                     
SRVC .         SERVICE COMPANY:  Schlumberger                       
LATI .DEG             LATITUDE:  41.305550 degrees                  
LONG .DEG            LONGITUDE:  -104.12401 degrees                 
API  .              API NUMBER:  49-021-21046-0000                  
DATE .                LOG DATE:  02-Nov-2013
UWI  .          UNIQUE WELL ID:                                     
#-----------------------------------------------------------------------------
~PARAMETER INFORMATION
#MNEM.UNIT    VALUE                      DESCRIPTION
#---- -----   --------------------       ------------------------
CN   .        Bear Oil & Gas  Inc.       :Company Name
WN   .        Marquardt 34-31            :Well Name
FN   .        Wildcat                    :Field Name
FL   .        SWSE  Sec. 31  T16N  R60W  :Field Location
FL1  .        SHL  1265' FSL X 1340' FEL :Field Location, Line 1
COUN .        Laramie                    :County or Parish
STAT .        Wyoming                    :State or Province
NATI .                                   :Nation
DATE .        02-Nov-2013                :Tools Above Rotary Table Date
APIN .        49-021-21046-0000          :API Well Number
SECT .        31                         :Section
TOWN .        16N                        :Township
RANG .        60W                        :Range
DMF  .        KB                         :Drilling Measured From (Name of Drilling Elevation Reference)
LMF  .        KB                         :Logging Measured From (Name of Logging Elevation Reference)
PDAT .        GL                         :Permanent Datum
ENGI .        Heather Hoffman            :Engineer s Name
WITN .        Terry Eittreim             :Witness s Name
LATI .        41.305550 degrees          :Latitude
LONG .        -104.12401 degrees         :Longitude
LUL  .        Fort Morgan  CO            :Logging Unit Location
LUN  .        2135                       :Logging Unit Number
RUN  .        PEX BHC AIT                :Run Number
SON  .        CQQL-00004                 :Service Order Number
BHT  .DEGF     185.00000                 :Bottom Hole Temperature
BS   .IN         7.87500                 :Bit Size
MDEN .G/C3       2.65000                 :Matrix Density for Density Porosity
DFD  .LB/G       9.10000                 :Drilling Fluid Density
DFV  .S         82.00000                 :Drilling Fluid Viscosity
DFL  .C3      -999.25000                 :Drilling Fluid Loss
RMFS .OHMM       1.18400                 :Resistivity of Mud Filtrate Sample
EKB  .F       10594.00000                :Elevation of Kelly Bushing
EGL  .F       5291.00000                 :Elevation of Ground Level
BLI  .F       7724.00000                 :Bottom Log Interval
BSAL .PPM        0.00000                 :Borehole Salinity
FLEV .F         50.00000                 :Depth of Drilling Fluid Level to LMF (Log Measured From)
MCST .DEGF      85.00000                 :Mudcake Sample Temperature
MFST .DEGF      85.00000                 :Mud Filtrate Sample Temperature
MRT  .DEGF     185.00000                 :Maximum Recorded Temperature
MST  .DEGF      85.00000                 :Mud Sample Temperature
RMCS .OHMM       1.77600                 :Resistivity of Mud Cake Sample
RMS  .OHMM       1.48000                 :Resistivity of Mud Sample
RW   .OHMM       1.00000                 :Connate Water Resistivity
TDD  .F       7719.99951                 :Driller Total Depth
TDL  .F       7724.00000                 :Logger Total Depth
TLI  .F       1024.00000                 :Top Log Interval
HIDE .        Wildcat                    :Header Identifier
MATR .        SAND                       :Rock Matrix for Neutron Porosity Corrections
FNUM .           1.00000                 :F-Numerator for Formation Factor Formula
FEXP .           2.00000                 :Exponent "m" for Formation Factor Formula
DFT  .        WATER                      :Drilling Fluid Type
DFPH .        -999.25000                 :Drilling Fluid pH
MCSS .        Calculated                 :Mudcake Sample Source
MFSS .        Calculated                 :Mud Filtrate Sample Source
FD   .G/C3       1.00000                 :Fluid Density
MSS  .        Active Tank                :Mud Sample Source
OS1  .                                   :Other Services Line 1
OS2  .                                   :Other Services Line 2
OS3  .                                   :Other Services Line 3
OS4  .                                   :Other Services Line 4
OS5  .                                   :Other Services Line 5
R1   .                                   :Remarks Line 1
R2   .                                   :Remarks Line 2
R3   .                                   :Remarks Line 3
R4   .                                   :Remarks Line 4
R5   .                                   :Remarks Line 5
R6   .                                   :Remarks Line 6
R7   .                                   :Remarks Line 7
R8   .        This is first run in hole. :Remarks Line 8
TCS  .        09 55 00                   :Time Circulation Stopped
TLAB .        20 18 33                   :Time Logger At Bottom
NMT  .        NOBARITE                   :HRDD Mud Type for Nuclear Devices
EPD  .C3         5291.000000             :Elevation of Permanent Datum above Mean Sea Level
APD  .F         5303.000000              :Elevation of Depth Reference (LMF) above Permanent Datum
#-----------------------------------------------------------------------------
~CURVE INFORMATION
#MNEM.UNIT   API CODE                                  DESCRIPTION
#---- -----  --------                                  -----------------------
DEPT .F                                                :DEPTH (BOREHOLE) {F12.4}
AT10 .OHMM                                             :Array Induction Two Foot Resistivity A10 {F11.4}
AT30 .OHMM                                             :Array Induction Two Foot Resistivity A30 {F11.4}
AT90 .OHMM                                             :Array Induction Two Foot Resistivity A90 {F11.4}
DT   .US/F                                             :Delta-T (also called Slowness or Interval Transit Time) {F11.4}
GR   .GAPI                                             :Gamma Ray {F11.4}
HCAL .IN                                               :HRCC Caliper Calibrated {F11.4}
HDRA .G/C3                                             :Density Standoff Correction {F11.4}
NPHI .CFCF                                             :Thermal Neutron Porosity (original Ratio Method) in Selected Lithology {F11.4}
PEFZ .                                                 :Standard Resolution Formation Photoelectric Factor {F11.4}
RHOZ .G/C3                                             :Standard Resolution Formation Density {F11.4}
SP   .MV                                               :Spontaneous Potential {F11.4}
TNPH .CFCF                                             :Thermal Neutron Porosity (Ratio Method) in Selected Lithology {F11.4}
#-----------------------------------------------------------------------------
# 
#      DEPT        AF10       AF20       AF30       AF60       AF90       AO10       AO20       AO30       AO60       AO90       AT10       AT20       AT30       AT60       AT90     AHFCO60      AHMF      AHORT      AHORX      AHSCA     AHTCO10    AHTCO20    AHTCO30    AHTCO60    AHTCO90     AHTD1      AHTD2      AHTRT      AHTRX       CDF        CFTC       CNTC       CTEM       DCAL       DNPH       DPHZ       DSOZ        DT        ECGR        ED        GDEV        GR        GTEM       HCAL       HDRA       HDRB       HGR        HMIN       HMNO       HNPO       HPRA       HTNP       ITT         ND        NPHI       NPOR       PEFZ    PXND_HILT     RHOZ       RSOZ     RWA_HILT     RXO8       RXOZ        SP        SPAR       SPHI       STIT       TENS       TNPH     HTNP_SAN
#
~A  DEPT AT10 AT30 AT90 DT GR HCAL HDRA NPHI PEFZ RHOZ SP TNPH
# ...
5941.5000 3.5876 3.4138 3.2674 85.9812 111.3759 7.6918 -0.0025 0.2553 2.9534 2.5516 -198.2321 0.2488
5942.0000 3.5869 3.4202 3.2880 85.5396 110.5531 7.7364 -0.0047 0.2505 2.9612 2.5473 -198.5156 0.2454
5942.5000 3.6068 3.4372 3.3098 85.2436 110.0825 7.7364 -0.0055 0.2552 2.9385 2.5453 -198.8125 0.2410
5943.0000 3.6124 3.4592 3.3364 85.6534 105.1746 7.7587 -0.0074 0.2559 2.9451 2.5354 -198.9107 0.2463
5943.5000 3.5610 3.4243 3.3058 85.8252 106.9964 7.7364 -0.0060 0.2693 2.9423 2.5376 -198.7188 0.2543
5944.0000 3.5494 3.3895 3.2779 85.8319 103.8522 7.7364 -0.0048 0.2692 2.9523 2.5390 -198.4643 0.2646
5944.5000 3.5414 3.3810 3.2687 85.7311 104.2932 7.7364 -0.0047 0.2769 2.9618 2.5376 -198.6016 0.2671
5945.0000 3.5576 3.4115 3.2924 85.9324 102.2658 7.7364 -0.0069 0.2753 2.9922 2.5271 -198.8750 0.2672
5945.5000 3.5347 3.3867 3.2674 85.8431 103.2943 7.7364 -0.0072 0.2850 2.9810 2.5272 -198.8594 0.2606
5946.0000 3.4578 3.3159 3.2008 86.0208 111.0813 7.7252 -0.0054 0.2891 2.9379 2.5340 -198.6696 0.2756
5946.5000 3.4030 3.2611 3.1475 86.7273 107.2321 7.7364 -0.0020 0.2934 2.8731 2.5448 -198.6250 0.2836
5947.0000 3.3482 3.2042 3.0917 86.9794 107.4378 7.7252 -0.0003 0.2887 2.8484 2.5448 -198.5357 0.2837
5947.5000 3.3326 3.1732 3.0609 86.9834 101.2964 7.7141 -0.0013 0.2884 2.8509 2.5336 -198.4643 0.2785
5948.0000 3.3406 3.1852 3.0694 87.1039 105.7628 7.7364 0.0022 0.2757 2.8621 2.5368 -198.5469 0.2792
5948.5000 3.3606 3.2092 3.0865 87.2183 106.9673 7.7141 0.0087 0.2851 2.9014 2.5435 -198.6607 0.2651
5949.0000 3.3640 3.2063 3.0892 87.0490 103.0293 7.6918 0.0127 0.2760 2.9383 2.5513 -198.6953 0.2762
5949.5000 3.3803 3.2252 3.0812 86.8285 94.5660 7.6918 0.0093 0.2914 2.9323 2.5447 -198.6429 0.2665
5950.0000 3.3938 3.2387 3.1117 86.7041 93.7731 7.6695 0.0039 0.2833 2.8919 2.5433 -198.4297 0.2773
5950.5000 3.3783 3.2295 3.1128 86.4059 96.5356 7.6918 0.0019 0.2799 2.8557 2.5462 -198.3571 0.2739
5951.0000 3.3666 3.2286 3.1023 86.5355 104.0585 7.7141 0.0040 0.2708 2.8741 2.5575 -198.4531 0.2722
5951.5000 3.3625 3.2137 3.0945 86.3515 108.5838 7.6918 0.0036 0.2684 2.8715 2.5569 -198.4219 0.2654
5952.0000 3.4561 3.2827 3.1485 86.0122 110.6993 7.6918 0.0022 0.2777 2.8698 2.5537 -198.5804 0.2634
5952.5000 3.5892 3.3944 3.2638 85.6416 110.6112 7.6918 -0.0010 0.2785 2.8580 2.5432 -199.0179 0.2625
5953.0000 3.6930 3.5299 3.4034 85.4494 102.6479 7.6918 -0.0001 0.2762 2.8595 2.5468 -199.3906 0.2646
5953.5000 3.6081 3.4482 3.3176 85.3857 102.0897 7.7029 0.0008 0.2756 2.8552 2.5463 -199.2679 0.2711
5954.0000 3.5491 3.3832 3.2547 85.0344 99.3565 7.7141 0.0011 0.2765 2.8596 2.5447 -199.1875 0.2712
5954.5000 3.5833 3.4440 3.2920 85.5844 98.4748 7.7029 -0.0009 0.2718 2.8685 2.5386 -199.1607 0.2739
5955.0000 3.5868 3.4806 3.3432 85.5892 100.6787 7.7141 -0.0013 0.2606 2.8827 2.5406 -198.7109 0.2592
5955.5000 3.4719 3.3767 3.2492 85.6577 100.9429 7.7141 -0.0008 0.2648 2.8841 2.5399 -198.6786 0.2505
5956.0000 3.3883 3.2666 3.1495 86.2927 102.2948 7.7364 0.0013 0.2801 2.8999 2.5367 -198.6875 0.2581
5956.5000 3.3091 3.1614 3.0488 86.9302 95.1539 7.6918 0.0113 0.2978 2.9340 2.5445 -198.8125 0.2712
5957.0000 3.2182 3.0646 2.9663 87.2122 89.7179 7.6918 0.0136 0.3025 2.9633 2.5422 -198.6875 0.2944
5957.5000 3.1692 3.0341 2.9343 87.7050 91.5984 7.7364 0.0125 0.3063 2.9518 2.5368 -198.6607 0.2995
5958.0000 3.1244 3.0022 2.9097 88.0977 94.6839 7.6918 0.0043 0.3025 2.9174 2.5280 -198.4453 0.3027
5958.5000 3.0792 2.9578 2.8615 88.1448 100.7961 7.7141 -0.0021 0.2881 2.8839 2.5371 -198.3750 0.2947
5959.0000 3.0139 2.8941 2.8120 88.7512 104.9695 7.7141 -0.0012 0.2843 2.9024 2.5495 -198.5234 0.2781
5959.5000 2.9475 2.8194 2.7426 88.9754 113.2566 7.7141 0.0040 0.3005 2.9447 2.5516 -198.6429 0.2801
5960.0000 2.9424 2.7964 2.6943 89.5105 110.3179 7.6918 0.0085 0.3173 2.9864 2.5306 -198.6016 0.2970
5960.5000 2.9626 2.8297 2.7324 89.7091 108.0254 7.6918 0.0083 0.3220 2.9906 2.5139 -198.5625 0.3048
5961.0000 3.0023 2.8689 2.7648 89.2826 105.4982 7.7364 0.0044 0.3056 2.9485 2.5111 -198.5391 0.3014
5961.5000 3.1576 2.9752 2.8625 88.0773 103.2650 7.6918 0.0043 0.2897 2.9004 2.5255 -198.9844 0.2872
5962.0000 3.3648 3.1971 3.0619 87.1238 101.6191 7.6918 0.0013 0.2772 2.8988 2.5295 -198.9732 0.2750
5962.5000 3.5798 3.3811 3.2166 86.4167 96.2710 7.7364 -0.0018 0.2673 2.9013 2.5295 -198.7946 0.2631
5963.0000 3.4823 3.3263 3.1754 85.8665 102.1477 7.7364 -0.0046 0.2659 2.9260 2.5202 -198.6563 0.2545
5963.5000 3.4115 3.2504 3.1036 86.3292 103.8228 7.7141 -0.0039 0.2593 2.9233 2.5208 -198.7232 0.2569
5964.0000 3.3495 3.1878 3.0555 86.8273 106.2914 7.7141 -0.0024 0.2613 2.9466 2.5257 -198.7578 0.2561
5964.5000 3.2469 3.1192 2.9861 87.2762 110.6700 7.7141 0.0021 0.2780 2.9782 2.5357 -198.8750 0.2588
5965.0000 3.1072 2.9749 2.8625 87.9789 109.4655 7.6918 0.0050 0.2846 3.0100 2.5381 -198.7031 0.2708
5965.5000 3.0115 2.8688 2.7617 88.2493 114.6082 7.7029 0.0055 0.2946 3.0160 2.5309 -198.3214 0.2739
5966.0000 3.0001 2.8726 2.7635 88.8387 107.8785 7.6918 0.0035 0.2799 3.0024 2.5233 -198.2500 0.2809
5966.5000 2.9917 2.8699 2.7641 89.2561 112.3747 7.6918 0.0029 0.2828 2.9764 2.5259 -198.4554 0.2723
5967.0000 3.0013 2.8282 2.7297 88.5585 113.8144 7.7141 0.0008 0.2697 2.9532 2.5249 -198.6797 0.2746
5967.5000 3.0552 2.9326 2.8063 89.0055 117.2530 7.7141 -0.0001 0.2637 2.9317 2.5283 -198.9286 0.2702
5968.0000 2.9838 2.8699 2.7621 89.7089 116.2828 7.7364 0.0003 0.2708 2.9114 2.5311 -198.7266 0.2661
5968.5000 2.8623 2.7020 2.6311 89.5357 115.4602 7.7141 -0.0001 0.2692 2.9252 2.5233 -198.4464 0.2681
5969.0000 2.7808 2.6280 2.5384 90.4050 123.3061 7.7141 0.0019 0.2971 2.9221 2.5327 -198.2813 0.2635
5969.5000 2.9294 2.7463 2.6561 90.3329 125.3048 7.7252 -0.0023 0.2914 2.9235 2.5413 -198.3125 0.2764
5970.0000 2.9998 2.8515 2.7579 89.3003 120.9552 7.7141 -0.0030 0.2959 2.9210 2.5683 -198.3203 0.2650
5970.5000 3.0938 2.9237 2.8238 88.1427 109.8180 7.7141 -0.0044 0.2735 2.9262 2.5668 -198.4286 0.2739
5971.0000 3.1890 3.0150 2.8988 87.9075 101.7071 7.7587 -0.0018 0.2670 2.9124 2.5618 -198.4609 0.2617
5971.5000 3.1011 2.9569 2.8508 88.1127 103.3820 7.7364 0.0020 0.2633 2.9072 2.5586 -198.2679 0.2728
5972.0000 3.0401 2.8769 2.7883 87.7498 103.0003 7.7364 0.0032 0.2655 2.9198 2.5648 -198.1875 0.2637
5972.5000 3.0276 2.8697 2.7725 88.3411 111.4636 7.7141 0.0052 0.2732 2.9895 2.5713 -198.1964 0.2583
5973.0000 3.0125 2.8680 2.7694 88.3979 111.6693 7.7141 0.0051 0.2771 3.0412 2.5686 -198.0000 0.2594
5973.5000 2.9454 2.7832 2.6992 88.6491 122.1309 7.7141 0.0047 0.2797 3.0507 2.5638 -197.7143 0.2676
5974.0000 2.8954 2.7304 2.6419 89.0106 117.4289 7.7141 0.0011 0.2804 3.0305 2.5498 -197.8125 0.2717
5974.5000 2.9398 2.7849 2.6840 88.7981 118.8395 7.7364 -0.0034 0.2806 3.0098 2.5355 -198.1875 0.2724
5975.0000 2.9790 2.8299 2.7153 88.6590 112.6684 7.7364 -0.0052 0.2820 3.0236 2.5294 -198.5234 0.2673
5975.5000 2.9063 2.7742 2.6708 88.6692 114.5493 7.7364 -0.0039 0.2825 3.0237 2.5278 -198.5357 0.2700
5976.0000 2.8759 2.7140 2.6221 89.5284 109.8476 7.7252 -0.0004 0.2914 3.0025 2.5299 -198.4531 0.2830
5976.5000 2.8172 2.6752 2.5732 89.7440 114.2557 7.7364 0.0026 0.2900 3.0117 2.5299 -198.2232 0.2892
5977.0000 2.8793 2.7185 2.6104 89.5292 113.2270 7.7364 0.0049 0.2864 3.0309 2.5350 -198.2813 0.2736
5977.5000 2.9078 2.7493 2.6184 89.2513 113.6974 7.7141 0.0053 0.2824 3.0550 2.5374 -198.6250 0.2701
5978.0000 2.8836 2.7308 2.6192 89.3487 105.7924 7.7475 0.0078 0.2931 3.0424 2.5469 -198.9453 0.2705
5978.5000 2.8694 2.6959 2.5996 89.7899 107.5261 7.7141 0.0063 0.2987 3.0066 2.5427 -198.8482 0.2861
5979.0000 2.8741 2.6877 2.5772 90.4713 110.5527 7.7029 0.0036 0.3026 3.0038 2.5359 -198.4531 0.2882
5979.5000 2.8412 2.6643 2.5654 90.7335 116.1068 7.7141 -0.0014 0.2949 2.9882 2.5263 -198.0804 0.2915
5980.0000 2.8025 2.6397 2.5396 90.5675 113.3446 7.7141 -0.0028 0.2862 2.9913 2.5285 -197.9063 0.2910
5980.5000 2.8558 2.6649 2.5601 90.8107 114.0791 7.7364 -0.0020 0.2829 2.9722 2.5417 -198.1964 0.2808
5981.0000 2.8924 2.6954 2.5853 90.7246 110.1705 7.7141 -0.0016 0.2757 2.9999 2.5509 -198.3203 0.2744
