~VERSION INFORMATION
VERS.           2.0   :CWLS Log ASCII Standard - VERSION 2.0
WRAP.           NO    :One Line per depth step
PROD.  Schlumberger   :LAS Producer
PROG.  DLIS to ASCII 19C2-270                          :LAS Program name and version
CREA.        2013/08/28 17:00                          :LAS Creation date {YYYY/MM/DD hh:mm}
DLIS_CREA.  2013-Aug-28 16:23                          :DLIS Creation date and time {YYYY-MMM-DD hh:mm}
SOURCE.     Bear_Oil_Marquardt_43_31_Main_DLIS.dlis    :DLIS File Name
FILE-ID.     MaxWell_5Dlis                             :File Identification Number
#--------------------------------------------------
~WELL INFORMATION
#MNEM.UNIT      DATA             DESCRIPTION
#---- ------ --------------   -----------------------------
STRT .F      1000.5          :START DEPTH        # original; data subset to 5500-8000
STOP .F      7710.0          :STOP DEPTH        # original; data subset to 5500-8000
STEP .F       0.5            :STEP     
NULL .          -999.25      :NULL VALUE
COMP .        Bear Oil and Gas, Inc.                   :COMPANY
WELL .        Marquardt 43 31                          :WELL
FLD  .        Wildcat                                  :FIELD
LOC  .        NESE 1627' FSL & 170' FEL                :LOCATION
CNTY .        Laramie                                  :COUNTY
STAT .        Wyoming                                  :STATE
CTRY .        United States                            :COUNTRY
API  .        049-021-21034                            :API NUMBER
UWI  .        049021210340000                          :UNIQUE WELL ID
DATE .        28-Aug-2013                              :LOG DATE {DD-MMM-YYYY}
SRVC .        Schlumberger                             :SERVICE COMPANY
LATI .DEG     41.306700 degrees                        :LATITUDE
LONG .DEG     -104.11980 degrees                       :LONGITUDE
GDAT .                                                 :GeoDetic Datum
SECT .        31                                       :Section
RANG .        60W                                      :Range
TOWN .        16N                                      :Township
#-----------------------------------------------------------------------------
~PARAMETER INFORMATION
#MNEM.UNIT    VALUE                      DESCRIPTION
#---- -----   --------------------       ------------------------
CN   .        Bear Oil and Gas  Inc.     :Company Name
WN   .        Marquardt 43 31            :Well Name
FN   .        Wildcat                    :Field Name
FL   .        NESE 1627' FSL & 170' FEL  :Field Location
FL1  .        Sec. 31  T. 16N  R. 60W    :Field Location, Line 1
COUN .        Laramie                    :County or Parish
STAT .        Wyoming                    :State or Province
NATI .        United States              :Nation
DATE .        28-Aug-2013                :Tools Above Rotary Table Date
APIN .        049-021-21034              :API Well Number
SECT .        31                         :Section
TOWN .        16N                        :Township
RANG .        60W                        :Range
DMF  .        KB                         :Drilling Measured From (Name of Drilling Elevation Reference)
LMF  .        KB                         :Logging Measured From (Name of Logging Elevation Reference)
PDAT .        GL                         :Permanent Datum
ENGI .        Max Pace                   :Engineer s Name
WITN .        Terry Eittreim             :Witness s Name
LATI .        41.306700 degrees          :Latitude
LONG .        -104.11980 degrees         :Longitude
LUL  .        Fort Morgan  CO            :Logging Unit Location
LUN  .        3022                       :Logging Unit Number
RUN  .        Run 1                      :Run Number
SON  .        CA0R-00043                 :Service Order Number
BHT  .DEGF     166.00000                 :Bottom Hole Temperature
BS   .IN         7.87500                 :Bit Size
MDEN .G/C3       2.65000                 :Matrix Density for Density Porosity
DFD  .LB/G       8.90000                 :Drilling Fluid Density
DFV  .S         65.00000                 :Drilling Fluid Viscosity
DFL  .C3         9.00000                 :Drilling Fluid Loss
RMFS .OHMM       1.11000                 :Resistivity of Mud Filtrate Sample
EKB  .F       5298.00000                 :Elevation of Kelly Bushing
EGL  .F       5286.00000                 :Elevation of Ground Level
BLI  .F       7686.00000                 :Bottom Log Interval
BSAL .PPM     3335.81519                 :Borehole Salinity
FLEV .F          8.00000                 :Depth of Drilling Fluid Level to LMF (Log Measured From)
MCST .DEGF      83.00000                 :Mudcake Sample Temperature
MFST .DEGF      83.00000                 :Mud Filtrate Sample Temperature
MRT  .DEGF     166.00000                 :Maximum Recorded Temperature
MST  .DEGF      83.00000                 :Mud Sample Temperature
RMCS .OHMM       1.85000                 :Resistivity of Mud Cake Sample
RMS  .OHMM       1.48000                 :Resistivity of Mud Sample
RW   .OHMM       1.00000                 :Connate Water Resistivity
TDD  .F       7680.00000                 :Driller Total Depth
TDL  .F       7686.00000                 :Logger Total Depth
TLI  .F       1025.00000                 :Top Log Interval
HIDE .        Wildcat                    :Header Identifier
MATR .        SAND                       :Rock Matrix for Neutron Porosity Corrections
FNUM .           1.00000                 :F-Numerator for Formation Factor Formula
FEXP .           2.00000                 :Exponent "m" for Formation Factor Formula
DFT  .        WATER                      :Drilling Fluid Type
DFPH .           8.00000                 :Drilling Fluid pH
MCSS .        Calculated                 :Mudcake Sample Source
MFSS .        Calculated                 :Mud Filtrate Sample Source
FD   .G/C3       1.00000                 :Fluid Density
MSS  .        Active Tank                :Mud Sample Source
OS1  .                                   :Other Services Line 1
OS2  .                                   :Other Services Line 2
OS3  .                                   :Other Services Line 3
OS4  .                                   :Other Services Line 4
OS5  .                                   :Other Services Line 5
R1   .                                   :Remarks Line 1
R2   .                                   :Remarks Line 2
R3   .                                   :Remarks Line 3
R4   .                                   :Remarks Line 4
R5   .                                   :Remarks Line 5
R6   .                                   :Remarks Line 6
R7   .                                   :Remarks Line 7
R8   .                                   :Remarks Line 8
TCS  .        05 00 00                   :Time Circulation Stopped
TLAB .        14 30 25                   :Time Logger At Bottom
NMT  .        NOBARITE                   :HRDD Mud Type for Nuclear Devices
EPD  .F         5286.000000              :Elevation of Permanent Datum above Mean Sea Level
APD  .F          12.000000               :Elevation of Depth Reference (LMF) above Permanent Datum
#-----------------------------------------------------------------------------
~CURVE INFORMATION
#MNEM.UNIT   API CODE                                  DESCRIPTION
#---- -----  --------                                  -----------------------
DEPT .F                                                :DEPTH (BOREHOLE) {F10.1}
AT10 .OHMM                                             :Array Induction Two Foot Resistivity A10 {F11.4}
AT30 .OHMM                                             :Array Induction Two Foot Resistivity A30 {F11.4}
AT90 .OHMM                                             :Array Induction Two Foot Resistivity A90 {F11.4}
GR   .GAPI                                             :Gamma Ray {F11.4}
HCAL .IN                                               :HRCC Caliper Calibrated {F11.4}
HDRA .G/C3                                             :Density Standoff Correction {F11.4}
NPHI .CFCF                                             :Thermal Neutron Porosity (original Ratio Method) in Selected Lithology {F11.4}
PEFZ .                                                 :Standard Resolution Formation Photoelectric Factor {F11.4}
RHOZ .G/C3                                             :Standard Resolution Formation Density {F11.4}
SP   .MV                                               :Spontaneous Potential {F11.4}
TNPH .CFCF                                             :Thermal Neutron Porosity (Ratio Method) in Selected Lithology {F11.4}
#-----------------------------------------------------------------------------
# 
#     DEPT       AF10       AF20       AF30       AF60       AF90       AO10       AO20       AO30       AO60       AO90       AT10       AT20       AT30       AT60       AT90     AHFCO60      AHMF      AHORT      AHORX      AHSCA     AHTCO10    AHTCO20    AHTCO30    AHTCO60    AHTCO90     AHTD1      AHTD2      AHTRT      AHTRX       CDF        CFTC       CNTC       CTEM       DCAL       DNPH       DPHZ       DSOZ       ECGR        ED        GDEV        GR        GTEM       HCAL       HDRA       HDRB       HGR        HMIN       HMNO       HNPO       HPRA       HTNP        ND        NPHI       NPOR       PEFZ    PXND_HILT     RHOZ       RSOZ     RWA_HILT     RXO8       RXOZ        SP        SPAR       STIT       TENS       TNPH     HTNP_SAN
#
~A  DEPT AT10 AT30 AT90 GR HCAL HDRA NPHI PEFZ RHOZ SP TNPH
# ...
7410.5 1.1102 1.0370 1.0477 196.7512 8.8671 0.2586 0.3870 2.2115 2.1979 -69.4375 0.3942
7411.0 0.8737 0.8371 0.8101 221.2590 8.5705 0.2480 0.4268 2.1964 2.1220 -69.8828 0.4255
7411.5 0.8258 0.7888 0.7470 232.1510 9.7799 0.2141 0.4349 2.2338 2.0908 -69.9286 0.4504
7412.0 0.9246 0.8659 0.8223 211.5000 8.2966 0.1863 0.4442 2.3309 2.1507 -69.6875 0.4310
7412.5 1.0146 0.9246 0.8756 175.6453 8.7987 0.1605 0.4238 2.4423 2.2274 -68.9453 0.3874
7413.0 0.9737 0.8907 0.8448 148.4135 9.5973 0.1490 0.4293 2.5195 2.2737 -68.7679 0.3783
7413.5 0.9478 0.8477 0.8294 137.6504 9.7342 0.1449 0.4653 2.5134 2.3014 -68.7054 0.4031
7414.0 0.9539 0.8457 0.7866 139.0120 9.8255 0.1402 0.4301 2.5086 2.3114 -68.7143 0.4240
7414.5 0.9788 0.8868 0.8113 150.5855 9.4604 0.1387 0.4229 2.5427 2.3235 -68.5313 0.3981
7415.0 1.0416 0.9743 0.8746 154.2164 9.5060 0.1528 0.4075 2.6003 2.3363 -68.4107 0.3998
7415.5 1.1950 1.1396 0.9970 158.3660 8.8899 0.1772 0.4651 2.6229 2.3543 -68.2946 0.4065
7416.0 1.4454 1.3600 1.2027 152.9198 9.3463 0.1848 0.4456 2.6432 2.3634 -68.3482 0.4135
7416.5 1.7600 1.4995 1.2985 149.0296 9.0383 0.1730 0.3650 2.6793 2.4333 -68.8281 0.3487
7417.0 2.4871 1.8652 1.5652 137.6179 8.7074 0.1425 0.2698 2.7890 2.5310 -68.9732 0.2530
7417.5 4.0092 3.0019 2.4469 130.4535 8.0456 0.0981 0.2132 2.9026 2.6214 -68.9018 0.2034
7418.0 6.3699 4.7047 4.0717 125.1365 8.0228 0.0468 0.1954 3.0049 2.6204 -68.7969 0.1963
7418.5 5.9215 5.2747 5.1342 126.4337 8.0456 0.0314 0.2150 3.0845 2.6167 -68.5714 0.2064
7419.0 5.0319 4.8883 5.3385 128.1519 8.0456 0.0570 0.2243 3.1492 2.6409 -68.5446 0.2237
7419.5 4.7531 4.4485 5.1955 131.1344 7.9544 0.1028 0.2469 3.1584 2.6735 -68.5089 0.2332
7420.0 4.6641 4.3453 4.5951 136.1918 8.0685 0.1490 0.2599 3.1098 2.6777 -68.4531 0.2543
7420.5 4.5269 4.3381 4.3874 143.8100 8.0685 0.2036 0.2838 3.0328 2.6666 -68.2857 0.2705
7421.0 4.3438 4.2565 4.1486 149.2241 8.0913 0.2441 0.2844 2.9761 2.6355 -68.1786 0.2959
7421.5 4.1388 3.9780 3.9758 144.1662 8.0799 0.2508 0.2775 2.9186 2.6039 -68.1563 0.2768
7422.0 3.9921 3.7722 3.8186 138.8176 8.0913 0.2101 0.2739 2.8662 2.5569 -68.0893 0.2595
7422.5 4.1099 3.8217 3.9557 135.2185 8.1255 0.1706 0.2699 2.8325 2.5630 -67.9911 0.2603
7423.0 4.1699 4.0366 4.2048 136.4188 8.2510 0.1333 0.2691 2.8031 2.5522 -68.0714 0.2690
7423.5 4.2855 4.2855 4.6696 133.4681 8.1369 0.1251 0.2499 2.7820 2.5512 -68.1016 0.2729
7424.0 3.9963 4.0496 4.3440 130.9402 8.1369 0.1238 0.2891 2.7780 2.5193 -68.1696 0.2617
7424.5 3.5735 3.6569 3.8544 137.2617 8.0228 0.1454 0.2922 2.7977 2.5083 -68.1964 0.2930
7425.0 3.3038 3.2712 3.4156 139.9850 8.6617 0.1670 0.2987 2.8276 2.5023 -68.1016 0.2813
7425.5 3.3222 3.2854 3.5868 140.9578 8.5705 0.1785 0.2819 2.8713 2.5221 -68.0536 0.2762
7426.0 3.7057 3.7143 3.9655 129.1893 8.4564 0.1682 0.2895 2.9393 2.5554 -67.9643 0.2736
7426.5 4.0683 4.1558 4.0747 127.5038 8.0685 0.1601 0.2932 2.9989 2.5972 -68.0547 0.2960
7427.0 4.1482 4.1154 4.0824 127.4386 8.0685 0.1536 0.2877 2.9740 2.5905 -68.0446 0.2900
7427.5 3.8352 3.8506 3.9016 134.2788 8.2282 0.1548 0.2937 2.8693 2.5546 -68.2344 0.2837
7428.0 3.6362 3.6093 3.7166 133.2417 8.2168 0.1501 0.3108 2.7446 2.4987 -68.2500 0.2901
7428.5 3.5368 3.4533 3.4509 128.6382 8.1369 0.1618 0.3153 2.6854 2.4714 -67.9531 0.3092
7429.0 3.4592 3.4010 3.3566 127.0173 8.3423 0.1904 0.3152 2.6880 2.4642 -67.8571 0.3185
7429.5 3.4137 3.2990 3.2611 132.9818 8.2054 0.2351 0.3404 2.7033 2.4831 -67.9922 0.3210
7430.0 3.2578 3.2665 3.1854 137.6506 8.2282 0.2739 0.3354 2.6928 2.4933 -68.1607 0.3402
7430.5 3.1392 3.0674 2.9986 142.6431 7.8631 0.2970 0.3819 2.6673 2.4960 -68.2500 0.3300
7431.0 3.0457 3.1203 3.0575 134.8630 8.0342 0.2892 0.3695 2.6912 2.4952 -68.3393 0.3542
7431.5 3.2380 3.0776 3.0012 122.9972 8.3651 0.2991 0.3674 2.8072 2.5590 -68.2813 0.3495
7432.0 3.2156 3.2000 3.0516 111.8448 8.1826 0.2894 0.3429 2.9433 2.5624 -68.1964 0.3538
7432.5 3.0536 3.2090 3.2259 114.1139 8.1597 0.2922 0.3233 2.9309 2.5259 -68.1797 0.3484
7433.0 3.1207 3.0425 3.0498 123.3856 8.5933 0.3084 0.3395 2.7731 2.4976 -68.1786 0.3390
7433.5 3.1466 2.9900 2.9857 128.1842 8.8443 0.3351 0.3229 2.6359 2.5191 -68.1484 0.3344
7434.0 3.0339 2.9435 2.9109 139.4005 8.6389 0.3627 0.3275 2.6033 2.5474 -68.2321 0.3144
7434.5 2.9220 2.8161 2.8018 147.3761 8.8899 0.3757 0.3621 2.5659 2.5286 -68.2734 0.3208
7435.0 2.7586 2.7072 2.6508 149.5801 8.9128 0.3917 0.3862 2.4728 2.5070 -68.1161 0.3542
7435.5 2.6506 2.6345 2.5628 144.7183 9.3235 0.3811 0.3775 2.3985 2.4848 -68.0313 0.3696
7436.0 2.5189 2.5679 2.4539 134.1490 9.0725 0.3298 0.3307 2.4454 2.4373 -68.1094 0.3706
7436.5 2.4323 2.4170 2.3345 131.0371 9.1181 0.2869 0.3096 2.5219 2.4141 -68.1250 0.3429
7437.0 2.3744 2.3300 2.2259 124.4884 9.4148 0.2550 0.3151 2.5874 2.3801 -68.0156 0.3291
7437.5 2.3657 2.3483 2.2267 132.2692 8.6846 0.2433 0.3361 2.6246 2.3766 -68.1964 0.3329
7438.0 2.3592 2.3672 2.2101 138.6228 9.0611 0.2048 0.4001 2.6724 2.3552 -68.2188 0.3347
7438.5 2.2649 2.2567 2.1577 146.1087 9.1409 0.1664 0.4103 2.7198 2.3452 -68.2321 0.3774
7439.0 2.2500 2.2145 2.1428 138.6848 9.4148 0.1496 0.4062 2.7414 2.3444 -68.2813 0.3853
7439.5 2.1996 2.1230 2.0708 135.4431 9.4832 0.1741 0.3851 2.7089 2.3903 -68.2411 0.3825
7440.0 2.1486 2.1129 2.0550 134.0518 9.5289 0.2176 0.3893 2.6841 2.4303 -68.2266 0.3688
7440.5 2.1101 2.0701 2.0189 137.3263 10.2819 0.2449 0.3809 2.6600 2.4277 -68.1429 0.3649
7441.0 2.0649 2.1359 2.0821 136.7107 9.5973 0.2666 0.3679 2.6347 2.3948 -67.8516 0.3715
7441.5 1.9629 2.0950 2.0103 138.1366 9.6886 0.2872 0.3748 2.5868 2.3856 -67.8482 0.3667
7442.0 1.9275 1.9136 1.8486 142.3512 9.3463 0.2859 0.4023 2.5486 2.3827 -67.8047 0.3842
7442.5 1.8376 1.8061 1.7183 142.9669 10.1678 0.2550 0.3868 2.5618 2.3690 -67.8036 0.3921
7443.0 1.8080 1.7476 1.6552 135.8672 9.2550 0.2213 0.3964 2.6019 2.3821 -67.8828 0.3998
7443.5 1.7577 1.7107 1.6355 132.1711 10.0993 0.2073 0.3736 2.6589 2.4117 -67.8393 0.3831
7444.0 1.7114 1.6678 1.5987 130.0966 9.9168 0.2106 0.3925 2.6962 2.4359 -67.8750 0.3689
7444.5 1.6435 1.6443 1.5704 129.4159 9.9624 0.2105 0.4112 2.7228 2.4162 -67.8482 0.3820
7445.0 1.6155 1.6643 1.5940 134.3436 9.9624 0.2027 0.3939 2.7302 2.3887 -67.8047 0.3956
7445.5 1.6296 1.6671 1.6111 134.2135 9.8027 0.1929 0.3760 2.7552 2.3710 -67.7143 0.3865
7446.0 1.6227 1.7105 1.6493 130.8424 9.8483 0.1792 0.3536 2.7516 2.3811 -67.6719 0.3525
7446.5 1.6190 1.6526 1.6222 121.6680 9.9852 0.1628 0.3552 2.7378 2.3889 -67.6518 0.3420
7447.0 1.6134 1.5973 1.5829 124.9100 10.0081 0.1420 0.4119 2.7148 2.3904 -67.6016 0.3644
7447.5 1.6034 1.5289 1.5224 125.7851 10.0993 0.1317 0.4174 2.7307 2.3764 -67.6518 0.4151
7448.0 1.5006 1.4660 1.4909 131.5881 9.9852 0.1413 0.4258 2.7697 2.3547 -67.6016 0.4123
7448.5 1.4782 1.4085 1.3930 131.2966 10.1678 0.1666 0.3483 2.7762 2.3551 -67.5268 0.4015
7449.0 1.4190 1.4214 1.3904 140.2763 10.6242 0.1819 0.3382 2.7579 2.3602 -67.5156 0.3365
7449.5 1.4074 1.4005 1.3445 145.1391 10.2591 0.1799 0.3429 2.7299 2.3760 -67.3393 0.3336
7450.0 1.3798 1.4714 1.3912 146.2085 9.4148 0.1665 0.4143 2.7216 2.3727 -67.3281 0.3467
7450.5 1.3562 1.3970 1.3085 141.3135 9.5973 0.1524 0.4197 2.7122 2.3659 -67.3125 0.3830
7451.0 1.3435 1.2966 1.2025 127.8924 9.6430 0.1367 0.4559 2.7026 2.3503 -67.3203 0.4035
7451.5 1.3180 1.2362 1.1460 124.5530 10.0993 0.1233 0.4158 2.7058 2.3368 -67.3125 0.4223
7452.0 1.2906 1.2288 1.1543 126.5957 10.0309 0.1118 0.4698 2.7179 2.3217 -67.1172 0.4090
7452.5 1.2610 1.2199 1.1700 136.3859 9.4148 0.1090 0.4545 2.7243 2.3142 -66.9732 0.4578
7453.0 1.2583 1.2129 1.2052 139.2066 9.4376 0.1213 0.5271 2.7409 2.3194 -66.9688 0.4347
7453.5 1.2682 1.2190 1.2009 138.6881 9.5060 0.1407 0.4693 2.7801 2.3307 -66.8214 0.4724
7454.0 1.3290 1.2892 1.2393 143.9070 9.3920 0.1693 0.4780 2.8366 2.3643 -65.5703 0.4292
7454.5 1.4029 1.3511 1.2826 143.1295 9.2094 0.1900 0.4114 2.8767 2.4117 -64.5357 0.4326
7455.0 1.4668 1.4028 1.3248 139.7898 8.8671 0.1936 0.3966 2.8629 2.4517 -64.8359 0.3854
7455.5 1.4580 1.3839 1.3104 129.7088 8.7074 0.1718 0.3636 2.8265 2.4332 -64.9196 0.3699
