~VERSION INFORMATION
VERS.           2.0   :CWLS Log ASCII Standard - VERSION 2.0
WRAP.           NO    :One Line per depth step
PROD.  Schlumberger   :LAS Producer
PROG.  DLIS to ASCII 19C1-222                          :LAS Program name and version
CREA.        2013/09/09 02:34                          :LAS Creation date {YYYY/MM/DD hh:mm}
DLIS_CREA.  2013-Sep-09 02:29                          :DLIS Creation date and time {YYYY-MMM-DD hh:mm}
SOURCE.     049-021-21038_Marquardt 44-31_Run_PEX-AIT_Mainpass.dlis  :DLIS File Name
FILE-ID.     MaxWell_4Dlis                             :File Identification Number
#--------------------------------------------------
~WELL INFORMATION
#MNEM.UNIT      DATA             DESCRIPTION
#---- ------ --------------   -----------------------------
STRT .F      952.5           :START DEPTH        # original; data subset to 5500-8000
STOP .F      7703.0          :STOP DEPTH        # original; data subset to 5500-8000
STEP .F       0.5            :STEP     
NULL .          -999.25      :NULL VALUE
COMP .        Bear Oil & Gas, Inc                      :COMPANY
WELL .        Marquardt 44-31                          :WELL
FLD  .        Wildcat                                  :FIELD
LOC  .        Lat/Long : 41.3038/-104.1202             :LOCATION
CNTY .        Laramie                                  :COUNTY
STAT .        Wyoming                                  :STATE
CTRY .        USA                                      :COUNTRY
API  .        049-021-21038                            :API NUMBER
UWI  .        049021210380000                          :UNIQUE WELL ID
DATE .        08-Sep-2013                              :LOG DATE {DD-MMM-YYYY}
SRVC .        Schlumberger                             :SERVICE COMPANY
LATI .DEG     41.303800 degrees                        :LATITUDE
LONG .DEG     -104.12020 degrees                       :LONGITUDE
GDAT .                                                 :GeoDetic Datum
SECT .        31                                       :Section
RANG .        60W                                      :Range
TOWN .        16N                                      :Township
#-----------------------------------------------------------------------------
~PARAMETER INFORMATION
#MNEM.UNIT    VALUE                      DESCRIPTION
#---- -----   --------------------       ------------------------
CN   .        Bear Oil & Gas  Inc        :Company Name
WN   .        Marquardt 44-31            :Well Name
FN   .        Wildcat                    :Field Name
FL   .        Lat/Long   41.3038/-104.1202 :Field Location
FL1  .        SHL   766' FSL X 245' FEL SESE :Field Location, Line 1
COUN .        Laramie                    :County or Parish
STAT .        Wyoming                    :State or Province
NATI .        USA                        :Nation
DATE .        08-Sep-2013                :Tools Above Rotary Table Date
APIN .        049-021-21038              :API Well Number
SECT .        31                         :Section
TOWN .        16N                        :Township
RANG .        60W                        :Range
DMF  .        KB                         :Drilling Measured From (Name of Drilling Elevation Reference)
LMF  .        KB                         :Logging Measured From (Name of Logging Elevation Reference)
PDAT .        GL                         :Permanent Datum
ENGI .        Arvin Shi                  :Engineer s Name
WITN .        Terry Eittreim             :Witness s Name
LATI .        41.303800 degrees          :Latitude
LONG .        -104.12020 degrees         :Longitude
LUL  .        Fort Morgan                :Logging Unit Location
LUN  .        3030                       :Logging Unit Number
RUN  .        Run 1                      :Run Number
SON  .        C6VJ-00075                 :Service Order Number
BHT  .DEGF     184.00000                 :Bottom Hole Temperature
BS   .IN         7.87500                 :Bit Size
MDEN .G/C3       2.65000                 :Matrix Density for Density Porosity
DFD  .LB/G       9.00000                 :Drilling Fluid Density
DFV  .S         80.00000                 :Drilling Fluid Viscosity
DFL  .C3      -999.25000                 :Drilling Fluid Loss
RMFS .OHMM       0.80250                 :Resistivity of Mud Filtrate Sample
EKB  .F       5298.00000                 :Elevation of Kelly Bushing
EGL  .F       5286.00000                 :Elevation of Ground Level
BLI  .F       7686.00000                 :Bottom Log Interval
BSAL .PPM     4641.08936                 :Borehole Salinity
FLEV .F          8.00000                 :Depth of Drilling Fluid Level to LMF (Log Measured From)
MCST .DEGF      84.00000                 :Mudcake Sample Temperature
MFST .DEGF      84.00000                 :Mud Filtrate Sample Temperature
MRT  .DEGF     184.00000                 :Maximum Recorded Temperature
MST  .DEGF      84.00000                 :Mud Sample Temperature
RMCS .OHMM       1.33750                 :Resistivity of Mud Cake Sample
RMS  .OHMM       1.07000                 :Resistivity of Mud Sample
RW   .OHMM       1.00000                 :Connate Water Resistivity
TDD  .F       7680.00000                 :Driller Total Depth
TDL  .F       7686.00000                 :Logger Total Depth
TLI  .F       1023.00000                 :Top Log Interval
HIDE .        Wildcat                    :Header Identifier
MATR .        SAND                       :Rock Matrix for Neutron Porosity Corrections
FNUM .           1.00000                 :F-Numerator for Formation Factor Formula
FEXP .           2.00000                 :Exponent "m" for Formation Factor Formula
DFT  .        Fresh Water                :Drilling Fluid Type
DFPH .        -999.25000                 :Drilling Fluid pH
MCSS .        Calculated                 :Mudcake Sample Source
MFSS .        Calculated                 :Mud Filtrate Sample Source
FD   .G/C3       1.00000                 :Fluid Density
MSS  .        Flowline                   :Mud Sample Source
OS1  .                                   :Other Services Line 1
OS2  .                                   :Other Services Line 2
OS3  .                                   :Other Services Line 3
OS4  .                                   :Other Services Line 4
OS5  .                                   :Other Services Line 5
R1   .                                   :Remarks Line 1
R2   .                                   :Remarks Line 2
R3   .                                   :Remarks Line 3
R4   .                                   :Remarks Line 4
R5   .                                   :Remarks Line 5
R6   .                                   :Remarks Line 6
R7   .                                   :Remarks Line 7
R8   .                                   :Remarks Line 8
TCS  .        15 00 00                   :Time Circulation Stopped
TLAB .        00 30 46                   :Time Logger At Bottom
NMT  .        NOBARITE                   :HRDD Mud Type for Nuclear Devices
EPD  .C3         5286.000000             :Elevation of Permanent Datum above Mean Sea Level
APD  .F          12.000000               :Elevation of Depth Reference (LMF) above Permanent Datum
#-----------------------------------------------------------------------------
~CURVE INFORMATION
#MNEM.UNIT   API CODE                                  DESCRIPTION
#---- -----  --------                                  -----------------------
DEPT .F                                                :DEPTH (BOREHOLE) {F10.1}
AT10 .OHMM                                             :Array Induction Two Foot Resistivity A10 {F11.4}
AT30 .OHMM                                             :Array Induction Two Foot Resistivity A30 {F11.4}
AT90 .OHMM                                             :Array Induction Two Foot Resistivity A90 {F11.4}
GR   .GAPI                                             :Gamma Ray {F11.4}
HCAL .IN                                               :HRCC Caliper Calibrated {F11.4}
HDRA .G/C3                                             :Density Standoff Correction {F11.4}
NPHI .CFCF                                             :Thermal Neutron Porosity (original Ratio Method) in Selected Lithology {F11.4}
PEFZ .                                                 :Standard Resolution Formation Photoelectric Factor {F11.4}
RHOZ .G/C3                                             :Standard Resolution Formation Density {F11.4}
SP   .MV                                               :Spontaneous Potential {F11.4}
TNPH .CFCF                                             :Thermal Neutron Porosity (Ratio Method) in Selected Lithology {F11.4}
#-----------------------------------------------------------------------------
# 
#     DEPT       AF10       AF20       AF30       AF60       AF90       AO10       AO20       AO30       AO60       AO90       AT10       AT20       AT30       AT60       AT90     AHFCO60      AHMF      AHORT      AHORX      AHSCA     AHTCO10    AHTCO20    AHTCO30    AHTCO60    AHTCO90     AHTD1      AHTD2      AHTRT      AHTRX       CDF        CFTC       CNTC       CTEM       DCAL       DNPH       DPHZ       DSOZ       ECGR        ED        GDEV        GR        GTEM       HCAL       HDRA       HDRB       HGR        HMIN       HMNO       HNPO       HPRA       HTNP        ND        NPHI       NPOR       PEFZ    PXND_HILT     RHOZ       RSOZ     RWA_HILT     RXO8       RXOZ        SP        SPAR       STIT       TENS       TNPH     HTNP_SAN
#
~A  DEPT AT10 AT30 AT90 GR HCAL HDRA NPHI PEFZ RHOZ SP TNPH
# ...
6361.0 2.2963 2.1959 2.1334 106.9474 7.7796 0.0031 0.2938 3.1964 2.5295 -479.6339 0.3103
6361.5 2.3200 2.2340 2.1684 101.0595 7.8018 0.0047 0.3039 3.1407 2.5284 -479.8393 0.2853
6362.0 2.3478 2.2660 2.1942 103.0410 7.8241 0.0066 0.3032 3.0765 2.5229 -479.9219 0.2941
6362.5 2.3052 2.2258 2.1574 109.3821 7.8018 0.0066 0.3261 3.0452 2.5116 -479.8359 0.2976
6363.0 2.2894 2.1937 2.1247 107.7969 7.7796 0.0044 0.2980 3.0141 2.5048 -479.9286 0.3191
6363.5 2.2857 2.1908 2.1250 104.0317 7.7907 0.0017 0.3010 3.0011 2.5077 -479.7656 0.2885
6364.0 2.3200 2.2147 2.1481 102.4464 7.7573 -0.0009 0.3019 2.9913 2.5090 -479.8661 0.2903
6364.5 2.3512 2.2471 2.1757 112.5523 7.7685 0.0008 0.3078 3.0231 2.5097 -479.9375 0.2887
6365.0 2.3440 2.2434 2.1718 111.1087 7.7573 0.0062 0.2953 3.0638 2.5189 -479.6964 0.3005
6365.5 2.2826 2.2037 2.1379 109.5232 7.7573 0.0091 0.2827 3.0861 2.5184 -479.6016 0.2907
6366.0 2.2259 2.1316 2.0686 105.3059 7.7351 0.0148 0.2994 3.0819 2.5291 -479.3929 0.2803
6366.5 2.2259 2.1203 2.0644 106.3529 7.7351 0.0138 0.3153 3.0381 2.5232 -479.3828 0.2890
6367.0 2.3302 2.2114 2.1483 112.6942 7.7351 0.0125 0.3094 3.0073 2.5311 -479.4196 0.2989
6367.5 2.4178 2.3075 2.2428 106.4095 7.7796 0.0056 0.2970 2.9899 2.5294 -479.3203 0.2862
6368.0 2.3942 2.3002 2.2344 108.9861 7.7796 0.0039 0.2982 3.0087 2.5314 -479.4286 0.2876
6368.5 2.3939 2.2731 2.2320 110.7694 7.8130 0.0085 0.3180 3.0427 2.5287 -479.2188 0.2945
6369.0 2.3847 2.2445 2.1905 117.5063 7.7796 0.0089 0.3071 3.0588 2.5116 -479.2679 0.3121
6369.5 2.4927 2.3423 2.2841 122.2620 7.7351 0.0098 0.2983 3.0296 2.4986 -479.3438 0.2964
6370.0 2.5578 2.4548 2.3904 117.5341 7.7128 0.0045 0.2872 2.9668 2.4887 -479.1641 0.2780
6370.5 2.6524 2.5196 2.4454 114.5623 7.7351 0.0022 0.2972 2.9174 2.4971 -479.3661 0.2719
6371.0 2.7585 2.6181 2.5387 106.4094 7.7573 -0.0030 0.2892 2.9237 2.5007 -479.3516 0.2768
6371.5 2.8815 2.7533 2.6563 102.8147 7.7351 -0.0023 0.2880 2.9401 2.5166 -479.2411 0.2706
6372.0 2.8997 2.7870 2.7230 106.6923 7.7796 -0.0004 0.2922 2.9463 2.5256 -479.2344 0.2812
6372.5 2.8029 2.7059 2.6519 107.8249 7.8018 0.0024 0.2946 2.9404 2.5352 -479.2411 0.2887
6373.0 2.7751 2.6492 2.6081 113.5714 7.8018 0.0024 0.2868 2.9449 2.5348 -479.2266 0.2946
6373.5 2.7551 2.6258 2.5886 113.6568 7.7685 0.0015 0.2898 2.9527 2.5336 -479.1607 0.2831
6374.0 2.7404 2.6176 2.5814 115.2421 7.7573 0.0013 0.2927 2.9579 2.5362 -479.1250 0.2822
6374.5 2.7214 2.5971 2.5589 118.4127 7.7573 0.0009 0.2950 2.9837 2.5308 -479.3125 0.2800
6375.0 2.7228 2.5943 2.5546 113.3451 7.7796 0.0016 0.2937 3.0340 2.5180 -479.1484 0.2839
6375.5 2.6553 2.5415 2.4912 114.0247 7.7685 0.0059 0.3074 3.0900 2.5071 -479.1964 0.2904
6376.0 2.6268 2.4659 2.4488 115.6099 7.7573 0.0180 0.3193 3.1391 2.5103 -479.1406 0.3023
6376.5 2.6090 2.4342 2.3873 121.8662 7.7573 0.0333 0.3237 3.1870 2.5275 -478.9464 0.3080
6377.0 2.6877 2.5008 2.4360 119.8274 7.7573 0.0421 0.3160 3.2768 2.5710 -478.9688 0.3063
6377.5 2.7661 2.5394 2.4320 112.2975 7.7573 0.0328 0.3001 3.4846 2.6096 -479.0893 0.2920
6378.0 2.8467 2.6843 2.5269 104.6827 7.8018 0.0199 0.2698 3.7614 2.6515 -479.4141 0.2778
6378.5 2.8082 2.6939 2.5756 96.4170 7.7128 0.0213 0.2541 3.8787 2.6579 -479.4464 0.2606
6379.0 2.5170 2.3749 2.3192 97.0395 7.7796 0.0316 0.2568 3.7009 2.6267 -479.3125 0.2653
6379.5 2.3033 2.1932 2.1165 104.6546 7.6461 0.0404 0.2731 3.3547 2.5743 -479.3304 0.2730
6380.0 2.2680 2.1290 2.0560 113.1468 7.6239 0.0380 0.3134 3.1090 2.5277 -479.3984 0.2765
6380.5 2.2726 2.1242 2.0561 116.6857 7.6906 0.0340 0.3226 3.0433 2.5107 -479.5357 0.2976
6381.0 2.2594 2.1528 2.0815 112.9207 7.6684 0.0301 0.3233 3.0786 2.5063 -479.4453 0.3044
6381.5 2.2299 2.1524 2.0926 119.2900 7.7796 0.0220 0.2947 3.1104 2.5041 -479.0179 0.3030
6382.0 2.2125 2.1161 2.0751 121.6394 7.7796 0.0128 0.2943 3.1109 2.4983 -478.8906 0.2893
6382.5 2.2032 2.1086 2.0547 127.1878 7.8018 0.0059 0.3179 3.0909 2.4948 -478.8281 0.2867
6383.0 2.2233 2.1332 2.0714 121.2714 7.8241 0.0051 0.3317 3.0739 2.4941 -478.8482 0.3025
6383.5 2.2467 2.1494 2.0929 115.5533 7.7796 0.0079 0.3409 3.0449 2.4950 -479.0714 0.3175
6384.0 2.2772 2.1885 2.1267 105.9283 7.7907 0.0104 0.3294 3.0120 2.4967 -479.2188 0.3291
6384.5 2.4059 2.2574 2.1851 106.0983 7.8018 0.0170 0.3189 3.0081 2.5103 -479.1563 0.3174
6385.0 2.5424 2.4579 2.3757 100.7197 7.8018 0.0165 0.3076 3.0368 2.5123 -479.0714 0.3047
6385.5 2.5528 2.4885 2.4063 101.8237 7.7796 0.0165 0.2923 3.0755 2.5099 -478.9766 0.2958
6386.0 2.3207 2.2788 2.2078 102.5596 7.7796 0.0104 0.3137 3.0580 2.4897 -479.2589 0.2868
6386.5 2.2187 2.1440 2.0831 105.3623 7.8018 0.0131 0.3194 3.0284 2.4851 -479.1875 0.3088
6387.0 2.1346 2.0652 2.0023 115.3548 7.7796 0.0210 0.3368 3.0068 2.4907 -479.3125 0.3157
6387.5 2.1439 2.0742 2.0081 117.7893 7.8018 0.0294 0.3164 3.0315 2.5043 -479.3828 0.3298
6388.0 2.1757 2.0932 2.0230 123.3658 7.7796 0.0318 0.3148 3.0819 2.5152 -479.2768 0.3112
6388.5 2.1964 2.1166 2.0405 123.0829 7.7573 0.0281 0.3090 3.1389 2.5171 -479.3672 0.3148
6389.0 2.2263 2.1389 2.0617 126.7631 7.7796 0.0247 0.3253 3.1762 2.5184 -479.1250 0.3052
6389.5 2.1911 2.1088 2.0354 129.3108 7.7573 0.0248 0.3161 3.1875 2.5163 -479.1719 0.3188
6390.0 2.1658 2.0868 2.0102 123.4796 7.7573 0.0232 0.3281 3.1823 2.5121 -479.2143 0.3085
6390.5 2.1365 2.0678 1.9988 119.7995 7.7573 0.0229 0.3337 3.1726 2.5116 -479.1484 0.3142
6391.0 2.1616 2.0863 2.0158 121.7808 7.7907 0.0166 0.3395 3.1499 2.5023 -479.2321 0.3230
6391.5 2.1949 2.1263 2.0543 125.6306 7.7573 0.0177 0.3357 3.1312 2.4995 -479.3438 0.3238
6392.0 2.2337 2.1498 2.0751 120.9314 7.7573 0.0203 0.3086 3.1077 2.4845 -479.4643 0.3145
6392.5 2.1928 2.1441 2.0633 119.3468 7.6239 0.0299 0.3236 3.0745 2.4866 -479.1797 0.2945
6393.0 2.1679 2.1131 2.0458 115.1855 7.6684 0.0364 0.3170 3.0284 2.4880 -478.8438 0.3105
6393.5 2.1609 2.0985 2.0319 116.5161 7.6684 0.0353 0.3327 3.0056 2.5024 -479.0536 0.3083
6394.0 2.2002 2.1426 2.0755 112.8919 7.7128 0.0310 0.3186 3.0373 2.5106 -479.1250 0.3189
6394.5 2.2205 2.1555 2.0954 113.8826 7.7128 0.0284 0.3207 3.1096 2.5176 -479.4297 0.3041
6395.0 2.1793 2.1065 2.0569 112.4955 7.7351 0.0280 0.2977 3.1724 2.5124 -479.5781 0.3141
6395.5 2.0976 2.0477 2.0040 113.8545 7.7573 0.0308 0.3079 3.2019 2.5186 -479.4821 0.2964
6396.0 2.0154 1.9681 1.9389 112.6655 7.7351 0.0247 0.3032 3.1681 2.5136 -479.5268 0.3033
6396.5 1.9617 1.9182 1.8927 116.3456 7.7351 0.0236 0.3269 3.1187 2.5136 -479.4844 0.2949
6397.0 1.9252 1.8818 1.8598 119.7992 7.7796 0.0212 0.3344 3.0900 2.5064 -479.3594 0.3160
6397.5 1.8788 1.8292 1.8119 118.9500 7.7573 0.0175 0.3445 3.1164 2.5055 -478.9732 0.3220
6398.0 1.8186 1.7567 1.7367 122.8001 7.7796 0.0100 0.3318 3.1747 2.5070 -478.7188 0.3348
6398.5 1.8620 1.7726 1.7455 122.2904 7.7573 0.0129 0.3133 3.2313 2.5239 -478.8036 0.3204
6399.0 1.9510 1.8713 1.8263 130.8682 7.7351 0.0237 0.3114 3.2153 2.5309 -479.0469 0.2989
6399.5 1.9890 1.9162 1.8658 132.6798 7.7573 0.0424 0.3379 3.1702 2.5368 -479.1786 0.3026
6400.0 2.0346 1.9499 1.8908 131.2081 7.7573 0.0480 0.2965 3.1271 2.5181 -479.3438 0.2717
6400.5 2.0765 1.9922 1.9216 125.8007 7.7351 0.0462 0.2887 3.1359 2.5080 -479.0446 0.2746
6401.0 2.0972 2.0142 1.9364 126.5649 7.7351 0.0351 0.2642 3.1531 2.5001 -478.8594 0.2709
6401.5 2.1062 2.0146 1.9365 119.6575 7.7351 0.0200 0.2699 3.1465 2.4984 -478.8929 0.2499
6402.0 2.1080 2.0138 1.9337 117.1384 7.8018 0.0108 0.2676 3.2470 2.5266 -479.0078 0.2544
6402.5 2.1372 2.0635 1.9718 106.8342 7.7351 0.0012 0.2757 3.4921 2.5498 -479.0536 0.2476
6403.0 2.1572 2.0772 2.0024 108.4193 7.7796 0.0077 0.2917 3.7186 2.5816 -479.3203 0.2585
6403.5 2.0637 1.9853 1.9291 111.3920 7.6906 0.0166 0.3109 3.7083 2.5708 -479.2143 0.2792
6404.0 1.9997 1.9231 1.8839 117.7330 7.7685 0.0219 0.2895 3.4552 2.5445 -479.1953 0.2955
6404.5 1.9955 1.9114 1.8646 123.0550 7.8018 0.0196 0.2706 3.2139 2.5138 -479.3393 0.2714
6405.0 2.0187 1.9377 1.8896 124.6401 7.7573 0.0116 0.2699 3.0985 2.4952 -479.3047 0.2500
6405.5 2.0238 1.9567 1.9092 120.4789 7.7796 0.0132 0.2819 3.0964 2.5015 -479.0446 0.2515
