~VERSION INFORMATION
VERS.           2.0   :CWLS Log ASCII Standard - VERSION 2.0
WRAP.           NO    :One Line per depth step
PROD.  Schlumberger   :LAS Producer
PROG.  DLIS to ASCII 19C2-270                          :LAS Program name and version
CREA.        2013/08/28 17:00                          :LAS Creation date {YYYY/MM/DD hh:mm}
DLIS_CREA.  2013-Aug-28 16:23                          :DLIS Creation date and time {YYYY-MMM-DD hh:mm}
SOURCE.     Bear_Oil_Marquardt_43_31_Main_DLIS.dlis    :DLIS File Name
FILE-ID.     MaxWell_5Dlis                             :File Identification Number
#--------------------------------------------------
~WELL INFORMATION
#MNEM.UNIT      DATA             DESCRIPTION
#---- ------ --------------   -----------------------------
STRT .F      1000.5          :START DEPTH        # original; data subset to 5500-8000
STOP .F      7710.0          :STOP DEPTH        # original; data subset to 5500-8000
STEP .F       0.5            :STEP     
NULL .          -999.25      :NULL VALUE
COMP .        Bear Oil and Gas, Inc.                   :COMPANY
WELL .        Marquardt 43 31                          :WELL
FLD  .        Wildcat                                  :FIELD
LOC  .        NESE 1627' FSL & 170' FEL                :LOCATION
CNTY .        Laramie                                  :COUNTY
STAT .        Wyoming                                  :STATE
CTRY .        United States                            :COUNTRY
API  .        049-021-21034                            :API NUMBER
UWI  .        049021210340000                          :UNIQUE WELL ID
DATE .        28-Aug-2013                              :LOG DATE {DD-MMM-YYYY}
SRVC .        Schlumberger                             :SERVICE COMPANY
LATI .DEG     41.306700 degrees                        :LATITUDE
LONG .DEG     -104.11980 degrees                       :LONGITUDE
GDAT .                                                 :GeoDetic Datum
SECT .        31                                       :Section
RANG .        60W                                      :Range
TOWN .        16N                                      :Township
#-----------------------------------------------------------------------------
~PARAMETER INFORMATION
#MNEM.UNIT    VALUE                      DESCRIPTION
#---- -----   --------------------       ------------------------
CN   .        Bear Oil and Gas  Inc.     :Company Name
WN   .        Marquardt 43 31            :Well Name
FN   .        Wildcat                    :Field Name
FL   .        NESE 1627' FSL & 170' FEL  :Field Location
FL1  .        Sec. 31  T. 16N  R. 60W    :Field Location, Line 1
COUN .        Laramie                    :County or Parish
STAT .        Wyoming                    :State or Province
NATI .        United States              :Nation
DATE .        28-Aug-2013                :Tools Above Rotary Table Date
APIN .        049-021-21034              :API Well Number
SECT .        31                         :Section
TOWN .        16N                        :Township
RANG .        60W                        :Range
DMF  .        KB                         :Drilling Measured From (Name of Drilling Elevation Reference)
LMF  .        KB                         :Logging Measured From (Name of Logging Elevation Reference)
PDAT .        GL                         :Permanent Datum
ENGI .        Max Pace                   :Engineer s Name
WITN .        Terry Eittreim             :Witness s Name
LATI .        41.306700 degrees          :Latitude
LONG .        -104.11980 degrees         :Longitude
LUL  .        Fort Morgan  CO            :Logging Unit Location
LUN  .        3022                       :Logging Unit Number
RUN  .        Run 1                      :Run Number
SON  .        CA0R-00043                 :Service Order Number
BHT  .DEGF     166.00000                 :Bottom Hole Temperature
BS   .IN         7.87500                 :Bit Size
MDEN .G/C3       2.65000                 :Matrix Density for Density Porosity
DFD  .LB/G       8.90000                 :Drilling Fluid Density
DFV  .S         65.00000                 :Drilling Fluid Viscosity
DFL  .C3         9.00000                 :Drilling Fluid Loss
RMFS .OHMM       1.11000                 :Resistivity of Mud Filtrate Sample
EKB  .F       5298.00000                 :Elevation of Kelly Bushing
EGL  .F       5286.00000                 :Elevation of Ground Level
BLI  .F       7686.00000                 :Bottom Log Interval
BSAL .PPM     3335.81519                 :Borehole Salinity
FLEV .F          8.00000                 :Depth of Drilling Fluid Level to LMF (Log Measured From)
MCST .DEGF      83.00000                 :Mudcake Sample Temperature
MFST .DEGF      83.00000                 :Mud Filtrate Sample Temperature
MRT  .DEGF     166.00000                 :Maximum Recorded Temperature
MST  .DEGF      83.00000                 :Mud Sample Temperature
RMCS .OHMM       1.85000                 :Resistivity of Mud Cake Sample
RMS  .OHMM       1.48000                 :Resistivity of Mud Sample
RW   .OHMM       1.00000                 :Connate Water Resistivity
TDD  .F       7680.00000                 :Driller Total Depth
TDL  .F       7686.00000                 :Logger Total Depth
TLI  .F       1025.00000                 :Top Log Interval
HIDE .        Wildcat                    :Header Identifier
MATR .        SAND                       :Rock Matrix for Neutron Porosity Corrections
FNUM .           1.00000                 :F-Numerator for Formation Factor Formula
FEXP .           2.00000                 :Exponent "m" for Formation Factor Formula
DFT  .        WATER                      :Drilling Fluid Type
DFPH .           8.00000                 :Drilling Fluid pH
MCSS .        Calculated                 :Mudcake Sample Source
MFSS .        Calculated                 :Mud Filtrate Sample Source
FD   .G/C3       1.00000                 :Fluid Density
MSS  .        Active Tank                :Mud Sample Source
OS1  .                                   :Other Services Line 1
OS2  .                                   :Other Services Line 2
OS3  .                                   :Other Services Line 3
OS4  .                                   :Other Services Line 4
OS5  .                                   :Other Services Line 5
R1   .                                   :Remarks Line 1
R2   .                                   :Remarks Line 2
R3   .                                   :Remarks Line 3
R4   .                                   :Remarks Line 4
R5   .                                   :Remarks Line 5
R6   .                                   :Remarks Line 6
R7   .                                   :Remarks Line 7
R8   .                                   :Remarks Line 8
TCS  .        05 00 00                   :Time Circulation Stopped
TLAB .        14 30 25                   :Time Logger At Bottom
NMT  .        NOBARITE                   :HRDD Mud Type for Nuclear Devices
EPD  .F         5286.000000              :Elevation of Permanent Datum above Mean Sea Level
APD  .F          12.000000               :Elevation of Depth Reference (LMF) above Permanent Datum
#-----------------------------------------------------------------------------
~CURVE INFORMATION
#MNEM.UNIT   API CODE                                  DESCRIPTION
#---- -----  --------                                  -----------------------
DEPT .F                                                :DEPTH (BOREHOLE) {F10.1}
AT10 .OHMM                                             :Array Induction Two Foot Resistivity A10 {F11.4}
AT30 .OHMM                                             :Array Induction Two Foot Resistivity A30 {F11.4}
AT90 .OHMM                                             :Array Induction Two Foot Resistivity A90 {F11.4}
GR   .GAPI                                             :Gamma Ray {F11.4}
HCAL .IN                                               :HRCC Caliper Calibrated {F11.4}
HDRA .G/C3                                             :Density Standoff Correction {F11.4}
NPHI .CFCF                                             :Thermal Neutron Porosity (original Ratio Method) in Selected Lithology {F11.4}
PEFZ .                                                 :Standard Resolution Formation Photoelectric Factor {F11.4}
RHOZ .G/C3                                             :Standard Resolution Formation Density {F11.4}
SP   .MV                                               :Spontaneous Potential {F11.4}
TNPH .CFCF                                             :Thermal Neutron Porosity (Ratio Method) in Selected Lithology {F11.4}
#-----------------------------------------------------------------------------
# 
#     DEPT       AF10       AF20       AF30       AF60       AF90       AO10       AO20       AO30       AO60       AO90       AT10       AT20       AT30       AT60       AT90     AHFCO60      AHMF      AHORT      AHORX      AHSCA     AHTCO10    AHTCO20    AHTCO30    AHTCO60    AHTCO90     AHTD1      AHTD2      AHTRT      AHTRX       CDF        CFTC       CNTC       CTEM       DCAL       DNPH       DPHZ       DSOZ       ECGR        ED        GDEV        GR        GTEM       HCAL       HDRA       HDRB       HGR        HMIN       HMNO       HNPO       HPRA       HTNP        ND        NPHI       NPOR       PEFZ    PXND_HILT     RHOZ       RSOZ     RWA_HILT     RXO8       RXOZ        SP        SPAR       STIT       TENS       TNPH     HTNP_SAN
#
~A  DEPT AT10 AT30 AT90 GR HCAL HDRA NPHI PEFZ RHOZ SP TNPH
# ...
6682.0 7.1897 7.2542 6.7982 98.6183 7.8517 -0.0057 0.2144 4.7715 2.4721 -93.8661 0.1863
6682.5 7.3002 7.4215 7.0526 86.9475 7.8403 -0.0034 0.1926 4.7383 2.4846 -92.8359 0.1862
6683.0 7.4558 7.6030 7.2097 82.5383 7.8403 -0.0016 0.1841 4.6938 2.4902 -92.6429 0.1761
6683.5 7.5531 7.7692 7.4010 89.4763 7.8631 -0.0012 0.1867 4.6433 2.4875 -92.7143 0.1715
6684.0 7.5556 7.8408 7.4914 90.7732 7.8403 0.0001 0.1887 4.5646 2.4897 -92.7500 0.1719
6684.5 7.9312 8.3239 7.9741 94.1449 7.8859 0.0002 0.1794 4.5742 2.4836 -92.3393 0.1715
6685.0 8.3207 8.9514 8.5139 100.1420 7.8859 0.0002 0.1963 4.6326 2.4752 -91.0391 0.1655
6685.5 8.9131 9.4316 8.9594 108.7002 7.8859 -0.0004 0.2185 4.7129 2.4650 -89.7411 0.1815
6686.0 9.1343 9.5342 9.1403 107.1443 7.8859 -0.0011 0.2372 4.7926 2.4598 -89.7143 0.1989
6686.5 9.1698 9.7070 9.2304 107.3715 7.8631 -0.0011 0.2166 4.8302 2.4632 -89.6696 0.2128
6687.0 9.1454 9.7900 9.0932 104.6809 7.9087 -0.0029 0.2147 4.8640 2.4616 -87.8036 0.1946
6687.5 8.9360 9.8160 9.4538 117.3888 7.8859 -0.0047 0.2020 4.8327 2.4610 -84.9063 0.2024
6688.0 8.2455 9.0265 8.6758 118.6850 7.8859 -0.0065 0.2024 4.7867 2.4621 -82.5982 0.1942
6688.5 7.4500 7.7963 7.6197 123.7101 7.9087 -0.0069 0.1936 4.7014 2.4730 -80.7589 0.2025
6689.0 7.2015 7.1429 6.9808 119.8201 7.9087 -0.0064 0.2107 4.5956 2.4836 -79.8571 0.1952
6689.5 7.4494 7.5782 7.2277 120.1121 7.8859 -0.0036 0.2274 4.4844 2.4977 -79.5078 0.2031
6690.0 8.0870 8.0959 7.8358 113.1093 7.8859 -0.0014 0.2170 4.4144 2.5186 -79.3036 0.2017
6690.5 7.3621 7.9142 7.5053 103.2542 7.8859 -0.0007 0.2001 4.4088 2.5340 -78.4911 0.1882
6691.0 6.9674 7.1751 6.9546 99.0723 7.9087 -0.0048 0.1858 4.5048 2.5308 -77.8304 0.1773
6691.5 6.8156 7.0312 6.7257 100.6281 7.8859 -0.0040 0.1978 4.5828 2.5145 -77.4297 0.1745
6692.0 6.5169 6.7611 6.4618 110.9047 7.8859 -0.0043 0.2082 4.5842 2.5063 -76.7589 0.1945
6692.5 6.3956 6.3924 6.1034 117.3886 7.9087 -0.0014 0.2261 4.4925 2.5069 -76.1786 0.1989
6693.0 7.1085 7.1072 6.8776 130.3565 7.8859 -0.0046 0.2214 4.4765 2.4975 -76.0536 0.2135
6693.5 7.8970 8.0005 7.3930 132.7876 7.9087 -0.0016 0.2082 4.5099 2.4958 -76.1328 0.1980
6694.0 8.4068 8.6034 7.9121 123.9695 7.8859 0.0071 0.1982 4.5729 2.5034 -76.3929 0.1752
6694.5 8.5098 8.6694 8.0928 107.3716 7.8859 0.0085 0.1820 4.6183 2.5209 -77.1607 0.1644
6695.0 8.5565 8.9761 8.4051 93.8208 7.8859 0.0052 0.1715 4.6247 2.5324 -77.4732 0.1565
6695.5 7.9487 8.7043 8.3363 95.6362 7.8859 -0.0053 0.1564 4.6241 2.5319 -76.6875 0.1596
6696.0 7.2990 7.4497 7.3630 105.7504 7.8859 -0.0049 0.1632 4.4996 2.5406 -75.1016 0.1572
6696.5 6.6247 6.6718 6.5722 116.9673 7.8631 -0.0041 0.1898 4.4166 2.5409 -74.5000 0.1678
6697.0 7.1805 7.0051 6.7678 128.3787 7.8859 -0.0021 0.2246 4.3369 2.5409 -74.1429 0.1859
6697.5 7.0731 7.1862 6.8718 131.1670 7.8859 -0.0022 0.2400 4.3719 2.5259 -74.3661 0.2051
6698.0 7.3659 7.5078 7.1208 132.4634 7.8859 -0.0023 0.2296 4.4246 2.5149 -74.6071 0.2188
6698.5 6.9882 7.2494 6.9597 121.8304 7.8859 -0.0022 0.2188 4.4660 2.5191 -73.8516 0.2095
6699.0 6.1844 6.2341 6.0858 111.2615 7.8745 -0.0020 0.2183 4.4610 2.5418 -73.6964 0.2027
6699.5 5.6811 5.7360 5.4894 98.0672 7.8859 -0.0018 0.2252 4.4559 2.5680 -74.4911 0.2038
6700.0 5.8381 5.8566 5.5481 94.1768 7.8859 -0.0011 0.2132 4.4197 2.5829 -74.7411 0.2054
6700.5 5.9097 5.9281 5.6051 100.4011 7.8859 -0.0004 0.1963 4.3519 2.5802 -74.1484 0.1973
6701.0 6.1775 6.1311 5.7504 109.1868 7.8631 0.0008 0.2009 4.2578 2.5726 -74.1964 0.1915
6701.5 6.5661 6.6062 6.1998 116.1891 7.8631 0.0014 0.2151 4.2088 2.5633 -74.6161 0.1956
6702.0 7.0011 7.0435 6.5432 115.5410 7.8631 0.0016 0.2227 4.1934 2.5580 -74.9554 0.1957
6702.5 7.5525 7.5796 7.1434 120.7280 7.8859 -0.0005 0.2134 4.2438 2.5434 -75.0938 0.1915
6703.0 7.3395 7.8351 7.3886 126.4337 7.8859 -0.0028 0.1984 4.2965 2.5276 -74.3661 0.1900
6703.5 7.0308 7.2039 6.9114 123.7107 7.8859 -0.0055 0.2204 4.3605 2.5106 -73.8661 0.1913
6704.0 6.5315 6.5856 6.4190 118.2639 7.8859 -0.0043 0.2371 4.3307 2.5096 -74.0000 0.2094
6704.5 6.7521 6.6108 6.3577 114.9574 7.8859 -0.0031 0.2405 4.2841 2.5104 -74.2656 0.2253
6705.0 6.9658 7.1566 6.8094 125.8505 7.8859 -0.0021 0.2336 4.2387 2.5096 -74.0446 0.2226
6705.5 6.8535 7.1421 6.9058 144.2644 7.8631 -0.0026 0.2422 4.1912 2.5069 -73.3929 0.2165
6706.0 6.3031 6.5028 6.2932 151.2017 7.8859 -0.0031 0.2485 4.1322 2.5092 -73.2946 0.2280
6706.5 5.9766 6.0182 5.8590 153.0166 7.8859 -0.0021 0.2468 4.0341 2.5248 -73.4196 0.2329
6707.0 5.7588 5.7471 5.5334 142.4162 7.8859 -0.0015 0.2157 3.9768 2.5385 -73.2344 0.2267
6707.5 5.6106 5.6415 5.4383 140.6013 7.8859 -0.0023 0.2323 3.9951 2.5404 -73.0536 0.2023
6708.0 5.5605 5.5673 5.3370 136.7108 7.8631 -0.0047 0.2404 4.0934 2.5301 -73.1071 0.2195
6708.5 5.5225 5.4743 5.2790 132.2692 7.8859 -0.0051 0.2588 4.1354 2.5267 -73.3036 0.2253
6709.0 5.5740 5.4923 5.2219 123.1919 7.8859 -0.0013 0.2424 4.1508 2.5382 -74.0234 0.2344
6709.5 5.8478 5.7271 5.4491 116.1896 7.8859 0.0029 0.2414 4.1076 2.5475 -74.4375 0.2163
6710.0 6.0037 5.9998 5.6727 113.1418 7.8631 0.0016 0.2349 4.1688 2.5339 -74.7321 0.2130
6710.5 6.3961 6.4428 6.0682 113.6601 7.8859 -0.0030 0.2259 4.1992 2.5168 -74.7321 0.2080
6711.0 6.0708 6.3282 5.9494 115.4758 7.8631 -0.0075 0.2232 4.2321 2.5080 -74.4018 0.2036
6711.5 5.8553 6.0465 5.7158 112.2989 7.8631 -0.0082 0.2357 4.1878 2.5175 -74.3047 0.2135
6712.0 5.8658 5.9715 5.6278 118.6858 7.8631 0.0016 0.2468 4.1977 2.5216 -74.9821 0.2293
6712.5 6.1506 6.2841 5.9578 116.3512 7.8631 0.0038 0.2470 4.3481 2.5187 -75.7679 0.2333
6713.0 6.5127 6.6925 6.3493 119.2042 7.8859 0.0043 0.2330 4.5394 2.5155 -75.6339 0.2253
6713.5 7.2096 7.1846 6.7744 116.4485 7.8859 -0.0045 0.2280 4.6582 2.5103 -76.4196 0.2101
6714.0 7.8474 8.3457 7.7123 124.2290 7.8859 -0.0045 0.2191 4.5907 2.5076 -76.6719 0.2059
6714.5 8.2947 8.6956 8.2855 133.8252 7.8631 -0.0040 0.2295 4.4772 2.4975 -76.5179 0.2048
6715.0 7.3397 8.5695 8.2344 141.0868 7.8859 -0.0044 0.2320 4.3423 2.4892 -76.2411 0.2193
6715.5 7.1739 7.6429 7.3886 146.7925 7.8859 -0.0044 0.2404 4.1990 2.4894 -75.7109 0.2181
6716.0 6.5742 6.8745 6.8089 149.6458 7.8859 -0.0041 0.2351 4.0745 2.4931 -75.3036 0.2285
6716.5 7.0657 7.1979 6.9447 147.6359 7.8631 -0.0037 0.2347 4.0073 2.4957 -75.1071 0.2226
6717.0 7.1520 7.5323 7.1446 149.7109 7.8745 -0.0036 0.2292 4.0048 2.4920 -74.6607 0.2241
6717.5 6.9795 7.3601 6.9778 151.7851 7.8859 -0.0026 0.2400 4.0013 2.4863 -74.2589 0.2283
6718.0 6.8973 7.1444 6.8662 162.0941 7.8631 0.0000 0.2546 3.9814 2.4882 -73.8828 0.2360
6718.5 6.9285 7.1412 6.9154 163.3914 7.8859 0.0021 0.2579 3.9340 2.4944 -73.9375 0.2381
6719.0 6.9978 7.2489 6.9037 163.3910 7.8859 0.0020 0.2586 3.8755 2.4973 -73.6607 0.2447
6719.5 6.7700 7.0180 6.7330 163.2938 7.9087 -0.0025 0.2723 3.8484 2.4845 -73.3214 0.2510
6720.0 6.6899 6.7999 6.5071 160.7007 7.8859 -0.0076 0.2715 3.8348 2.4681 -73.2500 0.2619
6720.5 6.7225 6.9612 6.6382 161.2195 7.8859 -0.0103 0.2687 3.8562 2.4575 -73.1607 0.2534
6721.0 6.7064 6.9235 6.6289 158.4639 7.9087 -0.0095 0.2523 3.8327 2.4609 -73.0089 0.2485
6721.5 6.3378 6.5122 6.2197 162.6131 7.9087 -0.0087 0.2617 3.8402 2.4628 -72.8036 0.2371
6722.0 6.0097 6.2282 5.9182 164.6880 7.9087 -0.0072 0.2826 3.8286 2.4742 -72.6484 0.2459
6722.5 5.7264 5.8968 5.5948 164.6883 7.9087 -0.0036 0.2843 3.8279 2.4969 -72.7679 0.2693
6723.0 5.3852 5.5610 5.2888 159.7606 7.9315 -0.0005 0.2911 3.7960 2.5197 -72.8929 0.2770
6723.5 5.4893 5.5053 5.2583 154.0546 7.9544 0.0002 0.2637 3.7825 2.5273 -73.0268 0.2743
6724.0 5.6158 5.7365 5.4035 155.3522 7.9544 -0.0023 0.2699 3.7674 2.5145 -72.8281 0.2518
6724.5 5.5465 5.6655 5.3985 157.8154 7.9544 -0.0045 0.2679 3.7667 2.5003 -72.5000 0.2570
6725.0 5.5267 5.5616 5.3668 158.5942 7.9544 -0.0044 0.2734 3.7164 2.4996 -72.7143 0.2530
6725.5 5.4636 5.5144 5.3122 150.0347 7.9772 -0.0039 0.2737 3.6915 2.5058 -72.7946 0.2542
6726.0 5.3995 5.4556 5.2436 149.9056 7.9544 -0.0025 0.2703 3.6723 2.5199 -73.1250 0.2483
6726.5 5.1710 5.2389 5.0938 155.0600 7.9544 -0.0033 0.2702 3.7352 2.5220 -73.5078 0.2558
6727.0 4.9142 4.9337 4.8521 155.0600 7.9658 -0.0050 0.2670 3.8043 2.5162 -72.6518 0.2595
