~VERSION INFORMATION
VERS.           1.2   :CWLS Log ASCII Standard - VERSION 1.2
WRAP.           NO    :One Line per depth step
PROD.  Schlumberger   :LAS Producer
PROG.  DLIS to ASCII 17C0-152                          :LAS Program name and version
CREA.        2013/08/16 09:04                          :LAS Creation date {YYYY/MM/DD hh:mm}
DLIS_CREA.  2013-Aug-16 00:16                          :DLIS Creation date and time {YYYY-MMM-DD hh:mm}
SOURCE.     960568ea-4174-41e0-a405-0f32a02141a6       :DLIS File Name
#--------------------------------------------------
~WELL INFORMATION
#MNEM.UNIT      DATA             DESCRIPTION
#---- ------ --------------   -----------------------------
STRT .F      457.0000        :START DEPTH        # original; data subset to 5500-8000
STOP .F      7701.0000       :STOP DEPTH        # original; data subset to 5500-8000
STEP .F       0.5000         :STEP       
NULL .          -999.25      :NULL VALUE
COMP .                 COMPANY:  Bear Oil & Gas, Inc.               
WELL .                    WELL:  Fornstrom 13-32A                   
FLD  .                   FIELD:  Wildcat                            
LOC  .                LOCATION:  SHL: NWSW 1925' FSL & 540" FWL     
CNTY .                  COUNTY:  Laramie                            
STAT .                   STATE:  Wyoming                            
CTRY .                 COUNTRY:  United States                      
SRVC .         SERVICE COMPANY:  Schlumberger                       
LATI .DEG             LATITUDE:  41.307320 degrees                  
LONG .DEG            LONGITUDE:  -104.11715 degrees                 
API  .              API NUMBER:  49-021-21022                       
DATE .                LOG DATE:  15-Aug-2013
UWI  .          UNIQUE WELL ID:  49021210220000                     
#-----------------------------------------------------------------------------
~PARAMETER INFORMATION
#MNEM.UNIT    VALUE                      DESCRIPTION
#---- -----   --------------------       ------------------------
CN   .        Bear Oil & Gas  Inc.       :Company Name
WN   .        Fornstrom 13-32A           :Well Name
FN   .        Wildcat                    :Field Name
FL   .        SHL  NWSW 1925' FSL & 540  FWL :Field Location
FL1  .        Sec. 32  T. 16N  R. 60W    :Field Location, Line 1
COUN .        Laramie                    :County or Parish
STAT .        Wyoming                    :State or Province
NATI .        United States              :Nation
DATE .        15-Aug-2013                :Tools Above Rotary Table Date
APIN .        49-021-21022               :API Well Number
SECT .        32                         :Section
TOWN .        16N                        :Township
RANG .        60W                        :Range
DMF  .        KB                         :Drilling Measured From (Name of Drilling Elevation Reference)
LMF  .        KB                         :Logging Measured From (Name of Logging Elevation Reference)
PDAT .        GL                         :Permanent Datum
ENGI .        Max Pace                   :Engineer s Name
WITN .        Tery Eittreim              :Witness s Name
LATI .        41.307320 degrees          :Latitude
LONG .        -104.11715 degrees         :Longitude
LUL  .        Fort Morgan  CO            :Logging Unit Location
LUN  .        3030                       :Logging Unit Number
RUN  .        Run 1                      :Run Number
SON  .        CA0R-00040                 :Service Order Number
BHT  .DEGF     168.00000                 :Bottom Hole Temperature
BS   .IN         7.87500                 :Bit Size
MDEN .G/C3       2.65000                 :Matrix Density for Density Porosity
DFD  .LB/G       8.80000                 :Drilling Fluid Density
DFV  .S         36.00000                 :Drilling Fluid Viscosity
DFL  .C3         5.00000                 :Drilling Fluid Loss
RMFS .OHMM       1.11000                 :Resistivity of Mud Filtrate Sample
EKB  .F       5298.00000                 :Elevation of Kelly Bushing
EGL  .F       5286.00000                 :Elevation of Ground Level
BLI  .F       7687.00000                 :Bottom Log Interval
BSAL .PPM     3295.90967                 :Borehole Salinity
FLEV .F          8.00000                 :Depth of Drilling Fluid Level to LMF (Log Measured From)
MCST .DEGF      84.00000                 :Mudcake Sample Temperature
MFST .DEGF      84.00000                 :Mud Filtrate Sample Temperature
MRT  .DEGF     168.00000                 :Maximum Recorded Temperature
MST  .DEGF      84.00000                 :Mud Sample Temperature
RMCS .OHMM       1.85000                 :Resistivity of Mud Cake Sample
RMS  .OHMM       1.48000                 :Resistivity of Mud Sample
RW   .OHMM       1.00000                 :Connate Water Resistivity
TDD  .F       7680.00000                 :Driller Total Depth
TDL  .F       7687.00000                 :Logger Total Depth
TLI  .F       1026.25000                 :Top Log Interval
HIDE .        Wildcat                    :Header Identifier
MATR .        SAND                       :Rock Matrix for Neutron Porosity Corrections
FNUM .           1.00000                 :F-Numerator for Formation Factor Formula
FEXP .           2.00000                 :Exponent "m" for Formation Factor Formula
DFT  .        Fresh Water                :Drilling Fluid Type
DFPH .           8.50000                 :Drilling Fluid pH
MCSS .        Calculated                 :Mudcake Sample Source
MFSS .        Calculated                 :Mud Filtrate Sample Source
FD   .G/C3       1.00000                 :Fluid Density
MSS  .        Active Tank                :Mud Sample Source
OS1  .                                   :Other Services Line 1
OS2  .                                   :Other Services Line 2
OS3  .                                   :Other Services Line 3
OS4  .                                   :Other Services Line 4
OS5  .                                   :Other Services Line 5
R1   .                                   :Remarks Line 1
R2   .                                   :Remarks Line 2
R3   .                                   :Remarks Line 3
R4   .                                   :Remarks Line 4
R5   .                                   :Remarks Line 5
R6   .                                   :Remarks Line 6
R7   .                                   :Remarks Line 7
R8   .                                   :Remarks Line 8
TCS  .        14 00 00                   :Time Circulation Stopped
TLAB .        22 20 59                   :Time Logger At Bottom
NMT  .        NOBARITE                   :HRDD Mud Type for Nuclear Devices
EPD  .F         5286.000000              :Elevation of Permanent Datum above Mean Sea Level
APD  .F          12.000000               :Elevation of Depth Reference (LMF) above Permanent Datum
#-----------------------------------------------------------------------------
~CURVE INFORMATION
#MNEM.UNIT   API CODE                                  DESCRIPTION
#---- -----  --------                                  -----------------------
DEPT .F                                                :DEPTH (BOREHOLE) {F12.4}
AT10 .OHMM                                             :Array Induction Two Foot Resistivity A10 {F11.4}
AT30 .OHMM                                             :Array Induction Two Foot Resistivity A30 {F11.4}
AT90 .OHMM                                             :Array Induction Two Foot Resistivity A90 {F11.4}
GR   .GAPI                                             :Gamma Ray {F11.4}
HCAL .IN                                               :HRCC Caliper Calibrated {F11.4}
HDRA .G/C3                                             :Density Standoff Correction {F11.4}
NPHI .CFCF                                             :Thermal Neutron Porosity (original Ratio Method) in Selected Lithology {F11.4}
PEFZ .                                                 :Standard Resolution Formation Photoelectric Factor {F11.4}
RHOZ .G/C3                                             :Standard Resolution Formation Density {F11.4}
SP   .MV                                               :Spontaneous Potential {F11.4}
TNPH .CFCF                                             :Thermal Neutron Porosity (Ratio Method) in Selected Lithology {F11.4}
#-----------------------------------------------------------------------------
# 
#      DEPT        AF10       AF20       AF30       AF60       AF90       AO10       AO20       AO30       AO60       AO90       AT10       AT20       AT30       AT60       AT90     AHFCO60      AHMF      AHORT      AHORX      AHSCA     AHTCO10    AHTCO20    AHTCO30    AHTCO60    AHTCO90     AHTD1      AHTD2      AHTRT      AHTRX       CDF        CFTC       CNTC       CTEM       DCAL       DNPH       DPHZ       DSOZ       ECGR        ED        GDEV        GR        GTEM       HCAL       HDRA       HDRB       HGR        HMIN       HMNO       HNPO       HPRA       HTNP        ND        NPHI       NPOR       PEFZ    PXND_HILT     RHOZ       RSOZ     RWA_HILT     RXO8       RXOZ        SP        SPAR       STIT       TENS       TNPH     HTNP_SAN
#
~A  DEPT AT10 AT30 AT90 GR HCAL HDRA NPHI PEFZ RHOZ SP TNPH
# ...
6212.5000 2.9939 2.7721 2.6389 99.8386 7.7374 0.0006 0.2980 3.0157 2.5401 55.9554 0.2863
6213.0000 3.0637 2.8600 2.7245 103.7144 7.7374 -0.0005 0.2961 2.9607 2.5486 55.8906 0.2861
6213.5000 3.1012 2.8939 2.7519 103.4719 7.7374 -0.0022 0.2859 2.9845 2.5521 56.0357 0.2897
6214.0000 3.1468 2.9361 2.7952 100.0803 7.7489 -0.0033 0.2857 3.0105 2.5578 56.0703 0.2774
6214.5000 3.1893 2.9835 2.8467 103.9563 7.7374 -0.0028 0.2937 3.0891 2.5508 56.1161 0.2779
6215.0000 3.2107 3.0162 2.8803 102.5032 7.7374 -0.0040 0.3020 3.1385 2.5552 56.3750 0.2772
6215.5000 3.2208 3.0295 2.8990 108.7721 7.7374 -0.0030 0.2951 3.1666 2.5544 56.1953 0.2854
6216.0000 3.2277 3.0392 2.9115 108.1365 7.7374 -0.0039 0.2767 3.1017 2.5578 56.3839 0.2879
6216.5000 3.2267 3.0402 2.9127 110.0744 7.7374 -0.0006 0.2651 3.0149 2.5615 56.4107 0.2665
6217.0000 3.2535 3.0513 2.9213 108.1362 7.7605 0.0028 0.2602 2.9545 2.5815 56.2813 0.2551
6217.5000 3.2945 3.0774 2.9488 102.4126 7.7489 0.0029 0.2722 2.9460 2.5939 56.5625 0.2521
6218.0000 3.2250 3.0453 2.9180 102.1698 7.7374 0.0006 0.2782 2.9788 2.5911 56.2321 0.2676
6218.5000 3.1956 2.9960 2.8813 102.8969 7.7836 -0.0043 0.2896 2.9900 2.5667 56.2891 0.2747
6219.0000 3.1930 2.9885 2.8654 104.1689 7.7605 -0.0084 0.2937 3.0150 2.5425 56.3304 0.2819
6219.5000 3.1984 3.0053 2.8747 105.5317 7.7605 -0.0106 0.2949 3.0319 2.5314 56.2411 0.2799
6220.0000 3.2091 3.0105 2.8728 103.5931 7.7605 -0.0085 0.2903 3.0158 2.5399 56.2857 0.2840
6220.5000 3.1909 2.9961 2.8619 104.3199 7.7374 -0.0053 0.2884 2.9861 2.5462 56.0859 0.2855
6221.0000 3.1814 2.9808 2.8406 105.1379 7.7374 -0.0018 0.2869 2.9421 2.5457 56.0714 0.2839
6221.5000 3.1573 2.9714 2.8312 107.5304 7.7374 -0.0017 0.2928 2.9349 2.5329 56.1161 0.2796
6222.0000 3.2051 2.9865 2.8399 109.7104 7.7374 -0.0022 0.2875 2.9485 2.5272 55.9922 0.2804
6222.5000 3.2470 3.0356 2.8861 108.0145 7.7374 -0.0008 0.2895 2.9638 2.5382 55.9375 0.2788
6223.0000 3.2476 3.0476 2.8949 105.4711 7.7143 -0.0005 0.2885 2.9833 2.5455 56.1071 0.2839
6223.5000 3.2028 3.0021 2.8572 105.9559 7.7605 -0.0021 0.3000 2.9974 2.5465 56.5804 0.2820
6224.0000 3.1946 3.0040 2.8662 114.1926 7.7374 -0.0050 0.2869 2.9831 2.5428 56.7344 0.2904
6224.5000 3.2071 3.0169 2.8813 110.7099 7.7374 -0.0058 0.2807 2.9596 2.5470 56.4911 0.2759
6225.0000 3.1950 3.0120 2.8827 113.8890 7.7374 -0.0050 0.2705 2.9393 2.5528 56.2109 0.2694
6225.5000 3.1949 3.0005 2.8768 100.0808 7.7374 -0.0058 0.2857 2.9675 2.5493 56.1607 0.2665
6226.0000 3.2125 3.0154 2.8927 102.7457 7.7374 -0.0079 0.2857 3.0177 2.5416 56.1339 0.2828
6226.5000 3.2702 3.0650 2.9409 96.1751 7.7489 -0.0087 0.2806 3.0407 2.5403 55.9375 0.2762
6227.0000 3.3150 3.1190 2.9912 101.9889 7.7374 -0.0073 0.2734 3.0229 2.5458 55.9141 0.2702
6227.5000 3.3759 3.1536 3.0220 102.2307 7.7374 -0.0068 0.2663 3.0187 2.5443 56.2679 0.2580
6228.0000 3.3361 3.1539 3.0197 111.1945 7.7374 -0.0077 0.2714 3.0534 2.5332 56.1071 0.2521
6228.5000 3.2398 3.0609 2.9362 111.1944 7.7374 -0.0080 0.2689 3.0657 2.5309 56.1484 0.2629
6229.0000 3.1556 2.9767 2.8542 105.6226 7.7605 -0.0056 0.2764 3.0212 2.5425 56.3214 0.2701
6229.5000 3.1239 2.9624 2.8372 99.3232 7.7374 -0.0050 0.2844 2.9813 2.5516 56.0625 0.2760
6230.0000 3.1422 2.9523 2.8234 98.6876 7.7374 -0.0068 0.2893 3.0047 2.5484 56.0268 0.2722
6230.5000 3.1888 3.0066 2.8678 102.0795 7.7374 -0.0073 0.3060 3.0645 2.5411 55.9844 0.2760
6231.0000 3.2253 3.0397 2.8839 107.6519 7.7374 -0.0074 0.2904 3.0791 2.5411 55.7232 0.2928
6231.5000 3.2352 3.0482 2.8915 102.9881 7.7374 -0.0073 0.2787 3.0620 2.5362 55.7321 0.2785
6232.0000 3.2263 3.0433 2.8987 102.7458 7.7374 -0.0092 0.2697 3.0223 2.5317 55.9375 0.2710
6232.5000 3.1598 2.9869 2.8454 98.1428 7.7374 -0.0078 0.2741 2.9914 2.5298 56.2578 0.2573
6233.0000 3.1126 2.9319 2.8075 102.2311 7.7143 -0.0060 0.2762 2.9658 2.5334 56.5536 0.2663
6233.5000 3.0590 2.9231 2.7962 105.2287 7.7258 -0.0046 0.2723 2.9691 2.5308 56.5357 0.2693
6234.0000 3.0920 2.9014 2.7828 104.0174 7.7374 -0.0022 0.2763 2.9808 2.5324 56.5313 0.2687
6234.5000 3.1513 2.9668 2.8447 107.6510 7.7143 -0.0030 0.2835 2.9969 2.5422 56.3036 0.2704
6235.0000 3.2361 3.0384 2.9086 107.8630 7.7143 -0.0020 0.2762 2.9997 2.5636 56.1696 0.2671
6235.5000 3.0820 2.9188 2.8036 106.4095 7.7374 -0.0029 0.2808 2.9896 2.5769 56.4609 0.2664
6236.0000 3.0132 2.8362 2.7215 100.3535 7.7374 -0.0014 0.2833 2.9604 2.5764 56.5625 0.2740
6236.5000 2.9727 2.7995 2.6918 100.7772 7.7374 -0.0008 0.3042 2.9070 2.5717 56.5089 0.2801
6237.0000 2.9503 2.7790 2.6672 101.5038 7.7605 -0.0003 0.2979 2.8784 2.5644 56.3393 0.2972
6237.5000 2.9259 2.7674 2.6495 100.7768 7.7605 0.0029 0.3051 2.8867 2.5677 56.1250 0.2922
6238.0000 2.9088 2.7496 2.6325 102.2309 7.7143 0.0057 0.2898 2.9206 2.5632 56.2054 0.3005
6238.5000 2.9010 2.7292 2.6153 106.6821 7.7605 0.0071 0.2909 2.9431 2.5570 56.0313 0.2839
6239.0000 2.8933 2.7374 2.6153 108.1356 7.7952 0.0048 0.3043 2.9248 2.5461 56.2500 0.2795
6239.5000 2.9558 2.7693 2.6460 109.5898 7.7836 0.0030 0.3001 2.9219 2.5484 56.3929 0.2890
6240.0000 3.0638 2.8453 2.7176 99.8393 7.7836 0.0003 0.2989 2.9418 2.5476 56.2679 0.2855
6240.5000 3.1740 2.9606 2.8175 96.2056 7.7605 0.0007 0.2760 2.9944 2.5485 56.4141 0.2829
6241.0000 3.2795 3.0876 2.9434 91.8441 7.7605 0.0046 0.2805 3.0122 2.5525 56.6250 0.2679
6241.5000 3.2772 3.0900 2.9497 96.0835 7.6680 0.0067 0.2873 2.9661 2.5599 56.7768 0.2753
6242.0000 3.2947 3.0866 2.9536 102.6242 7.7143 0.0041 0.2934 2.9593 2.5606 56.6719 0.2753
6242.5000 3.3593 3.1697 3.0293 100.4440 7.6911 -0.0037 0.2926 3.0019 2.5543 56.2143 0.2810
6243.0000 3.3788 3.1808 3.0440 96.9012 7.6911 -0.0080 0.2800 3.0717 2.5523 56.1607 0.2824
6243.5000 3.2831 3.1120 2.9864 95.2052 7.6911 -0.0077 0.2705 3.0266 2.5584 56.1071 0.2726
6244.0000 3.2334 3.0567 2.9391 97.3855 7.6911 -0.0054 0.2815 2.9068 2.5637 56.5234 0.2659
6244.5000 3.1546 2.9921 2.8774 106.3492 7.6796 -0.0039 0.2953 2.8456 2.5652 56.8036 0.2740
6245.0000 3.1350 2.9498 2.8409 110.3773 7.7143 -0.0043 0.2946 2.8843 2.5630 56.5893 0.2862
6245.5000 3.1915 3.0119 2.8930 106.0166 7.6911 -0.0063 0.2787 2.9792 2.5550 56.5938 0.2811
6246.0000 3.2361 3.0535 2.9226 103.8362 7.7143 -0.0066 0.2682 3.0012 2.5532 56.4821 0.2709
6246.5000 3.1986 3.0197 2.8935 101.0802 7.6911 -0.0068 0.2653 2.9844 2.5497 56.3036 0.2605
6247.0000 3.1761 2.9940 2.8712 103.7452 7.7143 -0.0074 0.2731 3.0028 2.5433 56.5000 0.2553
6247.5000 3.1475 2.9660 2.8430 100.8382 7.6911 -0.0052 0.2799 3.0213 2.5486 56.2857 0.2642
6248.0000 3.1261 2.9314 2.8167 98.5977 7.6911 -0.0028 0.2721 3.0318 2.5560 56.3929 0.2733
6248.5000 3.1725 2.9900 2.8555 101.1109 7.6911 -0.0016 0.2709 2.9963 2.5644 56.4732 0.2680
6249.0000 3.2297 3.0377 2.9099 99.8992 7.6911 -0.0047 0.2676 3.0213 2.5540 56.6406 0.2599
6249.5000 3.1552 2.9767 2.8543 100.8680 7.7143 -0.0075 0.2905 3.0539 2.5419 57.0714 0.2522
6250.0000 3.1205 2.9308 2.8152 104.2596 7.7143 -0.0087 0.2930 3.0643 2.5323 57.0391 0.2718
6250.5000 3.1401 2.9314 2.8151 101.5951 7.7143 -0.0087 0.3115 3.0238 2.5302 57.0804 0.2821
6251.0000 3.1417 2.9561 2.8225 101.5951 7.7143 -0.0085 0.3003 3.0084 2.5279 57.0089 0.3049
6251.5000 3.1234 2.9348 2.8064 102.4430 7.7374 -0.0048 0.2988 2.9916 2.5407 56.4766 0.2938
6252.0000 3.1015 2.9160 2.7914 111.8908 7.7143 -0.0016 0.2975 3.0111 2.5523 56.6607 0.2972
6252.5000 3.0790 2.9032 2.7791 114.5554 7.7143 -0.0000 0.2998 3.0414 2.5621 56.7411 0.2909
6253.0000 3.0216 2.8411 2.7180 109.7402 7.7143 -0.0033 0.3084 3.0911 2.5539 56.7891 0.2929
6253.5000 2.9238 2.7446 2.6315 102.3514 7.7143 -0.0065 0.3057 3.1176 2.5368 56.8750 0.3001
6254.0000 2.8746 2.6885 2.5817 98.4757 7.6911 -0.0076 0.3117 3.0601 2.5322 56.4911 0.3010
6254.5000 2.9420 2.7345 2.6182 100.1714 7.7143 -0.0061 0.3005 2.9859 2.5499 56.7054 0.3040
6255.0000 3.0062 2.8242 2.7022 106.5312 7.7374 -0.0026 0.2758 2.9278 2.5736 56.5703 0.2940
6255.5000 2.9235 2.7544 2.6314 112.1027 7.6911 -0.0017 0.2810 2.9380 2.5700 56.4464 0.2735
6256.0000 2.8555 2.6777 2.5583 115.2218 7.6911 -0.0032 0.2806 2.9981 2.5468 56.5268 0.2748
6256.5000 2.9163 2.7284 2.6099 107.2877 7.6911 -0.0058 0.3020 3.0364 2.5335 56.5313 0.2686
