~VERSION INFORMATION
VERS.           1.2   :CWLS Log ASCII Standard - VERSION 1.2
WRAP.           NO    :One Line per depth step
PROD.  Schlumberger   :LAS Producer
PROG.  DLIS to ASCII 17C0-152                          :LAS Program name and version
CREA.        2013/08/16 09:04                          :LAS Creation date {YYYY/MM/DD hh:mm}
DLIS_CREA.  2013-Aug-16 00:16                          :DLIS Creation date and time {YYYY-MMM-DD hh:mm}
SOURCE.     960568ea-4174-41e0-a405-0f32a02141a6       :DLIS File Name
#--------------------------------------------------
~WELL INFORMATION
#MNEM.UNIT      DATA             DESCRIPTION
#---- ------ --------------   -----------------------------
STRT .F      457.0000        :START DEPTH        # original; data subset to 5500-8000
STOP .F      7701.0000       :STOP DEPTH        # original; data subset to 5500-8000
STEP .F       0.5000         :STEP       
NULL .          -999.25      :NULL VALUE
COMP .                 COMPANY:  Bear Oil & Gas, Inc.               
WELL .                    WELL:  Fornstrom 13-32A                   
FLD  .                   FIELD:  Wildcat                            
LOC  .                LOCATION:  SHL: NWSW 1925' FSL & 540" FWL     
CNTY .                  COUNTY:  Laramie                            
STAT .                   STATE:  Wyoming                            
CTRY .                 COUNTRY:  United States                      
SRVC .         SERVICE COMPANY:  Schlumberger                       
LATI .DEG             LATITUDE:  41.307320 degrees                  
LONG .DEG            LONGITUDE:  -104.11715 degrees                 
API  .              API NUMBER:  49-021-21022                       
DATE .                LOG DATE:  15-Aug-2013
UWI  .          UNIQUE WELL ID:  49021210220000                     
#-----------------------------------------------------------------------------
~PARAMETER INFORMATION
#MNEM.UNIT    VALUE                      DESCRIPTION
#---- -----   --------------------       ------------------------
CN   .        Bear Oil & Gas  Inc.       :Company Name
WN   .        Fornstrom 13-32A           :Well Name
FN   .        Wildcat                    :Field Name
FL   .        SHL  NWSW 1925' FSL & 540  FWL :Field Location
FL1  .        Sec. 32  T. 16N  R. 60W    :Field Location, Line 1
COUN .        Laramie                    :County or Parish
STAT .        Wyoming                    :State or Province
NATI .        United States              :Nation
DATE .        15-Aug-2013                :Tools Above Rotary Table Date
APIN .        49-021-21022               :API Well Number
SECT .        32                         :Section
TOWN .        16N                        :Township
RANG .        60W                        :Range
DMF  .        KB                         :Drilling Measured From (Name of Drilling Elevation Reference)
LMF  .        KB                         :Logging Measured From (Name of Logging Elevation Reference)
PDAT .        GL                         :Permanent Datum
ENGI .        Max Pace                   :Engineer s Name
WITN .        Tery Eittreim              :Witness s Name
LATI .        41.307320 degrees          :Latitude
LONG .        -104.11715 degrees         :Longitude
LUL  .        Fort Morgan  CO            :Logging Unit Location
LUN  .        3030                       :Logging Unit Number
RUN  .        Run 1                      :Run Number
SON  .        CA0R-00040                 :Service Order Number
BHT  .DEGF     168.00000                 :Bottom Hole Temperature
BS   .IN         7.87500                 :Bit Size
MDEN .G/C3       2.65000                 :Matrix Density for Density Porosity
DFD  .LB/G       8.80000                 :Drilling Fluid Density
DFV  .S         36.00000                 :Drilling Fluid Viscosity
DFL  .C3         5.00000                 :Drilling Fluid Loss
RMFS .OHMM       1.11000                 :Resistivity of Mud Filtrate Sample
EKB  .F       5298.00000                 :Elevation of Kelly Bushing
EGL  .F       5286.00000                 :Elevation of Ground Level
BLI  .F       7687.00000                 :Bottom Log Interval
BSAL .PPM     3295.90967                 :Borehole Salinity
FLEV .F          8.00000                 :Depth of Drilling Fluid Level to LMF (Log Measured From)
MCST .DEGF      84.00000                 :Mudcake Sample Temperature
MFST .DEGF      84.00000                 :Mud Filtrate Sample Temperature
MRT  .DEGF     168.00000                 :Maximum Recorded Temperature
MST  .DEGF      84.00000                 :Mud Sample Temperature
RMCS .OHMM       1.85000                 :Resistivity of Mud Cake Sample
RMS  .OHMM       1.48000                 :Resistivity of Mud Sample
RW   .OHMM       1.00000                 :Connate Water Resistivity
TDD  .F       7680.00000                 :Driller Total Depth
TDL  .F       7687.00000                 :Logger Total Depth
TLI  .F       1026.25000                 :Top Log Interval
HIDE .        Wildcat                    :Header Identifier
MATR .        SAND                       :Rock Matrix for Neutron Porosity Corrections
FNUM .           1.00000                 :F-Numerator for Formation Factor Formula
FEXP .           2.00000                 :Exponent "m" for Formation Factor Formula
DFT  .        Fresh Water                :Drilling Fluid Type
DFPH .           8.50000                 :Drilling Fluid pH
MCSS .        Calculated                 :Mudcake Sample Source
MFSS .        Calculated                 :Mud Filtrate Sample Source
FD   .G/C3       1.00000                 :Fluid Density
MSS  .        Active Tank                :Mud Sample Source
OS1  .                                   :Other Services Line 1
OS2  .                                   :Other Services Line 2
OS3  .                                   :Other Services Line 3
OS4  .                                   :Other Services Line 4
OS5  .                                   :Other Services Line 5
R1   .                                   :Remarks Line 1
R2   .                                   :Remarks Line 2
R3   .                                   :Remarks Line 3
R4   .                                   :Remarks Line 4
R5   .                                   :Remarks Line 5
R6   .                                   :Remarks Line 6
R7   .                                   :Remarks Line 7
R8   .                                   :Remarks Line 8
TCS  .        14 00 00                   :Time Circulation Stopped
TLAB .        22 20 59                   :Time Logger At Bottom
NMT  .        NOBARITE                   :HRDD Mud Type for Nuclear Devices
EPD  .F         5286.000000              :Elevation of Permanent Datum above Mean Sea Level
APD  .F          12.000000               :Elevation of Depth Reference (LMF) above Permanent Datum
#-----------------------------------------------------------------------------
~CURVE INFORMATION
#MNEM.UNIT   API CODE                                  DESCRIPTION
#---- -----  --------                                  -----------------------
DEPT .F                                                :DEPTH (BOREHOLE) {F12.4}
AT10 .OHMM                                             :Array Induction Two Foot Resistivity A10 {F11.4}
AT30 .OHMM                                             :Array Induction Two Foot Resistivity A30 {F11.4}
AT90 .OHMM                                             :Array Induction Two Foot Resistivity A90 {F11.4}
GR   .GAPI                                             :Gamma Ray {F11.4}
HCAL .IN                                               :HRCC Caliper Calibrated {F11.4}
HDRA .G/C3                                             :Density Standoff Correction {F11.4}
NPHI .CFCF                                             :Thermal Neutron Porosity (original Ratio Method) in Selected Lithology {F11.4}
PEFZ .                                                 :Standard Resolution Formation Photoelectric Factor {F11.4}
RHOZ .G/C3                                             :Standard Resolution Formation Density {F11.4}
SP   .MV                                               :Spontaneous Potential {F11.4}
TNPH .CFCF                                             :Thermal Neutron Porosity (Ratio Method) in Selected Lithology {F11.4}
#-----------------------------------------------------------------------------
# 
#      DEPT        AF10       AF20       AF30       AF60       AF90       AO10       AO20       AO30       AO60       AO90       AT10       AT20       AT30       AT60       AT90     AHFCO60      AHMF      AHORT      AHORX      AHSCA     AHTCO10    AHTCO20    AHTCO30    AHTCO60    AHTCO90     AHTD1      AHTD2      AHTRT      AHTRX       CDF        CFTC       CNTC       CTEM       DCAL       DNPH       DPHZ       DSOZ       ECGR        ED        GDEV        GR        GTEM       HCAL       HDRA       HDRB       HGR        HMIN       HMNO       HNPO       HPRA       HTNP        ND        NPHI       NPOR       PEFZ    PXND_HILT     RHOZ       RSOZ     RWA_HILT     RXO8       RXOZ        SP        SPAR       STIT       TENS       TNPH     HTNP_SAN
#
~A  DEPT AT10 AT30 AT90 GR HCAL HDRA NPHI PEFZ RHOZ SP TNPH
# ...
6390.5000 2.3676 2.2282 2.1478 129.0902 7.8067 0.1035 0.3414 3.2586 2.5115 56.9196 0.3396
6391.0000 2.3289 2.1853 2.1113 120.6119 7.7836 0.1085 0.3570 3.3191 2.5282 57.3750 0.3452
6391.5000 2.3525 2.1862 2.1131 117.0086 7.8299 0.1029 0.3629 3.3353 2.5371 57.5078 0.3505
6392.0000 2.3553 2.2025 2.1297 119.6731 7.8761 0.0963 0.3755 3.3041 2.5479 57.2679 0.3449
6392.5000 2.3548 2.2029 2.1306 122.3377 7.8992 0.0880 0.3544 3.2319 2.5430 57.7232 0.3561
6393.0000 2.3083 2.1682 2.0971 133.9967 7.8530 0.0846 0.3434 3.1528 2.5331 57.3828 0.3424
6393.5000 2.2791 2.1296 2.0642 133.9966 7.8530 0.0781 0.3711 3.0894 2.5156 57.4375 0.3325
6394.0000 2.2643 2.0923 2.0238 132.0586 7.8299 0.0774 0.3622 3.0859 2.5150 57.3750 0.3527
6394.5000 2.2733 2.1100 2.0326 122.9434 7.8067 0.0729 0.3463 3.1265 2.5153 57.0804 0.3529
6395.0000 2.2793 2.1319 2.0516 118.8255 7.8299 0.0690 0.3165 3.1785 2.5202 57.6250 0.3377
6395.5000 2.2761 2.1088 2.0278 121.0057 7.8992 0.0614 0.3336 3.1703 2.5188 57.3393 0.3194
6396.0000 2.2919 2.1262 2.0188 123.3375 7.8992 0.0590 0.3571 3.1160 2.5208 57.0982 0.3329
6396.5000 2.3580 2.1935 2.0690 124.3066 7.8645 0.0634 0.3564 3.0591 2.5229 57.2969 0.3323
6397.0000 2.4277 2.2438 2.1129 118.7343 7.9686 0.0654 0.3400 3.0591 2.5180 57.0089 0.3246
6397.5000 2.6615 2.4368 2.2598 113.6467 7.8530 0.0735 0.3240 3.1241 2.5251 57.1797 0.3273
6398.0000 3.0236 2.7572 2.5567 109.7705 7.8299 0.0779 0.3181 3.1988 2.5385 57.0446 0.3093
6398.5000 2.9294 2.6323 2.4443 107.1062 7.8299 0.0805 0.3148 3.2119 2.5616 57.0804 0.3069
6399.0000 2.6193 2.4143 2.2620 111.1340 7.9686 0.0753 0.3246 3.1446 2.5650 57.3516 0.3094
6399.5000 2.4248 2.2655 2.1477 115.7370 7.8299 0.0684 0.3192 3.0632 2.5514 57.3750 0.3218
6400.0000 2.3146 2.1761 2.0721 119.4615 7.8067 0.0667 0.3291 3.0220 2.5311 57.6875 0.3153
6400.5000 2.2361 2.1036 2.0226 119.0373 7.7605 0.0696 0.3281 3.0462 2.5076 57.5469 0.3223
6401.0000 2.2066 2.0820 1.9986 118.0683 7.7721 0.0797 0.3474 3.0905 2.5074 57.3750 0.3229
6401.5000 2.2293 2.0871 2.0094 118.7046 7.7836 0.0905 0.3430 3.1307 2.5088 57.6429 0.3414
6402.0000 2.2655 2.1047 2.0298 119.9158 7.8067 0.0996 0.3531 3.1463 2.5230 57.1406 0.3358
6402.5000 2.2931 2.1454 2.0635 123.0653 7.9454 0.1028 0.3462 3.1620 2.5253 56.9911 0.3427
6403.0000 2.3109 2.1588 2.0853 118.4013 7.8530 0.1044 0.3260 3.1929 2.5240 57.0234 0.3439
6403.5000 2.2620 2.1247 2.0578 117.1899 7.9454 0.1041 0.3244 3.2181 2.5284 57.1607 0.3290
6404.0000 2.2423 2.1024 2.0435 121.5507 7.8530 0.1022 0.3431 3.2081 2.5167 57.3661 0.3258
6404.5000 2.2146 2.0908 2.0336 128.8792 7.8992 0.1011 0.3667 3.1583 2.5166 56.8750 0.3310
6405.0000 2.2139 2.0793 2.0246 128.0312 7.8761 0.0864 0.3610 3.0902 2.5098 57.0982 0.3463
6405.5000 2.2357 2.1014 2.0420 123.9128 7.7836 0.0713 0.3525 3.0488 2.5210 56.9196 0.3372
6406.0000 2.2551 2.1087 2.0504 128.0310 7.8299 0.0559 0.3426 3.0460 2.5152 56.9375 0.3413
6406.5000 2.2337 2.1085 2.0466 126.9406 7.8414 0.0582 0.3599 3.0590 2.5012 56.8125 0.3387
6407.0000 2.2165 2.0777 2.0189 129.1206 7.7836 0.0742 0.3497 3.0788 2.5003 56.7054 0.3482
6407.5000 2.2275 2.0705 2.0091 134.4501 7.8299 0.0821 0.3535 3.0862 2.5006 57.1953 0.3325
6408.0000 2.2803 2.1304 2.0586 138.5086 7.8414 0.0784 0.3404 3.1023 2.5233 57.2321 0.3322
6408.5000 2.3178 2.1626 2.0917 138.5082 7.7605 0.0548 0.3277 3.1354 2.5448 57.4922 0.3223
6409.0000 2.3129 2.1391 2.0680 123.9728 7.8067 0.0349 0.3163 3.1948 2.5658 57.5625 0.3236
6409.5000 2.2494 2.1079 2.0327 122.9132 7.7952 0.0316 0.3061 3.2631 2.5820 57.2589 0.3194
6410.0000 2.1425 2.0098 1.9475 115.6460 7.7605 0.0392 0.3058 3.2557 2.5579 57.6328 0.3138
6410.5000 2.0750 1.9400 1.8898 121.4602 7.8067 0.0486 0.3124 3.1843 2.5359 57.1696 0.3045
6411.0000 2.0244 1.8839 1.8243 119.1884 7.8299 0.0463 0.3116 3.0903 2.5079 57.2578 0.3037
6411.5000 1.9861 1.8525 1.7926 126.2136 7.7605 0.0415 0.3213 3.0373 2.5011 57.5179 0.3024
6412.0000 1.9679 1.8404 1.7786 127.0617 7.8761 0.0311 0.3354 3.0338 2.5026 57.4821 0.3070
6412.5000 1.9659 1.8212 1.7588 129.7267 7.7952 0.0295 0.3535 3.0890 2.5209 57.6719 0.3194
6413.0000 2.0397 1.8929 1.8249 133.8452 7.7836 0.0414 0.3629 3.1565 2.5376 57.3036 0.3313
6413.5000 2.1119 1.9643 1.8877 126.4257 7.8530 0.0565 0.3465 3.1478 2.5240 57.1641 0.3411
6414.0000 2.0966 1.9418 1.8714 125.2148 7.8067 0.0682 0.3310 3.0519 2.5048 57.1250 0.3400
6414.5000 2.1009 1.9437 1.8726 121.3386 7.8299 0.0672 0.3322 2.9652 2.4882 56.9554 0.3310
6415.0000 2.1541 1.9920 1.9173 135.7528 7.7836 0.0707 0.3481 2.9581 2.5062 57.2578 0.3271
6415.5000 2.2075 2.0256 1.9524 133.5720 7.7258 0.0714 0.3483 2.9924 2.5002 56.8839 0.3385
6416.0000 2.2026 2.0452 1.9725 129.9385 7.7836 0.0715 0.3369 3.0145 2.4932 57.0625 0.3279
6416.5000 2.2179 2.0531 1.9811 125.2757 7.8067 0.0665 0.3225 3.0293 2.4891 57.3438 0.3193
6417.0000 2.2354 2.0734 2.0002 130.3627 7.8067 0.0601 0.3173 3.0735 2.5037 57.3661 0.3158
6417.5000 2.2775 2.1101 2.0324 126.4868 7.7374 0.0599 0.3103 3.1638 2.5320 57.6406 0.3126
6418.0000 2.3306 2.1561 2.0707 120.7628 7.8183 0.0700 0.3015 3.2401 2.5363 57.3036 0.3136
6418.5000 2.2340 2.1074 2.0181 118.0987 7.8067 0.0880 0.3138 3.2403 2.5375 57.2500 0.3050
6419.0000 2.1452 1.9898 1.9140 124.1547 7.7605 0.0889 0.3195 3.1445 2.5149 57.3281 0.3129
6419.5000 2.0799 1.9470 1.8736 127.7584 7.8183 0.0863 0.3363 3.0628 2.4996 57.0982 0.3078
6420.0000 2.1130 1.9629 1.8834 128.2429 7.8761 0.0877 0.3317 3.0431 2.4894 57.5938 0.3216
6420.5000 2.1166 1.9770 1.8952 129.6964 7.7836 0.1067 0.3637 3.0632 2.4935 57.4107 0.3200
6421.0000 2.1035 1.9654 1.8878 123.3374 7.8761 0.1138 0.3475 3.0538 2.5014 57.1518 0.3476
6421.5000 2.1000 1.9608 1.8881 125.7596 7.8530 0.1100 0.3594 3.0188 2.5003 57.2422 0.3354
6422.0000 2.0952 1.9574 1.8910 128.6667 7.8992 0.1140 0.3314 3.0197 2.5055 56.8036 0.3373
6422.5000 2.0668 1.9402 1.8751 135.1774 7.8992 0.1293 0.3316 3.0617 2.5107 57.0714 0.3218
6423.0000 2.0230 1.8976 1.8398 131.5438 7.8992 0.1448 0.3236 3.1256 2.5078 56.8906 0.3308
6423.5000 1.9721 1.8596 1.8089 128.1523 7.8761 0.1463 0.3426 3.1589 2.4988 56.5893 0.3286
6424.0000 1.9754 1.8377 1.7867 133.7242 7.9223 0.1401 0.3587 3.1725 2.5022 56.8125 0.3338
6424.5000 1.9952 1.8537 1.7918 140.0229 7.9454 0.1251 0.3622 3.1670 2.5118 56.6875 0.3438
6425.0000 1.9722 1.8502 1.7973 134.2993 8.0841 0.1125 0.3600 3.1495 2.5198 56.9821 0.3449
6425.5000 1.9322 1.7938 1.7349 122.6711 8.1766 0.1049 0.3556 3.1072 2.5081 56.9141 0.3565
6426.0000 1.9105 1.7861 1.7248 116.4026 8.0379 0.1102 0.3854 3.0815 2.5022 56.1429 0.3495
6426.5000 1.9954 1.8448 1.7717 118.0079 8.0841 0.1116 0.3567 3.1088 2.5002 55.9286 0.3599
6427.0000 2.0669 1.9215 1.8319 123.9126 8.0264 0.1195 0.3529 3.1699 2.5102 61.8906 0.3380
6427.5000 2.1482 1.9870 1.8900 117.0993 7.8992 0.1385 0.3486 3.2039 2.5298 57.2500 0.3404
6428.0000 2.0574 1.9202 1.8361 120.5815 7.9917 0.1565 0.3865 3.1718 2.5370 57.0859 0.3444
6428.5000 2.0398 1.8812 1.8093 116.8573 7.9686 0.1624 0.3901 3.1308 2.5334 57.0893 0.3776
6429.0000 2.0415 1.8850 1.8106 126.8502 7.9223 0.1451 0.3791 3.1053 2.5110 57.4464 0.3726
6429.5000 2.1205 1.9419 1.8640 124.3370 7.9454 0.1243 0.3723 3.0882 2.5021 57.1016 0.3506
6430.0000 2.1651 2.0010 1.9167 127.6375 7.9801 0.1019 0.3651 3.0652 2.4954 56.8571 0.3454
6430.5000 2.2199 2.0545 1.9734 129.7572 7.9223 0.0864 0.3457 3.0678 2.4871 56.9821 0.3491
6431.0000 2.2270 2.0402 1.9646 131.8460 7.8992 0.0863 0.3304 3.0936 2.4716 56.5313 0.3402
6431.5000 2.1309 1.9699 1.9066 128.5458 7.8299 0.1023 0.3422 3.0978 2.4718 57.0268 0.3408
6432.0000 2.0528 1.9001 1.8384 116.0393 7.7836 0.1178 0.3661 3.0542 2.4766 57.0089 0.3344
6432.5000 2.0165 1.8745 1.8163 116.1307 8.1304 0.1251 0.3593 3.0381 2.4786 57.0234 0.3502
6433.0000 1.9880 1.8574 1.7931 115.4033 7.9570 0.1283 0.3438 3.0761 2.4760 57.4375 0.3565
6433.5000 1.9638 1.8403 1.7784 125.4874 7.9223 0.1352 0.3651 3.1342 2.4743 57.1875 0.3429
6434.0000 1.8783 1.7502 1.6971 127.5163 7.8992 0.1387 0.3988 3.1378 2.4691 57.7188 0.3550
6434.5000 1.7891 1.6737 1.6106 130.6659 7.9801 0.1322 0.4094 3.0886 2.4587 57.8036 0.3715
