~VERSION INFORMATION
VERS.           2.0   :CWLS Log ASCII Standard - VERSION 2.0
WRAP.           NO    :One Line per depth step
PROD.  Schlumberger   :LAS Producer
PROG.  DLIS to ASCII 19C1-222                          :LAS Program name and version
CREA.        2013/09/09 02:34                          :LAS Creation date {YYYY/MM/DD hh:mm}
DLIS_CREA.  2013-Sep-09 02:29                          :DLIS Creation date and time {YYYY-MMM-DD hh:mm}
SOURCE.     049-021-21038_Marquardt 44-31_Run_PEX-AIT_Mainpass.dlis  :DLIS File Name
FILE-ID.     MaxWell_4Dlis                             :File Identification Number
#--------------------------------------------------
~WELL INFORMATION
#MNEM.UNIT      DATA             DESCRIPTION
#---- ------ --------------   -----------------------------
STRT .F      952.5           :START DEPTH        # original; data subset to 5500-8000
STOP .F      7703.0          :STOP DEPTH        # original; data subset to 5500-8000
STEP .F       0.5            :STEP     
NULL .          -999.25      :NULL VALUE
COMP .        Bear Oil & Gas, Inc                      :COMPANY
WELL .        Marquardt 44-31                          :WELL
FLD  .        Wildcat                                  :FIELD
LOC  .        Lat/Long : 41.3038/-104.1202             :LOCATION
CNTY .        Laramie                                  :COUNTY
STAT .        Wyoming                                  :STATE
CTRY .        USA                                      :COUNTRY
API  .        049-021-21038                            :API NUMBER
UWI  .        049021210380000                          :UNIQUE WELL ID
DATE .        08-Sep-2013                              :LOG DATE {DD-MMM-YYYY}
SRVC .        Schlumberger                             :SERVICE COMPANY
LATI .DEG     41.303800 degrees                        :LATITUDE
LONG .DEG     -104.12020 degrees                       :LONGITUDE
GDAT .                                                 :GeoDetic Datum
SECT .        31                                       :Section
RANG .        60W                                      :Range
TOWN .        16N                                      :Township
#-----------------------------------------------------------------------------
~PARAMETER INFORMATION
#MNEM.UNIT    VALUE                      DESCRIPTION
#---- -----   --------------------       ------------------------
CN   .        Bear Oil & Gas  Inc        :Company Name
WN   .        Marquardt 44-31            :Well Name
FN   .        Wildcat                    :Field Name
FL   .        Lat/Long   41.3038/-104.1202 :Field Location
FL1  .        SHL   766' FSL X 245' FEL SESE :Field Location, Line 1
COUN .        Laramie                    :County or Parish
STAT .        Wyoming                    :State or Province
NATI .        USA                        :Nation
DATE .        08-Sep-2013                :Tools Above Rotary Table Date
APIN .        049-021-21038              :API Well Number
SECT .        31                         :Section
TOWN .        16N                        :Township
RANG .        60W                        :Range
DMF  .        KB                         :Drilling Measured From (Name of Drilling Elevation Reference)
LMF  .        KB                         :Logging Measured From (Name of Logging Elevation Reference)
PDAT .        GL                         :Permanent Datum
ENGI .        Arvin Shi                  :Engineer s Name
WITN .        Terry Eittreim             :Witness s Name
LATI .        41.303800 degrees          :Latitude
LONG .        -104.12020 degrees         :Longitude
LUL  .        Fort Morgan                :Logging Unit Location
LUN  .        3030                       :Logging Unit Number
RUN  .        Run 1                      :Run Number
SON  .        C6VJ-00075                 :Service Order Number
BHT  .DEGF     184.00000                 :Bottom Hole Temperature
BS   .IN         7.87500                 :Bit Size
MDEN .G/C3       2.65000                 :Matrix Density for Density Porosity
DFD  .LB/G       9.00000                 :Drilling Fluid Density
DFV  .S         80.00000                 :Drilling Fluid Viscosity
DFL  .C3      -999.25000                 :Drilling Fluid Loss
RMFS .OHMM       0.80250                 :Resistivity of Mud Filtrate Sample
EKB  .F       5298.00000                 :Elevation of Kelly Bushing
EGL  .F       5286.00000                 :Elevation of Ground Level
BLI  .F       7686.00000                 :Bottom Log Interval
BSAL .PPM     4641.08936                 :Borehole Salinity
FLEV .F          8.00000                 :Depth of Drilling Fluid Level to LMF (Log Measured From)
MCST .DEGF      84.00000                 :Mudcake Sample Temperature
MFST .DEGF      84.00000                 :Mud Filtrate Sample Temperature
MRT  .DEGF     184.00000                 :Maximum Recorded Temperature
MST  .DEGF      84.00000                 :Mud Sample Temperature
RMCS .OHMM       1.33750                 :Resistivity of Mud Cake Sample
RMS  .OHMM       1.07000                 :Resistivity of Mud Sample
RW   .OHMM       1.00000                 :Connate Water Resistivity
TDD  .F       7680.00000                 :Driller Total Depth
TDL  .F       7686.00000                 :Logger Total Depth
TLI  .F       1023.00000                 :Top Log Interval
HIDE .        Wildcat                    :Header Identifier
MATR .        SAND                       :Rock Matrix for Neutron Porosity Corrections
FNUM .           1.00000                 :F-Numerator for Formation Factor Formula
FEXP .           2.00000                 :Exponent "m" for Formation Factor Formula
DFT  .        Fresh Water                :Drilling Fluid Type
DFPH .        -999.25000                 :Drilling Fluid pH
MCSS .        Calculated                 :Mudcake Sample Source
MFSS .        Calculated                 :Mud Filtrate Sample Source
FD   .G/C3       1.00000                 :Fluid Density
MSS  .        Flowline                   :Mud Sample Source
OS1  .                                   :Other Services Line 1
OS2  .                                   :Other Services Line 2
OS3  .                                   :Other Services Line 3
OS4  .                                   :Other Services Line 4
OS5  .                                   :Other Services Line 5
R1   .                                   :Remarks Line 1
R2   .                                   :Remarks Line 2
R3   .                                   :Remarks Line 3
R4   .                                   :Remarks Line 4
R5   .                                   :Remarks Line 5
R6   .                                   :Remarks Line 6
R7   .                                   :Remarks Line 7
R8   .                                   :Remarks Line 8
TCS  .        15 00 00                   :Time Circulation Stopped
TLAB .        00 30 46                   :Time Logger At Bottom
NMT  .        NOBARITE                   :HRDD Mud Type for Nuclear Devices
EPD  .C3         5286.000000             :Elevation of Permanent Datum above Mean Sea Level
APD  .F          12.000000               :Elevation of Depth Reference (LMF) above Permanent Datum
#-----------------------------------------------------------------------------
~CURVE INFORMATION
#MNEM.UNIT   API CODE                                  DESCRIPTION
#---- -----  --------                                  -----------------------
DEPT .F                                                :DEPTH (BOREHOLE) {F10.1}
AT10 .OHMM                                             :Array Induction Two Foot Resistivity A10 {F11.4}
AT30 .OHMM                                             :Array Induction Two Foot Resistivity A30 {F11.4}
AT90 .OHMM                                             :Array Induction Two Foot Resistivity A90 {F11.4}
GR   .GAPI                                             :Gamma Ray {F11.4}
HCAL .IN                                               :HRCC Caliper Calibrated {F11.4}
HDRA .G/C3                                             :Density Standoff Correction {F11.4}
NPHI .CFCF                                             :Thermal Neutron Porosity (original Ratio Method) in Selected Lithology {F11.4}
PEFZ .                                                 :Standard Resolution Formation Photoelectric Factor {F11.4}
RHOZ .G/C3                                             :Standard Resolution Formation Density {F11.4}
SP   .MV                                               :Spontaneous Potential {F11.4}
TNPH .CFCF                                             :Thermal Neutron Porosity (Ratio Method) in Selected Lithology {F11.4}
#-----------------------------------------------------------------------------
# 
#     DEPT       AF10       AF20       AF30       AF60       AF90       AO10       AO20       AO30       AO60       AO90       AT10       AT20       AT30       AT60       AT90     AHFCO60      AHMF      AHORT      AHORX      AHSCA     AHTCO10    AHTCO20    AHTCO30    AHTCO60    AHTCO90     AHTD1      AHTD2      AHTRT      AHTRX       CDF        CFTC       CNTC       CTEM       DCAL       DNPH       DPHZ       DSOZ       ECGR        ED        GDEV        GR        GTEM       HCAL       HDRA       HDRB       HGR        HMIN       HMNO       HNPO       HPRA       HTNP        ND        NPHI       NPOR       PEFZ    PXND_HILT     RHOZ       RSOZ     RWA_HILT     RXO8       RXOZ        SP        SPAR       STIT       TENS       TNPH     HTNP_SAN
#
~A  DEPT AT10 AT30 AT90 GR HCAL HDRA NPHI PEFZ RHOZ SP TNPH
# ...
6674.5 14.9254 14.6093 14.3398 143.3238 7.7685 -0.0019 0.1998 4.9948 2.4627 -497.1429 0.1642
6675.0 14.5110 14.4048 14.0018 135.1707 7.7796 -0.0038 0.2019 5.0562 2.4521 -496.9911 0.1814
6675.5 14.6426 14.1194 13.6566 144.4841 7.7796 -0.0048 0.2103 5.0890 2.4477 -497.2344 0.1850
6676.0 14.9723 14.8669 14.4909 131.3496 7.7573 -0.0059 0.1879 5.0789 2.4495 -497.6328 0.1869
6676.5 14.0752 13.7924 13.2515 127.2733 7.7796 -0.0068 0.1804 5.0094 2.4550 -497.0804 0.1662
6677.0 11.4967 11.2425 10.8705 119.1485 7.7573 -0.0049 0.1840 4.9790 2.4507 -495.5000 0.1648
6677.5 9.4898 9.2447 8.9309 110.3164 7.7573 -0.0026 0.1745 5.0085 2.4473 -495.8906 0.1664
6678.0 7.7226 7.6298 7.4723 92.6521 7.7796 -0.0029 0.1697 5.0699 2.4511 -495.8047 0.1526
6678.5 7.6693 7.2689 7.0343 79.3757 7.7796 -0.0057 0.1540 5.1134 2.4569 -494.5893 0.1500
6679.0 8.1546 7.7862 7.4926 86.3959 7.7796 -0.0090 0.1725 5.0868 2.4579 -493.0000 0.1491
6679.5 8.2790 8.0276 7.5881 100.4372 7.7573 -0.0052 0.1934 5.0254 2.4503 -491.1161 0.1685
6680.0 8.3159 7.8460 7.4654 114.1379 7.7907 -0.0046 0.2162 4.9172 2.4532 -491.8750 0.1871
6680.5 8.3429 7.8324 7.3991 119.4883 7.7796 -0.0024 0.2255 4.8231 2.4646 -493.2500 0.1978
6681.0 8.3197 7.7628 7.3724 113.3733 7.7573 -0.0038 0.2045 4.8021 2.4779 -495.5078 0.1889
6681.5 7.6960 7.4405 7.0691 99.5595 7.7573 -0.0018 0.1848 4.8350 2.4848 -496.9286 0.1690
6682.0 7.1920 6.8642 6.5726 84.6976 7.7573 -0.0016 0.1575 4.8866 2.4843 -498.0804 0.1613
6682.5 7.0913 6.7608 6.4819 84.6976 7.7573 -0.0017 0.1496 4.8652 2.4858 -498.0703 0.1452
6683.0 7.5557 7.4528 7.0757 97.1529 7.7685 -0.0037 0.1729 4.8569 2.4782 -495.4286 0.1456
6683.5 8.4325 8.1254 7.6949 120.4789 7.7796 -0.0052 0.1975 4.8651 2.4678 -493.4844 0.1698
6684.0 9.4818 8.9989 8.4456 140.8891 7.7573 -0.0070 0.2277 4.9216 2.4539 -493.5804 0.1925
6684.5 10.5748 9.8356 9.2795 150.4004 7.7573 -0.0079 0.2240 4.9594 2.4501 -494.6250 0.2055
6685.0 10.8051 10.2688 9.7197 141.5399 7.7796 -0.0085 0.2086 5.0090 2.4486 -496.9844 0.1882
6685.5 10.2233 9.9877 9.5285 115.4680 7.7573 -0.0087 0.1825 5.0168 2.4565 -498.6071 0.1678
6686.0 10.0917 9.8224 9.4292 88.0662 7.7796 -0.0082 0.1590 5.0137 2.4617 -498.7232 0.1495
6686.5 10.4037 10.1632 9.9985 74.0537 7.8018 -0.0071 0.1597 4.9690 2.4686 -498.6016 0.1412
6687.0 10.8384 10.6577 10.4871 83.6786 7.7573 -0.0081 0.1706 4.9678 2.4586 -497.0179 0.1531
6687.5 10.9521 10.9265 10.7396 100.2107 7.7573 -0.0092 0.1822 4.9678 2.4467 -496.5000 0.1676
6688.0 10.7354 10.3583 10.1220 114.7041 7.7573 -0.0105 0.1792 5.0127 2.4367 -496.9554 0.1748
6688.5 9.3931 9.5147 9.2817 110.5429 7.7796 -0.0090 0.1633 5.0384 2.4446 -497.2321 0.1628
6689.0 8.3617 8.1997 7.9609 99.6721 7.7573 -0.0062 0.1855 5.0651 2.4590 -496.6328 0.1484
6689.5 7.2306 6.9645 6.8459 98.0872 7.7573 -0.0034 0.2060 5.0466 2.4728 -495.6696 0.1682
6690.0 7.5572 6.9908 6.7436 96.8983 7.8018 -0.0013 0.2283 5.0282 2.4776 -498.5234 0.1823
6690.5 8.1550 7.7908 7.4076 92.1423 7.7573 -0.0012 0.2026 5.0006 2.4780 -502.3571 0.1879
6691.0 8.5773 8.1187 7.6168 71.2509 7.8018 -0.0025 0.1782 4.9834 2.4767 -504.2656 0.1663
6691.5 8.5789 8.1149 7.6297 58.5970 7.8018 -0.0049 0.1526 4.9709 2.4756 -504.8304 0.1524
6692.0 8.1713 7.8828 7.4235 50.7560 7.7685 -0.0078 0.1381 4.9935 2.4702 -503.5268 0.1356
6692.5 8.0300 7.6249 7.3124 58.2857 7.7796 -0.0086 0.1455 4.9997 2.4657 -500.7109 0.1302
6693.0 7.8479 7.5070 7.2718 72.3270 7.8018 -0.0070 0.1665 4.9774 2.4649 -497.3929 0.1420
6693.5 7.9090 7.5575 7.2403 85.0088 7.7685 -0.0048 0.1734 4.9291 2.4691 -495.2578 0.1647
6694.0 7.9881 7.6046 7.2332 85.6882 7.7796 -0.0053 0.1726 4.9490 2.4686 -494.6696 0.1623
6694.5 7.9322 7.6166 7.2218 80.0265 7.7796 -0.0047 0.1647 5.0323 2.4637 -493.5893 0.1513
6695.0 8.2260 7.9766 7.5758 77.6487 7.7907 -0.0065 0.1660 5.0976 2.4610 -493.4531 0.1442
6695.5 8.4926 8.2698 7.8633 75.6105 7.8018 -0.0058 0.1725 5.0874 2.4646 -493.7500 0.1447
6696.0 8.5116 8.2518 7.8523 73.5440 7.7907 -0.0081 0.1596 5.0290 2.4664 -493.2109 0.1530
6696.5 8.8947 8.6122 8.2323 76.0635 7.8018 -0.0055 0.1613 4.9277 2.4721 -492.1339 0.1506
6697.0 9.5423 9.2655 8.7890 86.2541 7.7796 -0.0053 0.1603 4.8961 2.4646 -490.7589 0.1541
6697.5 10.0860 9.7843 9.2653 95.5674 7.7573 -0.0050 0.1781 4.8948 2.4589 -489.5938 0.1536
6698.0 10.2969 10.0793 9.6422 95.7939 7.8018 -0.0054 0.1777 4.9373 2.4557 -489.8929 0.1593
6698.5 10.3305 10.1812 9.5911 86.9623 7.8018 -0.0059 0.1679 4.9770 2.4552 -489.7589 0.1533
6699.0 10.2997 10.1375 9.7606 83.7915 7.7796 -0.0052 0.1697 4.9433 2.4621 -487.2656 0.1501
6699.5 9.6351 10.1151 9.6762 96.7005 7.7907 -0.0047 0.1816 4.8212 2.4745 -484.5000 0.1584
6700.0 8.9429 8.9459 8.5762 106.6644 7.7796 -0.0040 0.1934 4.6585 2.4934 -481.8828 0.1737
6700.5 7.9058 7.8081 7.5735 113.9964 7.7796 -0.0058 0.2026 4.5640 2.4996 -480.4464 0.1843
6701.0 8.4257 7.8147 7.4781 108.3340 7.8018 -0.0087 0.2042 4.5614 2.4921 -480.4464 0.1929
6701.5 8.4868 8.4188 7.9883 104.5128 7.7796 -0.0101 0.2040 4.6097 2.4847 -479.6172 0.1871
6702.0 8.4992 8.4181 7.9984 96.9546 7.8018 -0.0082 0.1884 4.6005 2.4975 -479.2946 0.1764
6702.5 7.8438 7.7169 7.4319 89.5382 7.8018 -0.0068 0.1838 4.5614 2.5143 -477.7109 0.1650
6703.0 7.3690 7.2430 6.9687 81.1308 7.8018 -0.0062 0.1834 4.4822 2.5282 -476.9643 0.1686
6703.5 7.1300 7.0778 6.8043 85.1220 7.8018 -0.0041 0.2015 4.4115 2.5391 -476.6786 0.1794
6704.0 6.9918 6.7735 6.5476 91.4064 7.7796 0.0000 0.2104 4.4272 2.5469 -475.7188 0.1915
6704.5 7.5094 7.2064 6.9044 108.3347 7.7907 0.0031 0.2282 4.4548 2.5459 -475.8304 0.1952
6705.0 8.3200 8.0900 7.7241 114.7608 7.7796 0.0028 0.2258 4.5232 2.5442 -475.7500 0.2044
6705.5 8.7697 8.5117 8.0755 109.0707 7.7907 0.0014 0.2111 4.5458 2.5405 -475.9732 0.1987
6706.0 8.9263 8.7118 8.2093 94.8601 7.7796 0.0009 0.1784 4.5917 2.5490 -476.7321 0.1776
6706.5 9.0948 8.6319 8.2849 77.9320 7.7685 -0.0010 0.1594 4.6524 2.5440 -476.5781 0.1464
6707.0 8.2964 8.3876 8.0249 79.3191 7.7796 -0.0036 0.1607 4.6768 2.5444 -476.0179 0.1428
6707.5 7.8086 7.5353 7.5045 89.9629 7.7796 -0.0063 0.1767 4.6448 2.5444 -474.5781 0.1566
6708.0 7.2237 6.9978 6.7730 100.3231 7.7796 -0.0059 0.1927 4.5556 2.5502 -473.9821 0.1790
6708.5 7.6398 7.3381 7.0375 109.2404 7.7796 -0.0076 0.2139 4.5068 2.5401 -474.0893 0.1889
6709.0 7.8312 7.5162 7.1513 109.0140 7.7796 -0.0074 0.2155 4.4692 2.5314 -474.0469 0.1987
6709.5 7.9680 7.8850 7.5167 110.3449 7.7573 -0.0070 0.2150 4.4735 2.5282 -474.5446 0.1966
6710.0 6.9489 6.9136 6.5994 105.7308 7.7796 -0.0053 0.2023 4.4970 2.5409 -473.8750 0.1927
6710.5 6.2351 6.0311 5.7323 99.4178 7.8018 -0.0014 0.2006 4.4874 2.5706 -473.8929 0.1864
6711.0 6.2166 5.9704 5.6198 90.3874 7.7796 0.0016 0.1822 4.4511 2.5935 -474.3393 0.1800
6711.5 6.3903 6.1543 5.8127 86.0843 7.7796 0.0030 0.1844 4.3260 2.6021 -473.6875 0.1606
6712.0 6.5877 6.3080 5.9392 89.2264 7.7573 -0.0008 0.1952 4.2643 2.5796 -473.3393 0.1727
6712.5 6.9840 6.7461 6.3289 98.2570 7.7573 -0.0054 0.2214 4.2334 2.5531 -473.5781 0.1835
6713.0 7.4903 7.1954 6.7103 102.5602 7.7796 -0.0062 0.2195 4.2646 2.5402 -474.1339 0.2015
6713.5 8.1183 7.8243 7.2578 103.1828 7.7796 -0.0059 0.2039 4.3108 2.5321 -474.3750 0.1906
6714.0 7.7516 7.8179 7.3561 104.1733 7.7796 -0.0033 0.1908 4.3093 2.5352 -473.0156 0.1835
6714.5 7.4600 7.1253 6.8513 108.7026 7.7796 -0.0047 0.1939 4.3263 2.5270 -472.8929 0.1825
6715.0 7.0575 6.8738 6.6458 111.6750 7.7573 -0.0053 0.2241 4.3005 2.5257 -473.1875 0.1836
6715.5 7.3961 7.1411 6.8947 113.0623 7.7573 -0.0072 0.2284 4.2896 2.5172 -473.5089 0.2029
6716.0 7.7322 7.5652 7.2714 116.0061 7.7573 -0.0062 0.2401 4.2388 2.5170 -473.4688 0.2055
6716.5 7.2560 7.1143 6.8306 127.4993 7.7573 -0.0048 0.2359 4.2042 2.5152 -472.6429 0.2260
6717.0 6.6455 6.4668 6.2364 129.2827 7.7685 -0.0027 0.2433 4.1664 2.5223 -472.8125 0.2282
6717.5 6.2941 6.0900 5.8969 122.0356 7.7573 -0.0026 0.2314 4.1995 2.5289 -473.1071 0.2281
6718.0 6.0462 5.9186 5.6992 109.7504 7.7685 -0.0026 0.2250 4.2243 2.5421 -472.6250 0.2083
6718.5 5.9356 5.7431 5.5188 109.5515 7.7796 -0.0036 0.2167 4.2686 2.5462 -472.8571 0.2036
6719.0 5.8202 5.5855 5.3580 112.2694 7.7573 -0.0025 0.2424 4.2456 2.5485 -472.6641 0.2036
