~VERSION INFORMATION
VERS.           2.0   :CWLS Log ASCII Standard - VERSION 2.0
WRAP.           NO    :One Line per depth step
PROD.  Schlumberger   :LAS Producer
PROG.  DLIS to ASCII 19C2-270                          :LAS Program name and version
CREA.        2013/09/21 19:52                          :LAS Creation date {YYYY/MM/DD hh:mm}
DLIS_CREA.  2013-Sep-21 19:47                          :DLIS Creation date and time {YYYY-MMM-DD hh:mm}
SOURCE.     49-021-21035_McGahan Farms 42-31_Run_PEX_Mainpass.dlis  :DLIS File Name
FILE-ID.     MaxWell_3Dlis                             :File Identification Number
#--------------------------------------------------
~WELL INFORMATION
#MNEM.UNIT      DATA             DESCRIPTION
#---- ------ --------------   -----------------------------
STRT .F      1000.5          :START DEPTH        # original; data subset to 5500-8000
STOP .F      7716.5          :STOP DEPTH        # original; data subset to 5500-8000
STEP .F       0.5            :STEP     
NULL .          -999.25      :NULL VALUE
COMP .        Bear Oil & Gas, Inc                      :COMPANY
WELL .        McGahan Farms 42-31                      :WELL
FLD  .        Wildcat                                  :FIELD
LOC  .        Lat/Long: 41.3098/-104.1197              :LOCATION
CNTY .        Laramie                                  :COUNTY
STAT .        Wyoming                                  :STATE
CTRY .        USA                                      :COUNTRY
API  .        49-021-21035                             :API NUMBER
UWI  .        49021210350000                           :UNIQUE WELL ID
DATE .        21-Sep-2013                              :LOG DATE {DD-MMM-YYYY}
SRVC .        Schlumberger                             :SERVICE COMPANY
LATI .DEG     41.309800 degrees                        :LATITUDE
LONG .DEG     -104.11970 degrees                       :LONGITUDE
GDAT .                                                 :GeoDetic Datum
SECT .        31                                       :Section
RANG .        60W                                      :Range
TOWN .        16N                                      :Township
#-----------------------------------------------------------------------------
~PARAMETER INFORMATION
#MNEM.UNIT    VALUE                      DESCRIPTION
#---- -----   --------------------       ------------------------
CN   .        Bear Oil & Gas  Inc        :Company Name
WN   .        McGahan Farms 42-31        :Well Name
FN   .        Wildcat                    :Field Name
FL   .        Lat/Long  41.3098/-104.1197 :Field Location
FL1  .        SHL   2375' FNL X 190' FEL SENE :Field Location, Line 1
COUN .        Laramie                    :County or Parish
STAT .        Wyoming                    :State or Province
NATI .        USA                        :Nation
DATE .        21-Sep-2013                :Tools Above Rotary Table Date
APIN .        49-021-21035               :API Well Number
SECT .        31                         :Section
TOWN .        16N                        :Township
RANG .        60W                        :Range
DMF  .        KB                         :Drilling Measured From (Name of Drilling Elevation Reference)
LMF  .        KB                         :Logging Measured From (Name of Logging Elevation Reference)
PDAT .        GL                         :Permanent Datum
ENGI .        Arvin Shi                  :Engineer s Name
WITN .        Terry Eittreim             :Witness s Name
LATI .        41.309800 degrees          :Latitude
LONG .        -104.11970 degrees         :Longitude
LUL  .        Fort Morgan                :Logging Unit Location
LUN  .        3022                       :Logging Unit Number
RUN  .        Run 1                      :Run Number
SON  .        C6VJ-00079                 :Service Order Number
BHT  .DEGF     175.00000                 :Bottom Hole Temperature
BS   .IN         7.87500                 :Bit Size
MDEN .G/C3       2.65000                 :Matrix Density for Density Porosity
DFD  .LB/G       9.20000                 :Drilling Fluid Density
DFV  .S         80.00000                 :Drilling Fluid Viscosity
DFL  .C3      -999.25000                 :Drilling Fluid Loss
RMFS .OHMM       0.96000                 :Resistivity of Mud Filtrate Sample
EKB  .F       5307.00000                 :Elevation of Kelly Bushing
EGL  .F       5295.00000                 :Elevation of Ground Level
BLI  .F       7700.00000                 :Bottom Log Interval
BSAL .PPM     3275.14868                 :Borehole Salinity
FLEV .F          8.00000                 :Depth of Drilling Fluid Level to LMF (Log Measured From)
MCST .DEGF      98.00000                 :Mudcake Sample Temperature
MFST .DEGF      98.00000                 :Mud Filtrate Sample Temperature
MRT  .DEGF     175.00000                 :Maximum Recorded Temperature
MST  .DEGF      98.00000                 :Mud Sample Temperature
RMCS .OHMM       1.60000                 :Resistivity of Mud Cake Sample
RMS  .OHMM       1.28000                 :Resistivity of Mud Sample
RW   .OHMM       1.00000                 :Connate Water Resistivity
TDD  .F       7697.00000                 :Driller Total Depth
TDL  .F       7700.00000                 :Logger Total Depth
TLI  .F       1018.00000                 :Top Log Interval
HIDE .        Wildcat                    :Header Identifier
MATR .        SAND                       :Rock Matrix for Neutron Porosity Corrections
FNUM .           1.00000                 :F-Numerator for Formation Factor Formula
FEXP .           2.00000                 :Exponent "m" for Formation Factor Formula
DFT  .        Chemical Gel               :Drilling Fluid Type
DFPH .        -999.25000                 :Drilling Fluid pH
MCSS .        Calculated                 :Mudcake Sample Source
MFSS .        Calculated                 :Mud Filtrate Sample Source
FD   .G/C3       1.00000                 :Fluid Density
MSS  .        Flowline                   :Mud Sample Source
OS1  .                                   :Other Services Line 1
OS2  .                                   :Other Services Line 2
OS3  .                                   :Other Services Line 3
OS4  .                                   :Other Services Line 4
OS5  .                                   :Other Services Line 5
R1   .                                   :Remarks Line 1
R2   .                                   :Remarks Line 2
R3   .                                   :Remarks Line 3
R4   .                                   :Remarks Line 4
R5   .                                   :Remarks Line 5
R6   .                                   :Remarks Line 6
R7   .                                   :Remarks Line 7
R8   .                                   :Remarks Line 8
TCS  .        11 00 00                   :Time Circulation Stopped
TLAB .        17 20 49                   :Time Logger At Bottom
NMT  .        NOBARITE                   :HRDD Mud Type for Nuclear Devices
EPD  .C3         5295.000000             :Elevation of Permanent Datum above Mean Sea Level
APD  .F          12.000000               :Elevation of Depth Reference (LMF) above Permanent Datum
#-----------------------------------------------------------------------------
~CURVE INFORMATION
#MNEM.UNIT   API CODE                                  DESCRIPTION
#---- -----  --------                                  -----------------------
DEPT .F                                                :DEPTH (BOREHOLE) {F10.1}
AT10 .OHMM                                             :Array Induction Two Foot Resistivity A10 {F11.4}
AT30 .OHMM                                             :Array Induction Two Foot Resistivity A30 {F11.4}
AT90 .OHMM                                             :Array Induction Two Foot Resistivity A90 {F11.4}
GR   .GAPI                                             :Gamma Ray {F11.4}
HCAL .IN                                               :HRCC Caliper Calibrated {F11.4}
HDRA .G/C3                                             :Density Standoff Correction {F11.4}
NPHI .CFCF                                             :Thermal Neutron Porosity (original Ratio Method) in Selected Lithology {F11.4}
PEFZ .                                                 :Standard Resolution Formation Photoelectric Factor {F11.4}
RHOZ .G/C3                                             :Standard Resolution Formation Density {F11.4}
SP   .MV                                               :Spontaneous Potential {F11.4}
TNPH .CFCF                                             :Thermal Neutron Porosity (Ratio Method) in Selected Lithology {F11.4}
#-----------------------------------------------------------------------------
# 
#     DEPT       AF10       AF20       AF30       AF60       AF90       AO10       AO20       AO30       AO60       AO90       AT10       AT20       AT30       AT60       AT90     AHFCO60      AHMF      AHORT      AHORX      AHSCA     AHTCO10    AHTCO20    AHTCO30    AHTCO60    AHTCO90     AHTD1      AHTD2      AHTRT      AHTRX       CDF        CFTC       CNTC       CTEM       DCAL       DNPH       DPHZ       DSOZ       ECGR        ED        GDEV        GR        GTEM       HCAL       HDRA       HDRB       HGR        HMIN       HMNO       HNPO       HPRA       HTNP        ND        NPHI       NPOR       PEFZ    PXND_HILT     RHOZ       RSOZ     RWA_HILT     RXO8       RXOZ        SP        SPAR       STIT       TENS       TNPH     HTNP_SAN
#
~A  DEPT AT10 AT30 AT90 GR HCAL HDRA NPHI PEFZ RHOZ SP TNPH
# ...
6674.5 16.5554 15.7794 14.9511 137.1824 7.8732 -0.0043 0.1977 5.2146 2.4343 -369.5469 0.1803
6675.0 16.1812 15.1668 14.5667 125.9330 7.8622 -0.0038 0.1771 5.0799 2.4527 -369.4643 0.1754
6675.5 14.5536 13.3164 12.7371 121.4551 7.8842 -0.0026 0.1832 4.9847 2.4661 -368.5547 0.1605
6676.0 11.8365 11.3315 10.8216 125.8758 7.8622 -0.0039 0.1816 4.9556 2.4678 -367.7589 0.1704
6676.5 9.6126 9.1324 8.8279 113.1233 7.8842 -0.0065 0.1933 4.9694 2.4653 -368.3304 0.1630
6677.0 8.2628 7.8511 7.5413 92.8907 7.8622 -0.0051 0.1621 4.8983 2.4778 -367.9219 0.1652
6677.5 8.4555 8.0516 7.6674 80.1955 7.8842 -0.0025 0.1555 4.8177 2.4918 -366.4554 0.1481
6678.0 8.7668 8.2155 7.7959 91.3042 7.8622 -0.0030 0.1646 4.7821 2.4908 -364.9766 0.1575
6678.5 8.7988 8.1725 7.7410 107.7682 7.8622 -0.0063 0.2011 4.8255 2.4758 -364.6339 0.1644
6679.0 8.9530 8.1980 7.6425 118.4231 7.8622 -0.0090 0.2216 4.8856 2.4610 -365.4219 0.1913
6679.5 9.1111 8.2926 7.7219 117.6298 7.8622 -0.0084 0.2183 4.9120 2.4618 -366.8214 0.1904
6680.0 8.4600 7.8624 7.3487 105.0195 7.8622 -0.0074 0.1998 4.9500 2.4628 -368.7734 0.1832
6680.5 7.8918 7.3457 6.9694 93.9108 7.8842 -0.0075 0.1838 4.9763 2.4613 -370.1607 0.1715
6681.0 7.6015 7.0799 6.6926 82.4057 7.8842 -0.0085 0.1719 4.9759 2.4618 -372.5703 0.1606
6681.5 7.7226 7.3591 6.9529 88.7533 7.8842 -0.0093 0.1557 5.0003 2.4597 -371.5714 0.1552
6682.0 8.1653 7.8677 7.4081 98.2749 7.9062 -0.0076 0.1644 5.0682 2.4525 -368.7813 0.1516
6682.5 9.1447 8.5205 8.0330 129.8997 7.8842 0.0007 0.1802 5.1422 2.4399 -366.9531 0.1679
6683.0 10.4046 9.5549 8.8949 153.8167 7.8842 0.0068 0.2071 5.1386 2.4375 -366.8929 0.1768
6683.5 11.7446 11.0653 10.1481 162.8847 7.8842 0.0047 0.2045 5.1196 2.4381 -368.3594 0.1875
6684.0 11.4288 11.0514 10.1473 143.3598 7.8842 -0.0038 0.1937 5.1192 2.4423 -370.7946 0.1702
6684.5 10.8204 10.2578 9.6466 112.0184 7.8842 -0.0102 0.1734 5.1488 2.4437 -372.7813 0.1545
6685.0 10.6486 10.2373 9.7783 88.2150 7.8622 -0.0083 0.1617 5.0602 2.4591 -373.1786 0.1446
6685.5 11.3273 10.8748 10.4321 73.3379 7.8842 -0.0066 0.1559 4.9932 2.4661 -372.5078 0.1463
6686.0 12.0921 11.5085 11.1365 83.2559 7.8842 -0.0059 0.1610 4.9600 2.4652 -370.8929 0.1521
6686.5 11.8886 11.3836 10.9250 90.9638 7.8732 -0.0065 0.1804 5.0253 2.4557 -370.6964 0.1580
6687.0 11.5892 10.3619 9.9416 107.0314 7.9062 -0.0057 0.1892 5.0536 2.4564 -371.5547 0.1707
6687.5 9.9227 9.4966 9.0912 98.8704 7.8842 -0.0033 0.1795 5.0201 2.4667 -371.8661 0.1731
6688.0 8.9174 8.4107 8.0214 94.9883 7.9062 -0.0014 0.1791 4.9511 2.4762 -370.1172 0.1605
6688.5 7.7254 7.3814 7.0756 92.2390 7.9282 -0.0015 0.1926 4.9044 2.4770 -369.7500 0.1660
6689.0 8.2838 7.4040 6.9808 94.0529 7.8842 -0.0026 0.2052 4.8949 2.4752 -373.6484 0.1776
6689.5 8.8072 8.2149 7.5837 87.9599 7.9062 -0.0049 0.1929 4.9668 2.4654 -377.0156 0.1741
6690.0 9.2623 8.4809 7.7244 68.6905 7.8842 -0.0024 0.1732 5.0558 2.4586 -379.2857 0.1581
6690.5 9.1558 8.3544 7.5788 56.9869 7.9062 -0.0023 0.1533 5.1135 2.4612 -380.1719 0.1451
6691.0 8.7697 8.1048 7.4434 50.5828 7.9062 -0.0024 0.1376 5.1518 2.4657 -379.3214 0.1351
6691.5 8.4646 7.8061 7.3106 60.1044 7.8842 -0.0065 0.1375 5.1494 2.4679 -376.7578 0.1311
6692.0 8.2438 7.6890 7.2995 74.3861 7.8842 -0.0066 0.1622 5.1224 2.4601 -373.2946 0.1393
6692.5 8.5098 7.9193 7.4255 87.5916 7.8842 -0.0065 0.1781 5.0301 2.4623 -370.6953 0.1623
6693.0 8.6369 8.1276 7.5762 89.5750 7.9062 -0.0064 0.1847 4.9164 2.4782 -370.2143 0.1656
6693.5 8.6804 8.1745 7.6586 83.8229 7.9062 -0.0049 0.1808 4.7829 2.5066 -369.2679 0.1601
6694.0 8.8656 8.4067 7.9923 74.3014 7.9062 -0.0045 0.1831 4.7579 2.5161 -369.1172 0.1574
6694.5 9.1313 8.6811 8.2117 71.5243 7.8842 -0.0038 0.1850 4.8069 2.5110 -369.4844 0.1628
6695.0 9.1003 8.6836 8.2399 71.1274 7.8842 -0.0067 0.1736 4.9481 2.4863 -369.3750 0.1701
6695.5 9.2747 8.8261 8.4234 78.1552 7.9172 -0.0079 0.1644 5.0004 2.4703 -368.4453 0.1626
6696.0 9.8581 9.4596 8.9760 90.0568 7.9282 -0.0096 0.1613 4.9911 2.4560 -366.8571 0.1570
6696.5 10.4937 10.1417 9.5700 96.2065 7.9062 -0.0101 0.1729 4.9508 2.4489 -366.3750 0.1572
6697.0 10.8084 10.3774 9.7818 100.2870 7.9282 -0.0082 0.1891 4.9394 2.4477 -366.5714 0.1580
6697.5 11.0603 10.6371 9.9104 90.9641 7.9062 -0.0073 0.1772 4.9478 2.4507 -366.7344 0.1669
6698.0 11.3196 10.9596 10.1626 89.0651 7.9062 -0.0063 0.1742 4.9432 2.4531 -365.2734 0.1585
6698.5 11.0206 10.8571 10.1025 90.5387 7.9282 -0.0067 0.1757 4.8972 2.4587 -362.1339 0.1667
6699.0 9.8877 9.7236 9.1398 99.4084 7.9282 -0.0051 0.1936 4.8294 2.4705 -359.3672 0.1733
6699.5 8.8173 8.4344 8.0082 104.8774 7.9282 0.0000 0.2089 4.7815 2.4802 -357.4297 0.1872
6700.0 8.6859 8.1610 7.7795 105.2175 7.9722 0.0010 0.2098 4.7442 2.4842 -356.7679 0.1966
6700.5 8.8373 8.4727 8.0453 102.2987 7.9502 -0.0019 0.2090 4.7350 2.4803 -356.6719 0.1982
6701.0 9.3308 8.8729 8.3782 97.5099 7.9612 -0.0069 0.1889 4.7347 2.4829 -356.3839 0.1865
6701.5 8.6182 8.4379 7.9473 91.8138 7.9722 -0.0089 0.1746 4.7118 2.4940 -355.4375 0.1625
6702.0 8.1880 7.8265 7.4346 88.6401 7.9831 -0.0079 0.1735 4.6759 2.5041 -354.8828 0.1549
6702.5 7.7245 7.3952 7.0160 88.2715 7.9502 -0.0078 0.1816 4.6564 2.5080 -354.6339 0.1620
6703.0 7.3309 7.0355 6.7055 99.8616 7.9722 -0.0079 0.1943 4.6838 2.5042 -354.1563 0.1749
6703.5 7.4745 7.0256 6.6956 107.5973 7.9722 -0.0081 0.2056 4.7158 2.4981 -353.3929 0.1862
6704.0 8.3340 7.7612 7.3005 119.7547 7.9722 -0.0033 0.2226 4.6805 2.4972 -352.9688 0.1933
6704.5 8.8827 8.3861 7.7765 118.8766 7.9612 -0.0030 0.2139 4.6376 2.5029 -352.9375 0.2055
6705.0 9.4500 8.8421 8.1292 114.9666 7.9502 -0.0027 0.2011 4.5812 2.5206 -353.5000 0.1841
6705.5 9.6012 8.9722 8.3525 101.8174 7.9502 -0.0081 0.1785 4.5995 2.5283 -354.3516 0.1707
6706.0 9.5907 9.1470 8.5201 87.5065 7.9722 -0.0078 0.1703 4.6083 2.5256 -354.3594 0.1585
6706.5 8.8942 8.6165 8.0280 80.3086 7.9941 -0.0031 0.1716 4.5567 2.5276 -353.2054 0.1567
6707.0 8.3262 7.7878 7.4327 86.6563 7.9722 0.0011 0.1794 4.4272 2.5317 -351.1406 0.1724
6707.5 7.8503 7.3605 6.9875 100.3721 7.9941 0.0029 0.1985 4.3462 2.5257 -350.7344 0.1798
6708.0 8.2105 7.6708 7.2340 112.7839 7.9722 0.0016 0.2086 4.3233 2.5108 -350.6339 0.1870
6708.5 8.3613 7.9004 7.4032 116.9494 7.9612 0.0005 0.2077 4.3453 2.5058 -351.2031 0.1898
6709.0 8.6541 8.2487 7.6761 112.9816 7.9062 0.0010 0.2044 4.3349 2.5253 -351.1071 0.1857
6709.5 7.5106 7.3417 6.8259 105.7272 7.9172 0.0017 0.1985 4.3726 2.5558 -350.7500 0.1839
6710.0 6.7947 6.4529 6.0337 95.6109 7.9282 0.0020 0.2067 4.3809 2.5849 -350.9464 0.1778
6710.5 6.7369 6.2972 5.8218 91.7573 7.9612 -0.0008 0.1939 4.4581 2.5882 -351.3281 0.1834
6711.0 6.8952 6.5016 6.0208 87.9887 7.9722 -0.0036 0.1922 4.4092 2.5819 -351.0804 0.1759
6711.5 7.0436 6.6885 6.1950 87.8186 7.9722 -0.0065 0.1934 4.3520 2.5646 -350.7656 0.1836
6712.0 7.2714 6.8815 6.3480 88.6972 7.9722 -0.0067 0.2024 4.2790 2.5495 -350.9286 0.1894
6712.5 7.8322 7.2774 6.6858 99.0399 7.9502 -0.0060 0.2082 4.3229 2.5273 -351.2031 0.1904
6713.0 8.4951 7.9035 7.2516 100.4001 7.9722 -0.0033 0.1895 4.4102 2.5134 -352.3393 0.1815
6713.5 8.8200 8.4029 7.7387 103.6021 7.9722 -0.0017 0.1872 4.3844 2.5188 -351.4219 0.1689
6714.0 7.8850 7.8331 7.2796 102.9792 7.9722 -0.0020 0.1903 4.3163 2.5258 -350.6250 0.1752
6714.5 7.6152 7.1860 6.7762 113.6340 7.9502 -0.0053 0.2065 4.2794 2.5226 -350.4609 0.1823
6715.0 7.6935 7.1620 6.8344 112.0189 7.9502 -0.0058 0.2223 4.2816 2.5162 -350.6016 0.1973
6715.5 7.9057 7.5519 7.1500 111.0552 7.9612 -0.0050 0.2296 4.2943 2.5113 -350.2500 0.2056
6716.0 7.9525 7.5173 7.0634 116.4679 7.9722 -0.0020 0.2365 4.2393 2.5180 -349.5982 0.2108
6716.5 7.2085 6.9706 6.5947 125.3380 7.9502 -0.0026 0.2446 4.2680 2.5139 -349.4609 0.2246
6717.0 6.9127 6.5230 6.1803 125.5081 7.9722 -0.0056 0.2286 4.3506 2.5098 -349.8304 0.2321
6717.5 6.5439 6.2081 5.9297 110.8291 7.9722 -0.0079 0.2176 4.4026 2.5139 -349.8203 0.2164
6718.0 6.3022 5.9620 5.6211 103.3474 7.9831 -0.0074 0.2082 4.3599 2.5276 -349.5268 0.2018
6718.5 6.1374 5.8102 5.4666 99.1818 7.9502 -0.0051 0.2051 4.2546 2.5432 -349.6094 0.1946
6719.0 6.1226 5.7600 5.4079 99.1818 7.9722 -0.0017 0.2044 4.1840 2.5564 -349.9286 0.1868
