~VERSION INFORMATION
VERS.           2.0   :CWLS Log ASCII Standard - VERSION 2.0
WRAP.           NO    :One Line per depth step
PROD.  Schlumberger   :LAS Producer
PROG.  DLIS to ASCII 19C2-270                          :LAS Program name and version
CREA.        2013/09/21 19:52                          :LAS Creation date {YYYY/MM/DD hh:mm}
DLIS_CREA.  2013-Sep-21 19:47                          :DLIS Creation date and time {YYYY-MMM-DD hh:mm}
SOURCE.     49-021-21035_McGahan Farms 42-31_Run_PEX_Mainpass.dlis  :DLIS File Name
FILE-ID.     MaxWell_3Dlis                             :File Identification Number
#--------------------------------------------------
~WELL INFORMATION
#MNEM.UNIT      DATA             DESCRIPTION
#---- ------ --------------   -----------------------------
STRT .F      1000.5          :START DEPTH        # original; data subset to 5500-8000
STOP .F      7716.5          :STOP DEPTH        # original; data subset to 5500-8000
STEP .F       0.5            :STEP     
NULL .          -999.25      :NULL VALUE
COMP .        Bear Oil & Gas, Inc                      :COMPANY
WELL .        McGahan Farms 42-31                      :WELL
FLD  .        Wildcat                                  :FIELD
LOC  .        Lat/Long: 41.3098/-104.1197              :LOCATION
CNTY .        Laramie                                  :COUNTY
STAT .        Wyoming                                  :STATE
CTRY .        USA                                      :COUNTRY
API  .        49-021-21035                             :API NUMBER
UWI  .        49021210350000                           :UNIQUE WELL ID
DATE .        21-Sep-2013                              :LOG DATE {DD-MMM-YYYY}
SRVC .        Schlumberger                             :SERVICE COMPANY
LATI .DEG     41.309800 degrees                        :LATITUDE
LONG .DEG     -104.11970 degrees                       :LONGITUDE
GDAT .                                                 :GeoDetic Datum
SECT .        31                                       :Section
RANG .        60W                                      :Range
TOWN .        16N                                      :Township
#-----------------------------------------------------------------------------
~PARAMETER INFORMATION
#MNEM.UNIT    VALUE                      DESCRIPTION
#---- -----   --------------------       ------------------------
CN   .        Bear Oil & Gas  Inc        :Company Name
WN   .        McGahan Farms 42-31        :Well Name
FN   .        Wildcat                    :Field Name
FL   .        Lat/Long  41.3098/-104.1197 :Field Location
FL1  .        SHL   2375' FNL X 190' FEL SENE :Field Location, Line 1
COUN .        Laramie                    :County or Parish
STAT .        Wyoming                    :State or Province
NATI .        USA                        :Nation
DATE .        21-Sep-2013                :Tools Above Rotary Table Date
APIN .        49-021-21035               :API Well Number
SECT .        31                         :Section
TOWN .        16N                        :Township
RANG .        60W                        :Range
DMF  .        KB                         :Drilling Measured From (Name of Drilling Elevation Reference)
LMF  .        KB                         :Logging Measured From (Name of Logging Elevation Reference)
PDAT .        GL                         :Permanent Datum
ENGI .        Arvin Shi                  :Engineer s Name
WITN .        Terry Eittreim             :Witness s Name
LATI .        41.309800 degrees          :Latitude
LONG .        -104.11970 degrees         :Longitude
LUL  .        Fort Morgan                :Logging Unit Location
LUN  .        3022                       :Logging Unit Number
RUN  .        Run 1                      :Run Number
SON  .        C6VJ-00079                 :Service Order Number
BHT  .DEGF     175.00000                 :Bottom Hole Temperature
BS   .IN         7.87500                 :Bit Size
MDEN .G/C3       2.65000                 :Matrix Density for Density Porosity
DFD  .LB/G       9.20000                 :Drilling Fluid Density
DFV  .S         80.00000                 :Drilling Fluid Viscosity
DFL  .C3      -999.25000                 :Drilling Fluid Loss
RMFS .OHMM       0.96000                 :Resistivity of Mud Filtrate Sample
EKB  .F       5307.00000                 :Elevation of Kelly Bushing
EGL  .F       5295.00000                 :Elevation of Ground Level
BLI  .F       7700.00000                 :Bottom Log Interval
BSAL .PPM     3275.14868                 :Borehole Salinity
FLEV .F          8.00000                 :Depth of Drilling Fluid Level to LMF (Log Measured From)
MCST .DEGF      98.00000                 :Mudcake Sample Temperature
MFST .DEGF      98.00000                 :Mud Filtrate Sample Temperature
MRT  .DEGF     175.00000                 :Maximum Recorded Temperature
MST  .DEGF      98.00000                 :Mud Sample Temperature
RMCS .OHMM       1.60000                 :Resistivity of Mud Cake Sample
RMS  .OHMM       1.28000                 :Resistivity of Mud Sample
RW   .OHMM       1.00000                 :Connate Water Resistivity
TDD  .F       7697.00000                 :Driller Total Depth
TDL  .F       7700.00000                 :Logger Total Depth
TLI  .F       1018.00000                 :Top Log Interval
HIDE .        Wildcat                    :Header Identifier
MATR .        SAND                       :Rock Matrix for Neutron Porosity Corrections
FNUM .           1.00000                 :F-Numerator for Formation Factor Formula
FEXP .           2.00000                 :Exponent "m" for Formation Factor Formula
DFT  .        Chemical Gel               :Drilling Fluid Type
DFPH .        -999.25000                 :Drilling Fluid pH
MCSS .        Calculated                 :Mudcake Sample Source
MFSS .        Calculated                 :Mud Filtrate Sample Source
FD   .G/C3       1.00000                 :Fluid Density
MSS  .        Flowline                   :Mud Sample Source
OS1  .                                   :Other Services Line 1
OS2  .                                   :Other Services Line 2
OS3  .                                   :Other Services Line 3
OS4  .                                   :Other Services Line 4
OS5  .                                   :Other Services Line 5
R1   .                                   :Remarks Line 1
R2   .                                   :Remarks Line 2
R3   .                                   :Remarks Line 3
R4   .                                   :Remarks Line 4
R5   .                                   :Remarks Line 5
R6   .                                   :Remarks Line 6
R7   .                                   :Remarks Line 7
R8   .                                   :Remarks Line 8
TCS  .        11 00 00                   :Time Circulation Stopped
TLAB .        17 20 49                   :Time Logger At Bottom
NMT  .        NOBARITE                   :HRDD Mud Type for Nuclear Devices
EPD  .C3         5295.000000             :Elevation of Permanent Datum above Mean Sea Level
APD  .F          12.000000               :Elevation of Depth Reference (LMF) above Permanent Datum
#-----------------------------------------------------------------------------
~CURVE INFORMATION
#MNEM.UNIT   API CODE                                  DESCRIPTION
#---- -----  --------                                  -----------------------
DEPT .F                                                :DEPTH (BOREHOLE) {F10.1}
AT10 .OHMM                                             :Array Induction Two Foot Resistivity A10 {F11.4}
AT30 .OHMM                                             :Array Induction Two Foot Resistivity A30 {F11.4}
AT90 .OHMM                                             :Array Induction Two Foot Resistivity A90 {F11.4}
GR   .GAPI                                             :Gamma Ray {F11.4}
HCAL .IN                                               :HRCC Caliper Calibrated {F11.4}
HDRA .G/C3                                             :Density Standoff Correction {F11.4}
NPHI .CFCF                                             :Thermal Neutron Porosity (original Ratio Method) in Selected Lithology {F11.4}
PEFZ .                                                 :Standard Resolution Formation Photoelectric Factor {F11.4}
RHOZ .G/C3                                             :Standard Resolution Formation Density {F11.4}
SP   .MV                                               :Spontaneous Potential {F11.4}
TNPH .CFCF                                             :Thermal Neutron Porosity (Ratio Method) in Selected Lithology {F11.4}
#-----------------------------------------------------------------------------
# 
#     DEPT       AF10       AF20       AF30       AF60       AF90       AO10       AO20       AO30       AO60       AO90       AT10       AT20       AT30       AT60       AT90     AHFCO60      AHMF      AHORT      AHORX      AHSCA     AHTCO10    AHTCO20    AHTCO30    AHTCO60    AHTCO90     AHTD1      AHTD2      AHTRT      AHTRX       CDF        CFTC       CNTC       CTEM       DCAL       DNPH       DPHZ       DSOZ       ECGR        ED        GDEV        GR        GTEM       HCAL       HDRA       HDRB       HGR        HMIN       HMNO       HNPO       HPRA       HTNP        ND        NPHI       NPOR       PEFZ    PXND_HILT     RHOZ       RSOZ     RWA_HILT     RXO8       RXOZ        SP        SPAR       STIT       TENS       TNPH     HTNP_SAN
#
~A  DEPT AT10 AT30 AT90 GR HCAL HDRA NPHI PEFZ RHOZ SP TNPH
# ...
5772.0 2.4109 2.3034 2.2272 105.5292 8.1261 0.0169 0.2979 3.0524 2.4942 -358.2250 0.2857
5772.5 2.4438 2.3417 2.2727 103.1488 8.1700 0.0180 0.3071 3.0573 2.4987 -358.3125 0.2907
5773.0 2.4333 2.3360 2.2715 106.5875 8.1041 0.0095 0.3018 3.0003 2.4967 -358.3229 0.2964
5773.5 2.4329 2.3359 2.2772 106.5874 8.1261 0.0066 0.3087 2.9567 2.5179 -358.3125 0.2827
5774.0 2.4319 2.3457 2.2873 102.6203 8.1480 -0.0011 0.3219 2.9525 2.5210 -358.2396 0.2874
5774.5 2.4214 2.3382 2.2847 110.2897 8.1480 -0.0017 0.3262 2.9608 2.5365 -358.1354 0.3055
5775.0 2.4083 2.3175 2.2695 111.8243 8.1261 -0.0037 0.3219 2.9712 2.5370 -358.0729 0.3191
5775.5 2.4063 2.3296 2.2864 109.7079 8.1261 -0.0049 0.3079 2.9600 2.5358 -358.0625 0.3178
5776.0 2.3921 2.3201 2.2794 101.7735 8.1041 -0.0050 0.3002 2.9498 2.5307 -358.4271 0.3105
5776.5 2.3250 2.2578 2.2252 99.4459 8.1261 -0.0031 0.3184 2.9427 2.5286 -358.3125 0.3062
5777.0 2.2499 2.1851 2.1578 99.9752 8.1261 -0.0019 0.3291 2.9474 2.5239 -358.1354 0.3168
5777.5 2.2702 2.1942 2.1707 99.1815 8.1041 -0.0036 0.3218 2.9639 2.5117 -358.0729 0.3257
5778.0 2.2899 2.2203 2.1888 95.7430 8.1261 -0.0061 0.3089 2.9783 2.4967 -358.2396 0.3033
5778.5 2.3190 2.2274 2.1905 94.1559 8.1261 -0.0075 0.3109 2.9493 2.4907 -358.6458 0.2981
5779.0 2.2680 2.1949 2.1553 95.2141 8.1261 -0.0066 0.3105 2.9265 2.4938 -358.6354 0.3079
5779.5 2.1883 2.1218 2.0817 99.9752 8.1700 -0.0054 0.3118 2.9166 2.4972 -358.4063 0.3036
5780.0 2.1332 2.0942 2.0484 100.7687 8.1261 -0.0037 0.3254 2.9436 2.4985 -358.2396 0.3071
5780.5 2.1477 2.0986 2.0455 97.8597 8.1261 -0.0001 0.3709 2.9901 2.5070 -358.2292 0.3174
5781.0 2.1915 2.1219 2.0616 99.1819 8.0601 0.0048 0.3650 3.0291 2.5244 -358.2083 0.3541
5781.5 2.2470 2.1773 2.1050 101.5624 7.9941 0.0092 0.3363 3.0630 2.5353 -358.0729 0.3493
5782.0 2.2464 2.1654 2.0987 102.0914 8.2360 0.0087 0.3164 3.0508 2.5350 -358.0104 0.3285
5782.5 2.1669 2.0946 2.0351 97.3305 8.1700 0.0045 0.3179 3.0613 2.5095 -357.9375 0.3201
5783.0 2.1018 2.0197 1.9713 100.5038 8.1700 0.0059 0.3203 3.0731 2.4916 -357.9375 0.3188
5783.5 2.0631 1.9848 1.9378 102.0907 8.2360 0.0148 0.2956 3.1068 2.4891 -357.8625 0.3194
5784.0 2.0261 1.9664 1.9290 102.6198 8.2360 0.0187 0.2912 3.0735 2.4913 -357.7813 0.2972
5784.5 1.9900 1.9197 1.8912 101.2978 8.2580 0.0174 0.3031 3.0330 2.4970 -357.8438 0.2930
5785.0 1.9603 1.8859 1.8398 102.8847 8.2360 0.0083 0.3145 2.9949 2.4902 -357.7500 0.2974
5785.5 1.9511 1.8793 1.8287 101.2978 8.2360 0.0104 0.3181 3.0085 2.4939 -357.6354 0.2981
5786.0 1.9495 1.8639 1.8147 94.4212 8.2580 0.0107 0.3102 3.0206 2.4914 -357.5104 0.3048
5786.5 2.0215 1.9231 1.8628 98.3883 8.2800 0.0109 0.3097 3.0082 2.4877 -357.7292 0.3008
5787.0 2.0951 2.0027 1.9326 100.7693 8.2140 0.0061 0.3023 2.9850 2.4872 -357.9479 0.2965
5787.5 2.1912 2.0900 2.0098 99.9758 8.2360 0.0041 0.3032 2.9777 2.4950 -357.9375 0.2889
5788.0 2.2272 2.1339 2.0578 92.0414 8.2580 0.0036 0.3156 2.9975 2.5002 -357.7396 0.2961
5788.5 2.2377 2.1362 2.0696 91.5117 8.2140 0.0062 0.3384 3.0383 2.5146 -357.5938 0.3121
5789.0 2.2219 2.1149 2.0527 98.9173 8.2360 0.0110 0.3388 3.0648 2.5241 -357.8750 0.3246
5789.5 2.1810 2.0804 2.0233 100.5039 8.2140 0.0163 0.3404 3.0828 2.5280 -358.0729 0.3226
5790.0 2.1193 2.0375 1.9862 99.0755 8.2360 0.0169 0.3290 3.0561 2.5193 -358.1979 0.3360
5790.5 2.0669 1.9873 1.9381 100.3979 8.1920 0.0100 0.3335 2.9922 2.4948 -358.0625 0.3354
5791.0 2.0250 1.9696 1.9221 104.6301 8.2360 0.0069 0.3257 2.9590 2.4870 -357.9375 0.3428
5791.5 2.0305 1.9518 1.9029 105.5295 8.2360 0.0026 0.3362 2.9520 2.4925 -357.7708 0.3218
5792.0 2.0427 1.9708 1.9156 100.7688 8.2140 0.0021 0.3273 2.9865 2.5028 -357.6563 0.3249
5792.5 2.0530 1.9740 1.9242 100.5042 8.2140 -0.0021 0.3199 3.0097 2.4986 -357.5313 0.3178
5793.0 1.9879 1.9087 1.8723 98.9176 8.2580 0.0026 0.3144 3.0316 2.4957 -357.4688 0.3151
5793.5 1.9333 1.8467 1.8069 101.8267 8.2360 0.0058 0.3143 3.0675 2.4937 -357.3125 0.3108
5794.0 1.9469 1.8510 1.8088 98.9177 8.3019 0.0225 0.3118 3.1737 2.5197 -357.2000 0.3071
5794.5 1.9793 1.8837 1.8373 103.1486 8.2800 0.0239 0.3121 3.3086 2.5210 -357.4583 0.3021
5795.0 2.0166 1.9311 1.8806 98.1236 8.2360 0.0276 0.3088 3.4089 2.5311 -357.8958 0.3073
5795.5 1.9909 1.9228 1.8700 99.9744 8.1920 0.0185 0.3200 3.3553 2.5190 -357.8750 0.3008
5796.0 1.9867 1.8996 1.8562 99.1817 8.2360 0.0183 0.3238 3.2075 2.5172 -357.7188 0.3111
5796.5 2.0201 1.9274 1.8798 99.9749 8.2360 0.0237 0.3421 3.0921 2.5265 -357.5521 0.3088
5797.0 2.0450 1.9664 1.9127 100.2401 8.2580 0.0236 0.3418 3.0452 2.5211 -357.5417 0.3180
5797.5 2.0871 2.0086 1.9528 98.3887 8.2800 0.0262 0.3500 3.0458 2.5209 -357.6250 0.3225
5798.0 2.0972 2.0223 1.9717 101.0333 8.2360 0.0286 0.3490 3.0436 2.5221 -357.6458 0.3334
5798.5 2.1126 2.0362 1.9899 94.8438 8.2140 0.0230 0.3370 3.0283 2.5295 -357.6875 0.3456
5799.0 2.1422 2.0799 2.0350 95.9014 8.2360 0.0173 0.3375 3.0309 2.5363 -357.7500 0.3275
5799.5 2.1209 2.0656 2.0242 98.0179 8.2580 -0.0012 0.3340 3.0194 2.5224 -357.6875 0.3365
5800.0 2.0489 1.9965 1.9579 101.8266 8.2140 0.0007 0.3297 3.0312 2.5166 -357.4583 0.3366
5800.5 2.0107 1.9588 1.9203 96.0080 8.2140 0.0078 0.3222 3.0472 2.5110 -357.5417 0.3252
5801.0 1.9778 1.9304 1.8997 91.5118 8.2360 0.0214 0.3159 3.0591 2.5148 -357.5729 0.3209
5801.5 1.9467 1.8989 1.8759 90.9824 8.3679 0.0246 0.3394 3.0643 2.5120 -357.5625 0.3112
5802.0 1.9284 1.8808 1.8493 99.7109 8.3679 0.0258 0.3180 3.0787 2.5159 -357.5208 0.3343
5802.5 1.9105 1.8590 1.8220 100.7686 8.3019 0.0225 0.3320 3.1026 2.5053 -357.3542 0.3156
5803.0 1.8996 1.8446 1.8072 98.3889 8.3239 0.0227 0.3212 3.1132 2.5043 -357.5104 0.3211
5803.5 1.9193 1.8707 1.8262 90.9829 8.2800 0.0134 0.3363 3.0726 2.4899 -357.6146 0.3115
5804.0 1.9390 1.8852 1.8295 97.8597 8.3019 0.0078 0.3149 3.0532 2.4888 -357.8250 0.3236
5804.5 1.9745 1.9080 1.8528 100.7685 8.2800 0.0001 0.3079 3.0765 2.4706 -357.8854 0.3070
5805.0 1.9349 1.8899 1.8375 108.1745 8.3019 0.0015 0.3068 3.0920 2.4663 -357.5938 0.3034
5805.5 1.9042 1.8428 1.7914 102.0914 8.3679 0.0049 0.3281 3.0624 2.4609 -357.4896 0.3078
5806.0 1.8703 1.8138 1.7697 105.2652 8.2800 0.0083 0.3264 2.9988 2.4700 -357.4063 0.3247
5806.5 1.8803 1.8198 1.7751 98.4938 8.3239 0.0061 0.3264 2.9947 2.4652 -357.4271 0.3194
5807.0 1.8793 1.8162 1.7733 97.4360 8.2800 0.0026 0.3111 3.0458 2.4548 -357.3438 0.3182
5807.5 1.8897 1.8107 1.7715 91.6174 8.2360 0.0123 0.3120 3.1149 2.4649 -357.3229 0.3079
5808.0 1.8464 1.7748 1.7372 94.4209 8.2800 0.0193 0.3316 3.1446 2.4780 -357.2292 0.3117
5808.5 1.7975 1.7311 1.6966 98.1235 8.3019 0.0204 0.3445 3.1058 2.4964 -357.1354 0.3229
5809.0 1.7571 1.6902 1.6567 96.2725 8.3459 0.0099 0.3591 3.0373 2.4968 -356.9063 0.3328
5809.5 1.7298 1.6604 1.6223 96.8013 8.3239 0.0086 0.3673 2.9934 2.4936 -356.9688 0.3425
5810.0 1.7280 1.6524 1.6086 94.9501 8.3019 0.0166 0.3560 3.0099 2.4924 -356.9375 0.3592
5810.5 1.7490 1.6811 1.6305 99.7104 8.2800 0.0208 0.3667 3.0492 2.4822 -356.9063 0.3404
5811.0 1.7937 1.7150 1.6588 101.5622 8.3459 0.0265 0.3306 3.0979 2.4991 -356.9063 0.3427
5811.5 1.8251 1.7355 1.6648 100.7682 8.3239 0.0237 0.3257 3.1262 2.5055 -357.1500 0.3190
5812.0 1.8576 1.7661 1.6908 97.3303 8.3239 0.0228 0.3191 3.1874 2.5090 -357.5417 0.3130
5812.5 1.8598 1.7647 1.7030 98.1239 8.2800 0.0313 0.3235 3.2645 2.4967 -357.7604 0.3123
5813.0 1.8290 1.7406 1.6876 93.6279 8.2580 0.0449 0.3360 3.2934 2.4967 -357.4583 0.3243
5813.5 1.8169 1.7310 1.6791 94.6857 8.3019 0.0522 0.3528 3.2204 2.4956 -357.1875 0.3262
5814.0 1.8110 1.7277 1.6817 89.6604 8.3239 0.0430 0.3536 3.1056 2.4904 -357.2917 0.3348
5814.5 1.7910 1.7079 1.6710 92.8341 8.3239 0.0271 0.3482 3.0262 2.4798 -357.3021 0.3435
5815.0 1.7639 1.6796 1.6459 98.9169 8.3679 0.0201 0.3312 3.0070 2.4769 -357.2500 0.3510
5815.5 1.7476 1.6651 1.6404 106.5340 8.3459 0.0196 0.3313 3.0124 2.4773 -357.0625 0.3343
5816.0 1.7620 1.6667 1.6503 102.8312 8.4558 0.0202 0.3437 3.0267 2.4764 -356.8750 0.3320
5816.5 1.7789 1.6696 1.6540 95.1616 8.5658 0.0243 0.3726 3.0465 2.4823 -356.8021 0.3352
5817.0 1.7746 1.6552 1.6407 90.4540 8.3679 0.0206 0.3626 3.0554 2.4784 -356.5729 0.3581
