~VERSION INFORMATION
VERS.           2.0   :CWLS Log ASCII Standard - VERSION 2.0
WRAP.           NO    :One Line per depth step
PROD.  Schlumberger   :LAS Producer
PROG.  DLIS to ASCII 19C2-270                          :LAS Program name and version
CREA.        2013/08/28 17:00                          :LAS Creation date {YYYY/MM/DD hh:mm}
DLIS_CREA.  2013-Aug-28 16:23                          :DLIS Creation date and time {YYYY-MMM-DD hh:mm}
SOURCE.     Bear_Oil_Marquardt_43_31_Main_DLIS.dlis    :DLIS File Name
FILE-ID.     MaxWell_5Dlis                             :File Identification Number
#--------------------------------------------------
~WELL INFORMATION
#MNEM.UNIT      DATA             DESCRIPTION
#---- ------ --------------   -----------------------------
STRT .F      1000.5          :START DEPTH        # original; data subset to 5500-8000
STOP .F      7710.0          :STOP DEPTH        # original; data subset to 5500-8000
STEP .F       0.5            :STEP     
NULL .          -999.25      :NULL VALUE
COMP .        Bear Oil and Gas, Inc.                   :COMPANY
WELL .        Marquardt 43 31                          :WELL
FLD  .        Wildcat                                  :FIELD
LOC  .        NESE 1627' FSL & 170' FEL                :LOCATION
CNTY .        Laramie                                  :COUNTY
STAT .        Wyoming                                  :STATE
CTRY .        United States                            :COUNTRY
API  .        049-021-21034                            :API NUMBER
UWI  .        049021210340000                          :UNIQUE WELL ID
DATE .        28-Aug-2013                              :LOG DATE {DD-MMM-YYYY}
SRVC .        Schlumberger                             :SERVICE COMPANY
LATI .DEG     41.306700 degrees                        :LATITUDE
LONG .DEG     -104.11980 degrees                       :LONGITUDE
GDAT .                                                 :GeoDetic Datum
SECT .        31                                       :Section
RANG .        60W                                      :Range
TOWN .        16N                                      :Township
#-----------------------------------------------------------------------------
~PARAMETER INFORMATION
#MNEM.UNIT    VALUE                      DESCRIPTION
#---- -----   --------------------       ------------------------
CN   .        Bear Oil and Gas  Inc.     :Company Name
WN   .        Marquardt 43 31            :Well Name
FN   .        Wildcat                    :Field Name
FL   .        NESE 1627' FSL & 170' FEL  :Field Location
FL1  .        Sec. 31  T. 16N  R. 60W    :Field Location, Line 1
COUN .        Laramie                    :County or Parish
STAT .        Wyoming                    :State or Province
NATI .        United States              :Nation
DATE .        28-Aug-2013                :Tools Above Rotary Table Date
APIN .        049-021-21034              :API Well Number
SECT .        31                         :Section
TOWN .        16N                        :Township
RANG .        60W                        :Range
DMF  .        KB                         :Drilling Measured From (Name of Drilling Elevation Reference)
LMF  .        KB                         :Logging Measured From (Name of Logging Elevation Reference)
PDAT .        GL                         :Permanent Datum
ENGI .        Max Pace                   :Engineer s Name
WITN .        Terry Eittreim             :Witness s Name
LATI .        41.306700 degrees          :Latitude
LONG .        -104.11980 degrees         :Longitude
LUL  .        Fort Morgan  CO            :Logging Unit Location
LUN  .        3022                       :Logging Unit Number
RUN  .        Run 1                      :Run Number
SON  .        CA0R-00043                 :Service Order Number
BHT  .DEGF     166.00000                 :Bottom Hole Temperature
BS   .IN         7.87500                 :Bit Size
MDEN .G/C3       2.65000                 :Matrix Density for Density Porosity
DFD  .LB/G       8.90000                 :Drilling Fluid Density
DFV  .S         65.00000                 :Drilling Fluid Viscosity
DFL  .C3         9.00000                 :Drilling Fluid Loss
RMFS .OHMM       1.11000                 :Resistivity of Mud Filtrate Sample
EKB  .F       5298.00000                 :Elevation of Kelly Bushing
EGL  .F       5286.00000                 :Elevation of Ground Level
BLI  .F       7686.00000                 :Bottom Log Interval
BSAL .PPM     3335.81519                 :Borehole Salinity
FLEV .F          8.00000                 :Depth of Drilling Fluid Level to LMF (Log Measured From)
MCST .DEGF      83.00000                 :Mudcake Sample Temperature
MFST .DEGF      83.00000                 :Mud Filtrate Sample Temperature
MRT  .DEGF     166.00000                 :Maximum Recorded Temperature
MST  .DEGF      83.00000                 :Mud Sample Temperature
RMCS .OHMM       1.85000                 :Resistivity of Mud Cake Sample
RMS  .OHMM       1.48000                 :Resistivity of Mud Sample
RW   .OHMM       1.00000                 :Connate Water Resistivity
TDD  .F       7680.00000                 :Driller Total Depth
TDL  .F       7686.00000                 :Logger Total Depth
TLI  .F       1025.00000                 :Top Log Interval
HIDE .        Wildcat                    :Header Identifier
MATR .        SAND                       :Rock Matrix for Neutron Porosity Corrections
FNUM .           1.00000                 :F-Numerator for Formation Factor Formula
FEXP .           2.00000                 :Exponent "m" for Formation Factor Formula
DFT  .        WATER                      :Drilling Fluid Type
DFPH .           8.00000                 :Drilling Fluid pH
MCSS .        Calculated                 :Mudcake Sample Source
MFSS .        Calculated                 :Mud Filtrate Sample Source
FD   .G/C3       1.00000                 :Fluid Density
MSS  .        Active Tank                :Mud Sample Source
OS1  .                                   :Other Services Line 1
OS2  .                                   :Other Services Line 2
OS3  .                                   :Other Services Line 3
OS4  .                                   :Other Services Line 4
OS5  .                                   :Other Services Line 5
R1   .                                   :Remarks Line 1
R2   .                                   :Remarks Line 2
R3   .                                   :Remarks Line 3
R4   .                                   :Remarks Line 4
R5   .                                   :Remarks Line 5
R6   .                                   :Remarks Line 6
R7   .                                   :Remarks Line 7
R8   .                                   :Remarks Line 8
TCS  .        05 00 00                   :Time Circulation Stopped
TLAB .        14 30 25                   :Time Logger At Bottom
NMT  .        NOBARITE                   :HRDD Mud Type for Nuclear Devices
EPD  .F         5286.000000              :Elevation of Permanent Datum above Mean Sea Level
APD  .F          12.000000               :Elevation of Depth Reference (LMF) above Permanent Datum
#-----------------------------------------------------------------------------
~CURVE INFORMATION
#MNEM.UNIT   API CODE                                  DESCRIPTION
#---- -----  --------                                  -----------------------
DEPT .F                                                :DEPTH (BOREHOLE) {F10.1}
AT10 .OHMM                                             :Array Induction Two Foot Resistivity A10 {F11.4}
AT30 .OHMM                                             :Array Induction Two Foot Resistivity A30 {F11.4}
AT90 .OHMM                                             :Array Induction Two Foot Resistivity A90 {F11.4}
GR   .GAPI                                             :Gamma Ray {F11.4}
HCAL .IN                                               :HRCC Caliper Calibrated {F11.4}
HDRA .G/C3                                             :Density Standoff Correction {F11.4}
NPHI .CFCF                                             :Thermal Neutron Porosity (original Ratio Method) in Selected Lithology {F11.4}
PEFZ .                                                 :Standard Resolution Formation Photoelectric Factor {F11.4}
RHOZ .G/C3                                             :Standard Resolution Formation Density {F11.4}
SP   .MV                                               :Spontaneous Potential {F11.4}
TNPH .CFCF                                             :Thermal Neutron Porosity (Ratio Method) in Selected Lithology {F11.4}
#-----------------------------------------------------------------------------
# 
#     DEPT       AF10       AF20       AF30       AF60       AF90       AO10       AO20       AO30       AO60       AO90       AT10       AT20       AT30       AT60       AT90     AHFCO60      AHMF      AHORT      AHORX      AHSCA     AHTCO10    AHTCO20    AHTCO30    AHTCO60    AHTCO90     AHTD1      AHTD2      AHTRT      AHTRX       CDF        CFTC       CNTC       CTEM       DCAL       DNPH       DPHZ       DSOZ       ECGR        ED        GDEV        GR        GTEM       HCAL       HDRA       HDRB       HGR        HMIN       HMNO       HNPO       HPRA       HTNP        ND        NPHI       NPOR       PEFZ    PXND_HILT     RHOZ       RSOZ     RWA_HILT     RXO8       RXOZ        SP        SPAR       STIT       TENS       TNPH     HTNP_SAN
#
~A  DEPT AT10 AT30 AT90 GR HCAL HDRA NPHI PEFZ RHOZ SP TNPH
# ...
6091.5 3.2480 3.1629 3.0959 109.4785 7.8403 -0.0002 0.2894 2.7749 2.5367 -73.7188 0.2738
6092.0 3.2831 3.1919 3.1133 111.8128 7.8631 -0.0002 0.2966 2.7749 2.5321 -73.8393 0.2821
6092.5 3.3385 3.2603 3.1721 108.8949 7.8403 0.0000 0.2876 2.7624 2.5238 -74.0703 0.2936
6093.0 3.3168 3.2504 3.1773 106.0095 7.8403 0.0020 0.2956 2.7603 2.5225 -74.1429 0.2832
6093.5 3.2669 3.1774 3.1252 107.8577 7.8174 0.0027 0.2937 2.7876 2.5340 -74.0469 0.2868
6094.0 3.2611 3.1661 3.0922 117.7779 7.8174 0.0013 0.2937 2.8101 2.5543 -73.8482 0.2827
6094.5 3.2956 3.2149 3.1379 122.9650 7.8403 0.0009 0.2700 2.7883 2.5654 -73.9375 0.2852
6095.0 3.3116 3.2592 3.1825 119.7880 7.8631 -0.0022 0.2717 2.7829 2.5477 -73.8750 0.2632
6095.5 3.3279 3.2745 3.2025 109.6730 7.8403 -0.0030 0.2713 2.8116 2.5264 -73.9609 0.2646
6096.0 3.3901 3.2942 3.2437 104.8751 7.8403 -0.0053 0.2733 2.8591 2.5132 -74.0893 0.2642
6096.5 3.4757 3.3710 3.3022 108.7971 7.8517 -0.0033 0.2625 2.8337 2.5238 -74.0547 0.2628
6097.0 3.5062 3.4083 3.3322 118.0690 7.8631 -0.0014 0.2596 2.8033 2.5372 -73.7411 0.2525
6097.5 3.4872 3.3723 3.3006 117.4208 7.8517 0.0012 0.2734 2.7982 2.5524 -73.7344 0.2558
6098.0 3.5018 3.4032 3.3145 111.7154 7.8631 0.0013 0.2820 2.8310 2.5537 -73.7589 0.2630
6098.5 3.5046 3.4255 3.3465 109.2195 7.8517 0.0014 0.2767 2.8627 2.5551 -73.8203 0.2683
6099.0 3.4963 3.4077 3.3051 109.9974 7.8631 0.0011 0.2854 2.8639 2.5489 -73.8571 0.2650
6099.5 3.4356 3.3739 3.2774 114.5035 7.8631 0.0021 0.2925 2.8573 2.5363 -73.8203 0.2798
6100.0 3.3874 3.3339 3.2315 113.9522 7.8631 0.0083 0.3006 2.8477 2.5392 -74.0268 0.2889
6100.5 3.4044 3.3345 3.2346 116.0923 7.8403 0.0079 0.2878 2.8252 2.5307 -74.1797 0.2932
6101.0 3.5296 3.4503 3.3403 116.7732 7.8631 0.0060 0.2783 2.8389 2.5351 -74.1339 0.2755
6101.5 3.6296 3.5307 3.4169 109.8356 7.8403 -0.0005 0.2728 2.8333 2.5281 -74.1607 0.2710
6102.0 3.7244 3.6252 3.5365 113.1418 7.8403 -0.0016 0.2689 2.8419 2.5335 -74.3672 0.2631
6102.5 3.8558 3.7729 3.6964 105.6207 7.8631 -0.0017 0.2604 2.8305 2.5347 -74.5268 0.2609
6103.0 3.9587 3.8805 3.8143 108.5706 7.8631 -0.0037 0.2536 2.8947 2.5243 -74.8203 0.2535
6103.5 3.9180 3.8635 3.8037 100.5314 7.8403 -0.0055 0.2617 2.9747 2.5171 -74.4732 0.2478
6104.0 3.8455 3.8008 3.7461 103.9677 7.8859 -0.0075 0.2724 3.0064 2.5142 -74.5469 0.2527
6104.5 3.8382 3.7731 3.7124 105.1024 7.8631 -0.0046 0.2798 2.9095 2.5326 -74.5089 0.2627
6105.0 3.8403 3.7669 3.7023 108.2466 7.8631 -0.0029 0.2758 2.8250 2.5535 -74.4922 0.2664
6105.5 3.8444 3.7582 3.6919 106.3662 7.8631 0.0004 0.2672 2.7697 2.5671 -74.4732 0.2678
6106.0 3.7894 3.7095 3.6502 105.9126 7.8403 -0.0001 0.2739 2.7852 2.5611 -74.2031 0.2673
6106.5 3.7510 3.6754 3.6110 112.3640 7.8403 0.0005 0.2703 2.7718 2.5545 -74.2054 0.2719
6107.0 3.7263 3.6658 3.5752 113.9201 7.8403 0.0049 0.2894 2.8085 2.5399 -74.2422 0.2623
6107.5 3.7389 3.6419 3.5628 115.2814 7.8517 0.0040 0.2912 2.8536 2.5257 -74.3125 0.2747
6108.0 3.6245 3.5809 3.5005 107.5007 7.8631 0.0062 0.2954 2.8856 2.5253 -74.1875 0.2805
6108.5 3.4787 3.4100 3.3544 107.8247 7.8631 0.0035 0.2888 2.8832 2.5376 -73.8839 0.2933
6109.0 3.4435 3.4135 3.3420 111.0672 7.8859 0.0039 0.2774 2.8500 2.5478 -74.0000 0.2849
6109.5 3.5630 3.4821 3.3907 112.3640 7.8745 0.0018 0.2724 2.8270 2.5443 -74.3482 0.2728
6110.0 3.6634 3.5026 3.4249 111.4566 7.8859 -0.0003 0.2660 2.7988 2.5400 -74.4141 0.2655
6110.5 3.6195 3.4720 3.4013 110.9373 7.8403 0.0014 0.2781 2.7991 2.5454 -73.9821 0.2713
6111.0 3.5496 3.4539 3.3788 107.7930 7.8403 0.0041 0.2808 2.8392 2.5494 -73.7768 0.2815
6111.5 3.5651 3.4364 3.3543 112.2665 7.8403 0.0050 0.2744 2.8592 2.5457 -73.9141 0.2719
6112.0 3.5844 3.4980 3.4189 108.4085 7.8859 0.0049 0.2736 2.8528 2.5420 -74.0179 0.2588
6112.5 3.4925 3.4048 3.3315 107.4036 7.8859 0.0027 0.2864 2.7974 2.5398 -73.9531 0.2611
6113.0 3.4195 3.3475 3.2833 109.2195 7.8973 0.0004 0.2947 2.7876 2.5429 -74.1429 0.2835
6113.5 3.4179 3.3502 3.2809 107.1773 7.9087 -0.0035 0.2974 2.8130 2.5402 -74.1406 0.2925
6114.0 3.4408 3.3590 3.2928 111.5858 7.9201 -0.0079 0.2856 2.8600 2.5311 -74.1161 0.2876
6114.5 3.4498 3.3673 3.3029 108.7004 7.8859 -0.0099 0.2873 2.8822 2.5265 -73.8672 0.2772
6115.0 3.4952 3.3913 3.3271 107.8574 7.8859 -0.0068 0.2768 2.8733 2.5336 -73.7500 0.2779
6115.5 3.4942 3.4023 3.3316 102.4114 7.8631 -0.0017 0.2739 2.8944 2.5390 -73.6172 0.2739
6116.0 3.4406 3.3498 3.3091 101.6658 7.8631 0.0004 0.2733 2.9046 2.5339 -73.5893 0.2704
6116.5 3.4402 3.3887 3.3206 107.2741 7.8517 -0.0006 0.2763 2.8915 2.5282 -73.7188 0.2687
6117.0 3.5064 3.4422 3.3696 112.4610 7.8859 -0.0039 0.2757 2.9069 2.5168 -73.7679 0.2645
6117.5 3.5919 3.4929 3.4163 111.3913 7.8859 -0.0052 0.2731 2.9159 2.5201 -73.8906 0.2634
6118.0 3.6955 3.5873 3.5002 107.0795 7.8631 -0.0035 0.2770 2.9336 2.5305 -73.8482 0.2679
6118.5 3.5726 3.5321 3.4462 109.3813 7.8631 -0.0014 0.2812 2.8923 2.5395 -73.6797 0.2742
6119.0 3.4531 3.3900 3.3103 107.0793 7.8403 0.0035 0.2799 2.8525 2.5475 -73.7054 0.2792
6119.5 3.4248 3.3497 3.2561 105.2639 7.8631 0.0044 0.2731 2.8217 2.5419 -74.1563 0.2785
6120.0 3.4779 3.4106 3.3030 100.9521 7.8631 0.0048 0.2810 2.7726 2.5438 -74.0536 0.2725
6120.5 3.4450 3.3903 3.2998 95.7652 7.8631 0.0043 0.2812 2.7778 2.5473 -73.9732 0.2739
6121.0 3.4199 3.3395 3.2574 96.9000 7.8403 0.0053 0.2752 2.7949 2.5587 -73.9531 0.2670
6121.5 3.5059 3.4132 3.3217 98.1322 7.8403 0.0045 0.2589 2.8173 2.5659 -73.9911 0.2529
6122.0 3.5942 3.5163 3.4045 97.4513 7.8745 -0.0007 0.2598 2.8167 2.5594 -74.0703 0.2471
6122.5 3.6282 3.5492 3.4416 91.9080 7.8631 -0.0072 0.2739 2.8252 2.5422 -74.1607 0.2523
6123.0 3.5603 3.4838 3.3865 92.9451 7.8517 -0.0084 0.2856 2.8287 2.5358 -74.0156 0.2670
6123.5 3.5130 3.4351 3.3419 97.5158 7.8403 -0.0029 0.2753 2.8280 2.5479 -73.9821 0.2817
6124.0 3.4700 3.3824 3.2946 102.1838 7.8631 -0.0009 0.2660 2.8394 2.5466 -73.9688 0.2758
6124.5 3.4230 3.3458 3.2461 107.4033 7.8631 -0.0001 0.2660 2.8681 2.5444 -73.8661 0.2628
6125.0 3.3750 3.3249 3.2317 112.3316 7.8631 -0.0014 0.2777 2.8776 2.5359 -73.8281 0.2655
6125.5 3.3228 3.2931 3.2038 116.6109 7.8631 0.0025 0.2771 2.8726 2.5452 -73.8304 0.2721
6126.0 3.2626 3.1879 3.1160 109.3166 7.8403 -0.0007 0.2755 2.8654 2.5487 -73.7422 0.2663
6126.5 3.3329 3.2293 3.1479 106.6256 7.8631 -0.0015 0.2727 2.8654 2.5508 -73.8214 0.2636
6127.0 3.4029 3.3388 3.2229 104.4211 7.8403 -0.0033 0.2884 2.8546 2.5458 -73.7813 0.2678
6127.5 3.4916 3.4225 3.3217 112.6229 7.8631 0.0005 0.2869 2.8513 2.5442 -73.5893 0.2776
6128.0 3.4488 3.3788 3.2865 114.7950 7.8631 0.0021 0.2922 2.8626 2.5486 -73.4922 0.2816
6128.5 3.4003 3.3292 3.2418 120.2413 7.8403 0.0022 0.2749 2.8693 2.5528 -73.6696 0.2886
6129.0 3.3451 3.2701 3.1935 116.8379 7.8517 0.0040 0.2903 2.8860 2.5593 -73.6328 0.2660
6129.5 3.3256 3.2478 3.1721 112.4288 7.8631 0.0033 0.2822 2.8765 2.5580 -73.6518 0.2748
6130.0 3.4279 3.3511 3.2602 110.0944 7.7262 0.0023 0.2833 2.8757 2.5602 -73.8359 0.2701
6130.5 3.5049 3.4401 3.3258 106.0740 7.7490 0.0007 0.2620 2.8886 2.5520 -73.9554 0.2673
6131.0 3.5226 3.4427 3.3371 109.2191 7.8631 0.0010 0.2608 2.9178 2.5489 -73.8281 0.2512
6131.5 3.5131 3.4282 3.3313 103.7729 7.8403 0.0038 0.2624 2.9615 2.5489 -73.8393 0.2563
6132.0 3.4320 3.3712 3.2724 106.8857 7.8403 0.0097 0.2627 3.0054 2.5614 -73.5625 0.2583
6132.5 3.3227 3.2701 3.1884 107.6309 7.8631 0.0081 0.2916 3.0084 2.5526 -73.4107 0.2607
6133.0 3.2682 3.1859 3.1048 109.4462 7.8631 0.0066 0.2951 2.9953 2.5478 -73.5179 0.2809
6133.5 3.3452 3.2858 3.1875 107.4036 7.8403 0.0022 0.2957 2.9516 2.5479 -73.6172 0.2847
6134.0 3.4133 3.3570 3.2465 109.2191 7.8403 0.0038 0.2681 2.9388 2.5604 -73.5268 0.2854
6134.5 3.2836 3.2392 3.1480 112.6234 7.8631 0.0031 0.2812 2.9168 2.5583 -73.4688 0.2668
6135.0 3.2029 3.1217 3.0525 114.4061 7.8631 0.0024 0.2931 2.8949 2.5445 -73.3929 0.2808
6135.5 3.1460 3.0768 3.0039 113.3692 7.8403 0.0003 0.3018 2.8956 2.5276 -73.3125 0.2884
6136.0 3.2818 3.1619 3.0705 108.8303 7.8631 -0.0006 0.2949 2.8897 2.5234 -73.2500 0.2874
6136.5 3.3543 3.2832 3.1648 107.0148 7.7262 -0.0018 0.2826 2.8784 2.5265 -73.3047 0.2802
