~VERSION INFORMATION
VERS.           2.0   :CWLS Log ASCII Standard - VERSION 2.0
WRAP.           NO    :One Line per depth step
PROD.  Schlumberger   :LAS Producer
PROG.  DLIS to ASCII 19C2-270                          :LAS Program name and version
CREA.        2013/08/28 17:00                          :LAS Creation date {YYYY/MM/DD hh:mm}
DLIS_CREA.  2013-Aug-28 16:23                          :DLIS Creation date and time {YYYY-MMM-DD hh:mm}
SOURCE.     Bear_Oil_Marquardt_43_31_Main_DLIS.dlis    :DLIS File Name
FILE-ID.     MaxWell_5Dlis                             :File Identification Number
#--------------------------------------------------
~WELL INFORMATION
#MNEM.UNIT      DATA             DESCRIPTION
#---- ------ --------------   -----------------------------
STRT .F      1000.5          :START DEPTH        # original; data subset to 5500-8000
STOP .F      7710.0          :STOP DEPTH        # original; data subset to 5500-8000
STEP .F       0.5            :STEP     
NULL .          -999.25      :NULL VALUE
COMP .        Bear Oil and Gas, Inc.                   :COMPANY
WELL .        Marquardt 43 31                          :WELL
FLD  .        Wildcat                                  :FIELD
LOC  .        NESE 1627' FSL & 170' FEL                :LOCATION
CNTY .        Laramie                                  :COUNTY
STAT .        Wyoming                                  :STATE
CTRY .        United States                            :COUNTRY
API  .        049-021-21034                            :API NUMBER
UWI  .        049021210340000                          :UNIQUE WELL ID
DATE .        28-Aug-2013                              :LOG DATE {DD-MMM-YYYY}
SRVC .        Schlumberger                             :SERVICE COMPANY
LATI .DEG     41.306700 degrees                        :LATITUDE
LONG .DEG     -104.11980 degrees                       :LONGITUDE
GDAT .                                                 :GeoDetic Datum
SECT .        31                                       :Section
RANG .        60W                                      :Range
TOWN .        16N                                      :Township
#-----------------------------------------------------------------------------
~PARAMETER INFORMATION
#MNEM.UNIT    VALUE                      DESCRIPTION
#---- -----   --------------------       ------------------------
CN   .        Bear Oil and Gas  Inc.     :Company Name
WN   .        Marquardt 43 31            :Well Name
FN   .        Wildcat                    :Field Name
FL   .        NESE 1627' FSL & 170' FEL  :Field Location
FL1  .        Sec. 31  T. 16N  R. 60W    :Field Location, Line 1
COUN .        Laramie                    :County or Parish
STAT .        Wyoming                    :State or Province
NATI .        United States              :Nation
DATE .        28-Aug-2013                :Tools Above Rotary Table Date
APIN .        049-021-21034              :API Well Number
SECT .        31                         :Section
TOWN .        16N                        :Township
RANG .        60W                        :Range
DMF  .        KB                         :Drilling Measured From (Name of Drilling Elevation Reference)
LMF  .        KB                         :Logging Measured From (Name of Logging Elevation Reference)
PDAT .        GL                         :Permanent Datum
ENGI .        Max Pace                   :Engineer s Name
WITN .        Terry Eittreim             :Witness s Name
LATI .        41.306700 degrees          :Latitude
LONG .        -104.11980 degrees         :Longitude
LUL  .        Fort Morgan  CO            :Logging Unit Location
LUN  .        3022                       :Logging Unit Number
RUN  .        Run 1                      :Run Number
SON  .        CA0R-00043                 :Service Order Number
BHT  .DEGF     166.00000                 :Bottom Hole Temperature
BS   .IN         7.87500                 :Bit Size
MDEN .G/C3       2.65000                 :Matrix Density for Density Porosity
DFD  .LB/G       8.90000                 :Drilling Fluid Density
DFV  .S         65.00000                 :Drilling Fluid Viscosity
DFL  .C3         9.00000                 :Drilling Fluid Loss
RMFS .OHMM       1.11000                 :Resistivity of Mud Filtrate Sample
EKB  .F       5298.00000                 :Elevation of Kelly Bushing
EGL  .F       5286.00000                 :Elevation of Ground Level
BLI  .F       7686.00000                 :Bottom Log Interval
BSAL .PPM     3335.81519                 :Borehole Salinity
FLEV .F          8.00000                 :Depth of Drilling Fluid Level to LMF (Log Measured From)
MCST .DEGF      83.00000                 :Mudcake Sample Temperature
MFST .DEGF      83.00000                 :Mud Filtrate Sample Temperature
MRT  .DEGF     166.00000                 :Maximum Recorded Temperature
MST  .DEGF      83.00000                 :Mud Sample Temperature
RMCS .OHMM       1.85000                 :Resistivity of Mud Cake Sample
RMS  .OHMM       1.48000                 :Resistivity of Mud Sample
RW   .OHMM       1.00000                 :Connate Water Resistivity
TDD  .F       7680.00000                 :Driller Total Depth
TDL  .F       7686.00000                 :Logger Total Depth
TLI  .F       1025.00000                 :Top Log Interval
HIDE .        Wildcat                    :Header Identifier
MATR .        SAND                       :Rock Matrix for Neutron Porosity Corrections
FNUM .           1.00000                 :F-Numerator for Formation Factor Formula
FEXP .           2.00000                 :Exponent "m" for Formation Factor Formula
DFT  .        WATER                      :Drilling Fluid Type
DFPH .           8.00000                 :Drilling Fluid pH
MCSS .        Calculated                 :Mudcake Sample Source
MFSS .        Calculated                 :Mud Filtrate Sample Source
FD   .G/C3       1.00000                 :Fluid Density
MSS  .        Active Tank                :Mud Sample Source
OS1  .                                   :Other Services Line 1
OS2  .                                   :Other Services Line 2
OS3  .                                   :Other Services Line 3
OS4  .                                   :Other Services Line 4
OS5  .                                   :Other Services Line 5
R1   .                                   :Remarks Line 1
R2   .                                   :Remarks Line 2
R3   .                                   :Remarks Line 3
R4   .                                   :Remarks Line 4
R5   .                                   :Remarks Line 5
R6   .                                   :Remarks Line 6
R7   .                                   :Remarks Line 7
R8   .                                   :Remarks Line 8
TCS  .        05 00 00                   :Time Circulation Stopped
TLAB .        14 30 25                   :Time Logger At Bottom
NMT  .        NOBARITE                   :HRDD Mud Type for Nuclear Devices
EPD  .F         5286.000000              :Elevation of Permanent Datum above Mean Sea Level
APD  .F          12.000000               :Elevation of Depth Reference (LMF) above Permanent Datum
#-----------------------------------------------------------------------------
~CURVE INFORMATION
#MNEM.UNIT   API CODE                                  DESCRIPTION
#---- -----  --------                                  -----------------------
DEPT .F                                                :DEPTH (BOREHOLE) {F10.1}
AT10 .OHMM                                             :Array Induction Two Foot Resistivity A10 {F11.4}
AT30 .OHMM                                             :Array Induction Two Foot Resistivity A30 {F11.4}
AT90 .OHMM                                             :Array Induction Two Foot Resistivity A90 {F11.4}
GR   .GAPI                                             :Gamma Ray {F11.4}
HCAL .IN                                               :HRCC Caliper Calibrated {F11.4}
HDRA .G/C3                                             :Density Standoff Correction {F11.4}
NPHI .CFCF                                             :Thermal Neutron Porosity (original Ratio Method) in Selected Lithology {F11.4}
PEFZ .                                                 :Standard Resolution Formation Photoelectric Factor {F11.4}
RHOZ .G/C3                                             :Standard Resolution Formation Density {F11.4}
SP   .MV                                               :Spontaneous Potential {F11.4}
TNPH .CFCF                                             :Thermal Neutron Porosity (Ratio Method) in Selected Lithology {F11.4}
#-----------------------------------------------------------------------------
# 
#     DEPT       AF10       AF20       AF30       AF60       AF90       AO10       AO20       AO30       AO60       AO90       AT10       AT20       AT30       AT60       AT90     AHFCO60      AHMF      AHORT      AHORX      AHSCA     AHTCO10    AHTCO20    AHTCO30    AHTCO60    AHTCO90     AHTD1      AHTD2      AHTRT      AHTRX       CDF        CFTC       CNTC       CTEM       DCAL       DNPH       DPHZ       DSOZ       ECGR        ED        GDEV        GR        GTEM       HCAL       HDRA       HDRB       HGR        HMIN       HMNO       HNPO       HPRA       HTNP        ND        NPHI       NPOR       PEFZ    PXND_HILT     RHOZ       RSOZ     RWA_HILT     RXO8       RXOZ        SP        SPAR       STIT       TENS       TNPH     HTNP_SAN
#
~A  DEPT AT10 AT30 AT90 GR HCAL HDRA NPHI PEFZ RHOZ SP TNPH
# ...
7547.0 22.1859 42.3888 30.6335 42.7604 7.7604 0.0048 0.1396 2.1290 2.5082 -95.5804 0.1422
7547.5 30.1240 37.8591 32.3630 44.4459 7.7946 0.0117 0.1715 2.4478 2.5911 -93.2813 0.1427
7548.0 33.7480 24.0868 23.9104 44.7379 7.8174 0.0106 0.1878 2.6864 2.6267 -89.9821 0.1605
7548.5 12.7371 12.1498 13.6621 51.3512 7.7946 0.0100 0.1805 2.6364 2.5861 -85.6016 0.1702
7549.0 6.8486 7.0715 7.9635 67.5605 7.8174 0.0228 0.1486 2.4263 2.4939 -80.2768 0.1699
7549.5 4.4348 4.8254 5.2377 101.3088 7.9087 0.0711 0.1524 2.3172 2.4273 -73.0000 0.1760
7550.0 3.1488 3.6481 3.8962 133.8573 7.9087 0.1312 0.2249 2.4123 2.4238 -67.0357 0.2180
7550.5 2.5332 2.9739 3.0400 157.1344 8.2054 0.1678 0.3076 2.5464 2.4571 -64.4844 0.2942
7551.0 2.2604 2.5968 2.5459 160.4737 8.4792 0.1696 0.3773 2.6233 2.4915 -63.6161 0.3543
7551.5 2.2710 2.3499 2.2596 159.0148 7.9315 0.1593 0.3706 2.6481 2.5102 -63.2813 0.3626
7552.0 2.3427 2.3209 2.1424 152.3365 8.3879 0.1565 0.3292 2.6519 2.5138 -63.0982 0.3284
7552.5 2.3355 2.3312 2.1355 150.8122 8.0000 0.1643 0.3291 2.6502 2.5056 -63.0781 0.3227
7553.0 2.3738 2.2814 2.1645 148.1212 8.2282 0.1772 0.3437 2.6243 2.4964 -63.2232 0.3216
7553.5 2.2960 2.1974 2.1706 145.2685 8.0000 0.1804 0.3728 2.5629 2.4819 -63.2656 0.3448
7554.0 2.1380 2.1016 2.0314 149.1264 7.9772 0.1737 0.3669 2.5039 2.4800 -63.2679 0.3605
7554.5 2.1168 2.1425 2.1187 152.0444 7.9544 0.1619 0.3440 2.4933 2.4840 -63.5078 0.3404
7555.0 2.3935 2.4747 2.4212 156.1939 7.9315 0.1434 0.3305 2.5153 2.4764 -63.9375 0.3109
7555.5 2.7727 3.0163 2.9196 140.8922 8.1826 0.1187 0.3135 2.5424 2.4759 -64.9531 0.2886
7556.0 3.4829 3.4574 3.2855 130.2266 7.9315 0.0834 0.3211 2.5873 2.4887 -66.7679 0.2665
7556.5 4.6218 4.0771 3.8241 115.9621 7.9544 0.0461 0.2797 2.6286 2.5140 -70.2891 0.2578
7557.0 6.2349 5.6760 5.0314 106.7555 7.8973 0.0177 0.2287 2.6298 2.5376 -74.4911 0.2194
7557.5 10.5803 10.4445 7.7535 91.1619 7.8174 0.0013 0.1702 2.5136 2.5361 -77.3281 0.1819
7558.0 14.3542 15.3205 13.7240 79.4913 7.8174 -0.0023 0.1515 2.3237 2.5310 -78.7589 0.1519
7558.5 12.6738 14.1967 12.9316 76.7679 7.9544 0.0150 0.1501 2.1516 2.5394 -80.1094 0.1481
7559.0 11.8055 13.8463 11.6968 78.9726 7.8174 0.0193 0.1528 2.0522 2.5343 -81.6250 0.1514
7559.5 14.8029 17.4878 13.9745 88.5684 7.8403 0.0188 0.1443 2.0060 2.5273 -83.1875 0.1535
7560.0 15.7406 21.3430 15.9381 82.3441 7.8403 0.0035 0.1394 1.9789 2.5075 -84.6964 0.1464
7560.5 16.2906 19.9739 15.1339 84.8398 7.7718 0.0029 0.1506 1.9944 2.5049 -86.0469 0.1407
7561.0 21.1422 18.3827 14.1230 74.9845 7.7490 0.0098 0.1657 2.0563 2.5070 -87.4732 0.1455
7561.5 29.2068 35.4846 22.7562 72.1315 7.6577 0.0194 0.1659 2.1030 2.5037 -90.0804 0.1455
7562.0 69.8302 73.8780 46.4822 52.1295 7.7718 0.0203 0.1486 2.0927 2.4802 -93.4453 0.1375
7562.5 80.9332 83.0508 61.2344 36.5036 7.7034 0.0162 0.1308 2.0144 2.4478 -96.6607 0.1256
7563.0 71.4549 116.4842 95.2373 25.3515 7.7262 0.0069 0.1232 1.9174 2.4129 -99.5234 0.1193
7563.5 73.2182 152.7117 154.2647 23.5685 7.7034 0.0046 0.1232 1.8409 2.4000 -101.4911 0.1214
7564.0 73.0534 132.2879 202.9905 21.8179 7.7034 0.0041 0.1309 1.8203 2.3952 -103.1719 0.1246
7564.5 74.7947 113.3721 211.7351 20.0349 7.7034 0.0072 0.1339 1.8285 2.4017 -104.8672 0.1275
7565.0 72.2352 105.7569 140.9615 19.4837 7.7262 0.0094 0.1396 1.8480 2.4108 -106.5804 0.1268
7565.5 68.3817 83.6183 99.3602 19.8727 7.7376 0.0080 0.1342 1.8481 2.4157 -108.2344 0.1310
7566.0 70.4810 73.5968 73.9914 20.8776 7.7718 0.0051 0.1265 1.8614 2.4195 -109.5982 0.1284
7566.5 88.4145 80.5972 80.0882 20.9750 7.7718 0.0046 0.1230 1.8810 2.4289 -110.6339 0.1223
7567.0 109.1864 94.8357 94.0219 24.9951 7.7490 0.0013 0.1227 1.9333 2.4341 -111.9844 0.1191
7567.5 139.2525 108.2606 97.2772 25.5785 7.7718 0.0001 0.1220 1.9845 2.4746 -113.3482 0.1145
7568.0 174.5839 118.8776 100.4553 26.2592 7.8174 -0.0022 0.1016 2.0971 2.5228 -114.1250 0.1038
7568.5 173.8503 128.6560 99.8828 20.5534 7.8403 0.0007 0.0795 2.1796 2.5687 -115.4821 0.0847
7569.0 134.7840 93.6254 76.4164 19.1919 7.8174 0.0021 0.0700 2.1777 2.5544 -116.4063 0.0731
7569.5 114.1416 83.9948 62.8567 19.1921 7.7718 0.0038 0.0815 2.0192 2.5105 -116.9286 0.0756
7570.0 121.0607 84.9600 58.1574 22.6933 7.7376 0.0051 0.0977 1.8396 2.4676 -117.0859 0.0890
7570.5 123.5349 87.8590 58.0643 22.6932 7.7034 0.0065 0.1058 1.7512 2.4460 -117.4643 0.1000
7571.0 125.0100 86.7778 58.2615 24.0547 7.7034 0.0116 0.1043 1.7723 2.4452 -118.0859 0.1035
7571.5 130.5880 86.6207 59.1275 23.1471 7.7034 0.0115 0.1039 1.8149 2.4407 -118.2589 0.1006
7572.0 126.8389 84.6216 59.8467 23.1470 7.7034 0.0094 0.1064 1.8340 2.4326 -117.9609 0.1013
7572.5 110.4678 78.6056 59.7525 23.0823 7.7034 0.0031 0.1038 1.7933 2.4238 -117.9018 0.1025
7573.0 100.1171 74.6401 58.6676 22.4015 7.7148 0.0016 0.1012 1.7401 2.4259 -117.8359 0.0996
7573.5 93.0393 71.7746 58.7553 24.2170 7.7262 0.0014 0.0991 1.6948 2.4309 -117.7054 0.0988
7574.0 86.5713 69.8294 58.0957 20.8779 7.7148 0.0017 0.1005 1.6836 2.4290 -117.4219 0.0990
7574.5 80.8945 65.2911 55.3631 21.8181 7.7262 0.0070 0.0997 1.7017 2.4386 -117.2054 0.1005
7575.0 76.9683 62.3400 52.4783 19.5487 7.6805 0.0134 0.0972 1.7135 2.4481 -117.0234 0.0984
7575.5 76.7907 61.3131 51.1718 21.0721 7.6577 0.0312 0.1006 1.7379 2.4596 -116.5000 0.0964
7576.0 75.8142 60.1880 48.2220 21.7205 7.6577 0.0440 0.1003 1.7467 2.4534 -116.2344 0.0987
7576.5 73.0084 58.2955 45.6488 22.6931 7.6121 0.0589 0.1084 1.7579 2.4469 -115.9196 0.0999
7577.0 71.7348 57.2107 43.1327 26.3240 7.5893 0.0694 0.1132 1.7646 2.4453 -115.6406 0.1070
7577.5 69.1461 54.2689 39.5335 26.7779 7.5436 0.0784 0.1184 1.7680 2.4551 -115.3214 0.1104
7578.0 64.8974 52.0675 36.9189 27.0373 7.5436 0.0742 0.1213 1.7618 2.4598 -115.2656 0.1141
7578.5 58.1747 46.9207 32.6845 26.6484 7.5893 0.0568 0.1256 1.7520 2.4540 -115.2589 0.1159
7579.0 61.0336 48.9412 32.7917 24.8328 7.5664 0.0400 0.1267 1.7517 2.4466 -115.4688 0.1170
7579.5 66.4102 50.2753 31.7737 23.7955 7.5550 0.0344 0.1220 1.7590 2.4509 -115.5089 0.1134
7580.0 70.5591 51.2075 33.0184 22.6283 7.6577 0.0295 0.1131 1.7620 2.4555 -115.4531 0.1093
7580.5 78.0288 50.9749 32.9024 22.8553 7.6577 0.0217 0.1111 1.7637 2.4512 -115.4464 0.1046
7581.0 86.4153 51.0000 33.0146 20.2617 7.7034 0.0120 0.1072 1.7529 2.4515 -115.1719 0.1045
7581.5 99.5327 50.9158 33.5453 16.8902 7.7262 0.0048 0.1043 1.7192 2.4552 -114.7946 0.0991
7582.0 93.7301 49.3761 32.6005 17.8952 7.7034 0.0035 0.1002 1.6792 2.4644 -114.3125 0.0972
7582.5 86.5852 49.5054 32.8149 19.6135 7.7262 0.0037 0.0979 1.6563 2.4665 -113.7500 0.0946
7583.0 70.3173 44.6191 32.0894 22.2070 7.7034 0.0046 0.0969 1.6632 2.4620 -113.1641 0.0940
7583.5 58.1252 37.3804 27.8329 19.6135 7.7034 0.0053 0.1016 1.6791 2.4612 -112.3571 0.0961
7584.0 47.8541 32.3370 24.6624 23.6011 7.7034 0.0043 0.1026 1.6839 2.4553 -111.2031 0.1027
7584.5 39.9310 30.0494 23.4225 28.9502 7.7262 0.0059 0.1107 1.7097 2.4563 -109.5982 0.1091
7585.0 32.9732 27.5182 22.2431 38.2868 7.7148 0.0036 0.1369 1.7498 2.4397 -107.8281 0.1200
7585.5 29.6581 24.1261 20.7437 42.6956 7.7034 0.0018 0.1528 1.8251 2.4287 -107.0179 0.1408
7586.0 27.1697 22.0125 19.1719 37.3464 7.7604 -0.0010 0.1468 1.8612 2.4250 -107.4286 0.1430
7586.5 27.3352 22.1452 19.2961 28.6906 7.7490 -0.0017 0.1207 1.8594 2.4358 -107.6328 0.1261
7587.0 25.4461 21.6669 19.5507 24.8003 7.7490 -0.0006 0.1106 1.7988 2.4477 -106.9688 0.1104
7587.5 25.9452 23.6879 20.8597 32.4188 7.7490 0.0032 0.1203 1.7536 2.4543 -105.9018 0.1140
7588.0 23.2843 22.4543 20.3191 41.5933 7.7604 0.0118 0.1389 1.7359 2.4595 -104.3125 0.1274
7588.5 21.5786 19.2672 19.2881 42.0796 7.7490 0.0120 0.1510 1.7590 2.4462 -102.9063 0.1396
7589.0 21.3673 18.3382 17.3472 34.4613 6.7450 0.0070 0.1536 1.7868 2.4278 -103.4375 0.1433
7589.5 23.3138 19.8795 17.7553 29.5984 7.2013 -0.0018 0.1325 1.8056 2.4176 -104.5234 0.1316
7590.0 24.8161 22.3713 19.4422 28.5935 7.7034 -0.0034 0.1129 1.8039 2.4229 -105.5938 0.1171
7590.5 25.9208 23.9401 20.0650 26.6807 7.7034 0.0055 0.1177 1.8001 2.4432 -106.4643 0.1079
7591.0 27.6890 27.8792 22.6897 26.0971 7.7262 0.0147 0.1193 1.7973 2.4514 -106.8906 0.1133
