~VERSION INFORMATION
VERS.           2.0   :CWLS Log ASCII Standard - VERSION 2.0
WRAP.           NO    :One Line per depth step
PROD.  Schlumberger   :LAS Producer
PROG.  DLIS to ASCII 19C1-222                          :LAS Program name and version
CREA.        2013/09/09 02:34                          :LAS Creation date {YYYY/MM/DD hh:mm}
DLIS_CREA.  2013-Sep-09 02:29                          :DLIS Creation date and time {YYYY-MMM-DD hh:mm}
SOURCE.     049-021-21038_Marquardt 44-31_Run_PEX-AIT_Mainpass.dlis  :DLIS File Name
FILE-ID.     MaxWell_4Dlis                             :File Identification Number
#--------------------------------------------------
~WELL INFORMATION
#MNEM.UNIT      DATA             DESCRIPTION
#---- ------ --------------   -----------------------------
STRT .F      952.5           :START DEPTH        # original; data subset to 5500-8000
STOP .F      7703.0          :STOP DEPTH        # original; data subset to 5500-8000
STEP .F       0.5            :STEP     
NULL .          -999.25      :NULL VALUE
COMP .        Bear Oil & Gas, Inc                      :COMPANY
WELL .        Marquardt 44-31                          :WELL
FLD  .        Wildcat                                  :FIELD
LOC  .        Lat/Long : 41.3038/-104.1202             :LOCATION
CNTY .        Laramie                                  :COUNTY
STAT .        Wyoming                                  :STATE
CTRY .        USA                                      :COUNTRY
API  .        049-021-21038                            :API NUMBER
UWI  .        049021210380000                          :UNIQUE WELL ID
DATE .        08-Sep-2013                              :LOG DATE {DD-MMM-YYYY}
SRVC .        Schlumberger                             :SERVICE COMPANY
LATI .DEG     41.303800 degrees                        :LATITUDE
LONG .DEG     -104.12020 degrees                       :LONGITUDE
GDAT .                                                 :GeoDetic Datum
SECT .        31                                       :Section
RANG .        60W                                      :Range
TOWN .        16N                                      :Township
#-----------------------------------------------------------------------------
~PARAMETER INFORMATION
#MNEM.UNIT    VALUE                      DESCRIPTION
#---- -----   --------------------       ------------------------
CN   .        Bear Oil & Gas  Inc        :Company Name
WN   .        Marquardt 44-31            :Well Name
FN   .        Wildcat                    :Field Name
FL   .        Lat/Long   41.3038/-104.1202 :Field Location
FL1  .        SHL   766' FSL X 245' FEL SESE :Field Location, Line 1
COUN .        Laramie                    :County or Parish
STAT .        Wyoming                    :State or Province
NATI .        USA                        :Nation
DATE .        08-Sep-2013                :Tools Above Rotary Table Date
APIN .        049-021-21038              :API Well Number
SECT .        31                         :Section
TOWN .        16N                        :Township
RANG .        60W                        :Range
DMF  .        KB                         :Drilling Measured From (Name of Drilling Elevation Reference)
LMF  .        KB                         :Logging Measured From (Name of Logging Elevation Reference)
PDAT .        GL                         :Permanent Datum
ENGI .        Arvin Shi                  :Engineer s Name
WITN .        Terry Eittreim             :Witness s Name
LATI .        41.303800 degrees          :Latitude
LONG .        -104.12020 degrees         :Longitude
LUL  .        Fort Morgan                :Logging Unit Location
LUN  .        3030                       :Logging Unit Number
RUN  .        Run 1                      :Run Number
SON  .        C6VJ-00075                 :Service Order Number
BHT  .DEGF     184.00000                 :Bottom Hole Temperature
BS   .IN         7.87500                 :Bit Size
MDEN .G/C3       2.65000                 :Matrix Density for Density Porosity
DFD  .LB/G       9.00000                 :Drilling Fluid Density
DFV  .S         80.00000                 :Drilling Fluid Viscosity
DFL  .C3      -999.25000                 :Drilling Fluid Loss
RMFS .OHMM       0.80250                 :Resistivity of Mud Filtrate Sample
EKB  .F       5298.00000                 :Elevation of Kelly Bushing
EGL  .F       5286.00000                 :Elevation of Ground Level
BLI  .F       7686.00000                 :Bottom Log Interval
BSAL .PPM     4641.08936                 :Borehole Salinity
FLEV .F          8.00000                 :Depth of Drilling Fluid Level to LMF (Log Measured From)
MCST .DEGF      84.00000                 :Mudcake Sample Temperature
MFST .DEGF      84.00000                 :Mud Filtrate Sample Temperature
MRT  .DEGF     184.00000                 :Maximum Recorded Temperature
MST  .DEGF      84.00000                 :Mud Sample Temperature
RMCS .OHMM       1.33750                 :Resistivity of Mud Cake Sample
RMS  .OHMM       1.07000                 :Resistivity of Mud Sample
RW   .OHMM       1.00000                 :Connate Water Resistivity
TDD  .F       7680.00000                 :Driller Total Depth
TDL  .F       7686.00000                 :Logger Total Depth
TLI  .F       1023.00000                 :Top Log Interval
HIDE .        Wildcat                    :Header Identifier
MATR .        SAND                       :Rock Matrix for Neutron Porosity Corrections
FNUM .           1.00000                 :F-Numerator for Formation Factor Formula
FEXP .           2.00000                 :Exponent "m" for Formation Factor Formula
DFT  .        Fresh Water                :Drilling Fluid Type
DFPH .        -999.25000                 :Drilling Fluid pH
MCSS .        Calculated                 :Mudcake Sample Source
MFSS .        Calculated                 :Mud Filtrate Sample Source
FD   .G/C3       1.00000                 :Fluid Density
MSS  .        Flowline                   :Mud Sample Source
OS1  .                                   :Other Services Line 1
OS2  .                                   :Other Services Line 2
OS3  .                                   :Other Services Line 3
OS4  .                                   :Other Services Line 4
OS5  .                                   :Other Services Line 5
R1   .                                   :Remarks Line 1
R2   .                                   :Remarks Line 2
R3   .                                   :Remarks Line 3
R4   .                                   :Remarks Line 4
R5   .                                   :Remarks Line 5
R6   .                                   :Remarks Line 6
R7   .                                   :Remarks Line 7
R8   .                                   :Remarks Line 8
TCS  .        15 00 00                   :Time Circulation Stopped
TLAB .        00 30 46                   :Time Logger At Bottom
NMT  .        NOBARITE                   :HRDD Mud Type for Nuclear Devices
EPD  .C3         5286.000000             :Elevation of Permanent Datum above Mean Sea Level
APD  .F          12.000000               :Elevation of Depth Reference (LMF) above Permanent Datum
#-----------------------------------------------------------------------------
~CURVE INFORMATION
#MNEM.UNIT   API CODE                                  DESCRIPTION
#---- -----  --------                                  -----------------------
DEPT .F                                                :DEPTH (BOREHOLE) {F10.1}
AT10 .OHMM                                             :Array Induction Two Foot Resistivity A10 {F11.4}
AT30 .OHMM                                             :Array Induction Two Foot Resistivity A30 {F11.4}
AT90 .OHMM                                             :Array Induction Two Foot Resistivity A90 {F11.4}
GR   .GAPI                                             :Gamma Ray {F11.4}
HCAL .IN                                               :HRCC Caliper Calibrated {F11.4}
HDRA .G/C3                                             :Density Standoff Correction {F11.4}
NPHI .CFCF                                             :Thermal Neutron Porosity (original Ratio Method) in Selected Lithology {F11.4}
PEFZ .                                                 :Standard Resolution Formation Photoelectric Factor {F11.4}
RHOZ .G/C3                                             :Standard Resolution Formation Density {F11.4}
SP   .MV                                               :Spontaneous Potential {F11.4}
TNPH .CFCF                                             :Thermal Neutron Porosity (Ratio Method) in Selected Lithology {F11.4}
#-----------------------------------------------------------------------------
# 
#     DEPT       AF10       AF20       AF30       AF60       AF90       AO10       AO20       AO30       AO60       AO90       AT10       AT20       AT30       AT60       AT90     AHFCO60      AHMF      AHORT      AHORX      AHSCA     AHTCO10    AHTCO20    AHTCO30    AHTCO60    AHTCO90     AHTD1      AHTD2      AHTRT      AHTRX       CDF        CFTC       CNTC       CTEM       DCAL       DNPH       DPHZ       DSOZ       ECGR        ED        GDEV        GR        GTEM       HCAL       HDRA       HDRB       HGR        HMIN       HMNO       HNPO       HPRA       HTNP        ND        NPHI       NPOR       PEFZ    PXND_HILT     RHOZ       RSOZ     RWA_HILT     RXO8       RXOZ        SP        SPAR       STIT       TENS       TNPH     HTNP_SAN
#
~A  DEPT AT10 AT30 AT90 GR HCAL HDRA NPHI PEFZ RHOZ SP TNPH
# ...
5636.5 1.5417 1.4783 1.4589 96.7756 8.5805 0.2138 0.3901 2.8611 2.3934 -492.4688 0.3726
5637.0 1.4917 1.4476 1.4358 93.6053 8.8030 0.1995 0.3981 2.9342 2.4084 -492.2604 0.3701
5637.5 1.4385 1.3908 1.3827 93.0012 8.9365 0.1806 0.3987 3.0227 2.4173 -492.7292 0.3719
5638.0 1.4136 1.3725 1.3522 92.4725 8.9365 0.1636 0.4035 3.0874 2.4183 -492.8036 0.3856
5638.5 1.4317 1.3974 1.3712 97.2284 8.6918 0.1503 0.4004 3.1395 2.4158 -492.7813 0.3966
5639.0 1.4835 1.4273 1.3952 105.6828 8.5360 0.1428 0.3698 3.1721 2.4147 -493.0938 0.3909
5639.5 1.5320 1.4629 1.4193 108.0613 8.5917 0.1464 0.3540 3.1648 2.4214 -492.9167 0.3411
5640.0 1.5638 1.4987 1.4414 107.5325 8.8698 0.1560 0.3615 3.0838 2.4149 -493.0521 0.3297
5640.5 1.5965 1.5232 1.4577 100.3991 9.1812 0.1727 0.4042 2.9688 2.3970 -492.9063 0.3410
5641.0 1.6158 1.5520 1.4830 94.5862 9.4482 0.1804 0.4435 2.8923 2.3774 -492.4479 0.3909
5641.5 1.6599 1.6089 1.5339 92.2081 8.7140 0.1914 0.4346 2.8884 2.3829 -492.5833 0.4282
5642.0 1.6449 1.5922 1.5361 92.2085 9.0700 0.2091 0.4078 2.9231 2.4134 -492.5446 0.4117
5642.5 1.5200 1.4754 1.4299 99.3424 8.8698 0.2164 0.3888 2.9160 2.4149 -492.6458 0.3912
5643.0 1.4188 1.3850 1.3465 105.4193 8.6250 0.2098 0.4245 2.8617 2.3940 -492.9375 0.3831
5643.5 1.3246 1.2898 1.2630 107.7969 8.3803 0.1856 0.4566 2.8125 2.3602 -492.8958 0.4145
5644.0 1.2715 1.2296 1.2082 102.2482 8.7140 0.1700 0.4445 2.8268 2.3457 -492.8333 0.4373
5644.5 1.2786 1.2417 1.2173 99.0775 9.1590 0.1646 0.4267 2.8918 2.3505 -492.3125 0.4143
5645.0 1.2881 1.2575 1.2346 98.0206 8.7140 0.1669 0.4426 2.9652 2.3519 -492.5938 0.4162
5645.5 1.2888 1.2647 1.2373 100.3983 8.9587 0.1726 0.4304 3.0184 2.3642 -492.8661 0.4170
5646.0 1.2948 1.2553 1.2276 102.5126 8.6250 0.1716 0.4351 3.0491 2.3676 -492.6354 0.4114
5646.5 1.3001 1.2618 1.2249 104.3626 8.5360 0.1625 0.3918 3.0361 2.3776 -492.7708 0.4088
5647.0 1.3024 1.2626 1.2265 107.0045 8.6028 0.1487 0.3718 2.9989 2.3687 -492.6146 0.3677
5647.5 1.3009 1.2567 1.2204 103.3051 8.6473 0.1443 0.3385 2.9206 2.3603 -492.6042 0.3607
5648.0 1.3234 1.2758 1.2367 103.3051 8.5805 0.1514 0.3521 2.8631 2.3518 -492.5521 0.3397
5648.5 1.3469 1.3032 1.2569 103.8335 8.6028 0.1616 0.3604 2.8203 2.3750 -492.3229 0.3514
5649.0 1.3740 1.3245 1.2793 103.8335 8.9810 0.1632 0.3583 2.8425 2.3897 -492.4018 0.3396
5649.5 1.3751 1.3314 1.2855 104.3618 8.3358 0.1623 0.3674 2.8851 2.4021 -492.1146 0.3380
5650.0 1.3616 1.3164 1.2720 98.3606 8.7585 0.1534 0.3489 2.9132 2.3998 -491.8750 0.3512
5650.5 1.3501 1.3060 1.2659 99.6818 8.4470 0.1372 0.3696 2.9214 2.3935 -492.0938 0.3465
5651.0 1.3609 1.3105 1.2707 101.5306 8.6695 0.1210 0.3477 2.9128 2.3977 -491.8438 0.3479
5651.5 1.3685 1.3162 1.2779 104.3615 8.4693 0.1168 0.3665 2.9324 2.3946 -492.2604 0.3318
5652.0 1.3647 1.3057 1.2687 99.0773 8.5360 0.1368 0.3448 2.9761 2.4032 -492.0714 0.3511
5652.5 1.3591 1.3020 1.2699 98.8137 8.4915 0.1624 0.3600 3.0359 2.4008 -491.8021 0.3375
5653.0 1.3532 1.2876 1.2542 99.0782 8.7140 0.1866 0.3833 3.0766 2.3979 -492.0521 0.3437
5653.5 1.3345 1.2827 1.2527 101.1914 8.6473 0.1982 0.4026 3.1081 2.3962 -491.9271 0.3622
5654.0 1.3488 1.3000 1.2704 101.4557 8.2246 0.1883 0.4215 3.1311 2.3899 -492.0521 0.3870
5654.5 1.3944 1.3515 1.3184 102.7764 8.2913 0.1682 0.3920 3.1487 2.4054 -492.0417 0.3952
5655.0 1.4858 1.4223 1.4005 109.6459 8.2913 0.1357 0.3739 3.1438 2.4234 -491.8438 0.3711
5655.5 1.6355 1.5672 1.5269 113.3450 8.1578 0.1120 0.3257 3.1306 2.4591 -491.8542 0.3415
5656.0 1.7844 1.6961 1.6567 118.8934 8.0021 0.0999 0.3164 3.1318 2.4806 -491.5000 0.3004
5656.5 1.9100 1.8150 1.7954 112.2883 8.0688 0.0986 0.3037 3.1268 2.4978 -491.7396 0.2979
5657.0 2.0629 1.9703 1.9613 103.8332 8.0466 0.1027 0.3285 3.1162 2.4953 -491.9167 0.2847
5657.5 2.0683 2.0067 2.0061 93.5293 8.3580 0.1025 0.3167 3.0880 2.4804 -491.6042 0.3063
5658.0 2.0440 1.9917 2.0205 92.7368 8.1133 0.1186 0.3510 3.0515 2.4806 -491.7813 0.3053
5658.5 2.0487 2.0009 2.0316 92.3595 8.2913 0.1411 0.3295 3.0003 2.4914 -491.6771 0.3385
5659.0 2.0592 2.0320 2.0673 93.6806 8.4025 0.1586 0.3320 2.9406 2.5096 -491.5104 0.3257
5659.5 2.0424 2.0343 2.0721 97.6433 8.0688 0.1487 0.3062 2.8934 2.5037 -491.7813 0.3240
5660.0 2.0334 2.0108 2.0468 94.8505 8.5583 0.1246 0.2998 2.8843 2.4827 -491.6161 0.2940
5660.5 2.0506 1.9985 2.0334 99.0777 8.3580 0.1157 0.3116 2.9069 2.4825 -491.4583 0.2918
5661.0 2.1045 2.0695 2.1086 100.1350 8.0688 0.1150 0.3238 2.9323 2.4786 -491.3958 0.3021
5661.5 2.1597 2.1231 2.1590 106.4760 7.9353 0.1312 0.3286 2.9451 2.4950 -491.4375 0.3167
5662.0 2.1120 2.0789 2.1054 107.5327 7.9798 0.1457 0.3118 2.9699 2.4939 -491.8958 0.3203
5662.5 2.0574 2.0218 2.0426 109.1173 8.2023 0.1690 0.3168 3.0215 2.4967 -491.8750 0.3075
5663.0 2.0183 1.9774 1.9859 108.0603 8.5138 0.1741 0.3470 3.0522 2.4886 -492.0729 0.3160
5663.5 1.9425 1.9074 1.9098 111.4952 8.2913 0.1602 0.3692 3.0417 2.4754 -491.9583 0.3394
5664.0 1.8959 1.8441 1.8329 108.4388 8.5583 0.1279 0.3657 3.0069 2.4630 -491.8482 0.3535
5664.5 1.8825 1.8276 1.8083 111.6094 8.4693 0.1061 0.3367 3.0126 2.4564 -491.9583 0.3555
5665.0 1.9491 1.8621 1.8305 106.5893 8.4025 0.1038 0.3208 3.0595 2.4637 -491.5729 0.3301
5665.5 1.9924 1.9210 1.8748 108.8535 8.4470 0.1158 0.3086 3.1130 2.4810 -491.4063 0.3059
5666.0 2.0242 1.9560 1.9000 106.2112 8.1578 0.1246 0.2997 3.1235 2.5018 -491.3125 0.3043
5666.5 1.9954 1.9155 1.8559 109.3818 8.2023 0.1216 0.3130 3.0903 2.5091 -491.0417 0.2949
5667.0 1.9901 1.8899 1.8278 105.9465 8.1356 0.1151 0.3212 3.0427 2.5187 -491.0536 0.3015
5667.5 1.9947 1.9073 1.8385 113.6090 8.3136 0.1034 0.3193 3.0075 2.5109 -490.7500 0.3052
5668.0 1.9583 1.9138 1.8423 124.7056 7.9353 0.0934 0.3108 2.9895 2.4878 -490.7500 0.3150
5668.5 1.9239 1.8392 1.7874 133.9540 8.0688 0.0894 0.3074 2.9812 2.4606 -490.8646 0.3088
5669.0 2.0636 1.9135 1.8517 132.7835 8.0243 0.0963 0.3197 2.9863 2.4625 -490.8021 0.3079
5669.5 2.1567 2.0862 1.9901 114.5534 7.9131 0.1027 0.3292 3.0159 2.4913 -491.2813 0.3068
5670.0 2.1729 2.1060 2.0286 100.0216 8.1133 0.0972 0.3191 3.0533 2.5151 -491.4688 0.3110
5670.5 2.1793 2.0889 2.0319 97.7568 8.2023 0.0804 0.3231 3.0918 2.5129 -491.7083 0.3008
5671.0 2.2277 2.1389 2.0829 100.1350 8.0243 0.0633 0.3233 3.1076 2.4996 -491.8482 0.3097
5671.5 2.2697 2.1977 2.1449 101.7200 7.9353 0.0545 0.3264 3.0955 2.4993 -491.7917 0.3123
5672.0 2.3028 2.2439 2.1881 95.6438 7.9353 0.0471 0.3023 3.0652 2.5014 -492.0729 0.3171
5672.5 2.3235 2.2484 2.2014 92.7368 7.8908 0.0459 0.3008 3.0445 2.5120 -491.9792 0.2976
5673.0 2.3202 2.2505 2.2075 92.8503 7.8908 0.0453 0.2982 3.0516 2.5062 -491.9896 0.3031
5673.5 2.2937 2.2321 2.1912 87.8301 7.9353 0.0503 0.2958 3.0647 2.5085 -491.7813 0.2949
5674.0 2.2688 2.2040 2.1668 90.2082 7.8908 0.0524 0.2862 3.0667 2.5136 -491.4583 0.2887
5674.5 2.2814 2.2175 2.1835 91.1518 7.9353 0.0535 0.2999 3.0740 2.5186 -491.5625 0.2814
5675.0 2.2806 2.2134 2.1842 100.3991 7.8908 0.0514 0.3103 3.0922 2.5288 -491.3304 0.2921
5675.5 2.2710 2.1964 2.1751 98.5496 7.9798 0.0471 0.3197 3.1047 2.5175 -491.3854 0.3026
5676.0 2.2701 2.1928 2.1622 100.9270 8.0021 0.0524 0.3144 3.0944 2.5157 -491.7188 0.3047
5676.5 2.2704 2.1808 2.1478 94.5861 7.9353 0.0652 0.3233 3.0601 2.5050 -491.6979 0.3070
5677.0 2.2305 2.1564 2.1177 96.6997 7.9353 0.0817 0.3264 3.0417 2.5068 -491.6458 0.3236
5677.5 2.2104 2.1232 2.0824 95.1147 8.0911 0.0846 0.3285 3.0444 2.5006 -491.3333 0.3209
5678.0 2.1740 2.0908 2.0406 101.4931 7.8686 0.0793 0.3238 3.0795 2.4856 -491.5625 0.3225
5678.5 2.1617 2.0867 2.0331 107.8344 8.0021 0.0723 0.3214 3.1117 2.4810 -491.8229 0.3142
5679.0 2.1641 2.1037 2.0500 106.7780 7.9576 0.0643 0.3356 3.1099 2.4923 -491.9196 0.3080
5679.5 2.2038 2.1226 2.0636 106.2120 7.8463 0.0476 0.3432 3.0616 2.5019 -491.8854 0.3222
5680.0 2.3049 2.2020 2.1486 99.8704 7.8908 0.0242 0.3252 3.0147 2.4981 -491.4896 0.3190
5680.5 2.4203 2.3227 2.2411 99.0776 7.8241 0.0076 0.3011 3.0095 2.4908 -491.5729 0.2973
5681.0 2.4503 2.3566 2.2993 94.0577 7.8241 0.0065 0.2944 3.0340 2.5010 -491.8125 0.2875
5681.5 2.4602 2.3792 2.3318 94.5867 7.8686 0.0139 0.2926 3.0438 2.5249 -491.4792 0.2881
