~VERSION INFORMATION
VERS.           1.2   :CWLS Log ASCII Standard - VERSION 1.2
WRAP.           NO    :One Line per depth step
PROD.  Schlumberger   :LAS Producer
PROG.  DLIS to ASCII 17C0-152                          :LAS Program name and version
CREA.        2013/10/21 20:50                          :LAS Creation date {YYYY/MM/DD hh:mm}
DLIS_CREA.  2013-Oct-21 08:39                          :DLIS Creation date and time {YYYY-MMM-DD hh:mm}
SOURCE.     9ec8b34d-aca5-43ef-91a8-8c41069c79cd       :DLIS File Name
#--------------------------------------------------
~WELL INFORMATION
#MNEM.UNIT      DATA             DESCRIPTION
#---- ------ --------------   -----------------------------
STRT .F      901.5000        :START DEPTH        # original; data subset to 5500-8000
STOP .F      7746.5000       :STOP DEPTH        # original; data subset to 5500-8000
STEP .F       0.5000         :STEP       
NULL .          -999.25      :NULL VALUE
COMP .                 COMPANY:  Bear Oil and Gas, Inc.             
WELL .                    WELL:  McGahan Farms 32 31                
FLD  .                   FIELD:  Wildcat                            
LOC  .                LOCATION:  SHL: SWNE 2563' FNL & 1423' FEL    
CNTY .                  COUNTY:  Laramie                            
STAT .                   STATE:  Wyoming                            
CTRY .                 COUNTRY:  United States                      
SRVC .         SERVICE COMPANY:  Schlumberger                       
LATI .DEG             LATITUDE:  41.309490 degrees                  
LONG .DEG            LONGITUDE:  -104.12429 degrees                 
API  .              API NUMBER:  49-021-21045                       
DATE .                LOG DATE:  21-Oct-2013
UWI  .          UNIQUE WELL ID:  49021210450000                     
#-----------------------------------------------------------------------------
~PARAMETER INFORMATION
#MNEM.UNIT    VALUE                      DESCRIPTION
#---- -----   --------------------       ------------------------
CN   .        Bear Oil and Gas  Inc.     :Company Name
WN   .        McGahan Farms 32 31        :Well Name
FN   .        Wildcat                    :Field Name
FL   .        SHL  SWNE 2563' FNL & 1423' FEL :Field Location
FL1  .        Section 31  Township 16N  Range 60W :Field Location, Line 1
COUN .        Laramie                    :County or Parish
STAT .        Wyoming                    :State or Province
NATI .        United States              :Nation
DATE .        21-Oct-2013                :Tools Above Rotary Table Date
APIN .        49-021-21045               :API Well Number
SECT .        31                         :Section
TOWN .        16N                        :Township
RANG .        60W                        :Range
DMF  .        KB                         :Drilling Measured From (Name of Drilling Elevation Reference)
LMF  .        KB                         :Logging Measured From (Name of Logging Elevation Reference)
PDAT .        GL                         :Permanent Datum
ENGI .        Max Pace                   :Engineer s Name
WITN .        Terry                      :Witness s Name
LATI .        41.309490 degrees          :Latitude
LONG .        -104.12429 degrees         :Longitude
LUL  .        Fort Morgan  CO            :Logging Unit Location
LUN  .        3022                       :Logging Unit Number
RUN  .        Run 1                      :Run Number
SON  .        CA0R-00056                 :Service Order Number
BHT  .DEGF     166.00000                 :Bottom Hole Temperature
BS   .IN         7.87500                 :Bit Size
MDEN .G/C3       2.65000                 :Matrix Density for Density Porosity
DFD  .LB/G       9.10000                 :Drilling Fluid Density
DFV  .S         63.00000                 :Drilling Fluid Viscosity
DFL  .C3         8.80000                 :Drilling Fluid Loss
RMFS .OHMM       1.24500                 :Resistivity of Mud Filtrate Sample
EKB  .F       5307.00000                 :Elevation of Kelly Bushing
EGL  .F       5295.00000                 :Elevation of Ground Level
BLI  .F       7730.00000                 :Bottom Log Interval
BSAL .PPM        0.00000                 :Borehole Salinity
FLEV .F          8.00000                 :Depth of Drilling Fluid Level to LMF (Log Measured From)
MCST .DEGF      61.00000                 :Mudcake Sample Temperature
MFST .DEGF      61.00000                 :Mud Filtrate Sample Temperature
MRT  .DEGF     166.00000                 :Maximum Recorded Temperature
MST  .DEGF      61.00000                 :Mud Sample Temperature
RMCS .OHMM       2.07500                 :Resistivity of Mud Cake Sample
RMS  .OHMM       1.66000                 :Resistivity of Mud Sample
RW   .OHMM       1.00000                 :Connate Water Resistivity
TDD  .F       7719.99951                 :Driller Total Depth
TDL  .F       7730.00000                 :Logger Total Depth
TLI  .F       1023.75000                 :Top Log Interval
HIDE .        Wildcat                    :Header Identifier
MATR .        SAND                       :Rock Matrix for Neutron Porosity Corrections
FNUM .           1.00000                 :F-Numerator for Formation Factor Formula
FEXP .           2.00000                 :Exponent "m" for Formation Factor Formula
DFT  .        Fresh Water                :Drilling Fluid Type
DFPH .           7.50000                 :Drilling Fluid pH
MCSS .        Calculated                 :Mudcake Sample Source
MFSS .        Calculated                 :Mud Filtrate Sample Source
FD   .G/C3       1.00000                 :Fluid Density
MSS  .        Active Tank                :Mud Sample Source
OS1  .                                   :Other Services Line 1
OS2  .                                   :Other Services Line 2
OS3  .                                   :Other Services Line 3
OS4  .                                   :Other Services Line 4
OS5  .                                   :Other Services Line 5
R1   .        Tool string run as per tool sketch :Remarks Line 1
R2   .        All Schlumberger depth control procedures followed :Remarks Line 2
R3   .        IDW used as primary depth reference :Remarks Line 3
R4   .        Z Chart used as secondary depth reference :Remarks Line 4
R5   .        Matrix Density zoned as per client request :Remarks Line 5
R6   .        Crew  Max Pace  Tyler Riter  Cody Bruns :Remarks Line 6
R7   .                                   :Remarks Line 7
R8   .                                   :Remarks Line 8
TCS  .        19 00 00                   :Time Circulation Stopped
TLAB .        06 35 50                   :Time Logger At Bottom
NMT  .        NOBARITE                   :HRDD Mud Type for Nuclear Devices
EPD  .C3         5295.000000             :Elevation of Permanent Datum above Mean Sea Level
APD  .F          12.000000               :Elevation of Depth Reference (LMF) above Permanent Datum
#-----------------------------------------------------------------------------
~CURVE INFORMATION
#MNEM.UNIT   API CODE                                  DESCRIPTION
#---- -----  --------                                  -----------------------
DEPT .F                                                :DEPTH (BOREHOLE) {F12.4}
AT10 .OHMM                                             :Array Induction Two Foot Resistivity A10 {F11.4}
AT30 .OHMM                                             :Array Induction Two Foot Resistivity A30 {F11.4}
AT90 .OHMM                                             :Array Induction Two Foot Resistivity A90 {F11.4}
DT   .US/F                                             :Delta-T (also called Slowness or Interval Transit Time) {F11.4}
GR   .GAPI                                             :Gamma Ray {F11.4}
HCAL .IN                                               :HRCC Caliper Calibrated {F11.4}
HDRA .G/C3                                             :Density Standoff Correction {F11.4}
NPHI .CFCF                                             :Thermal Neutron Porosity (original Ratio Method) in Selected Lithology {F11.4}
PEFZ .                                                 :Standard Resolution Formation Photoelectric Factor {F11.4}
RHOZ .G/C3                                             :Standard Resolution Formation Density {F11.4}
SP   .MV                                               :Spontaneous Potential {F11.4}
TNPH .CFCF                                             :Thermal Neutron Porosity (Ratio Method) in Selected Lithology {F11.4}
#-----------------------------------------------------------------------------
# 
#      DEPT        AF10       AF20       AF30       AF60       AF90       AO10       AO20       AO30       AO60       AO90       AT10       AT20       AT30       AT60       AT90     AHFCO60      AHMF      AHORT      AHORX      AHSCA     AHTCO10    AHTCO20    AHTCO30    AHTCO60    AHTCO90     AHTD1      AHTD2      AHTRT      AHTRX       CDF        CFTC       CNTC       CTEM       DCAL       DNPH       DPHZ       DSOZ        DT        ECGR        ED        GDEV        GR        GTEM       HCAL       HDRA       HDRB       HGR        HMIN       HMNO       HNPO       HPRA       HTNP       ITT         ND        NPHI       NPOR       PEFZ    PXND_HILT     RHOZ       RSOZ     RWA_HILT     RXO8       RXOZ        SP        SPAR       SPHI       STIT       TENS       TNPH     HTNP_SAN
#
~A  DEPT AT10 AT30 AT90 DT GR HCAL HDRA NPHI PEFZ RHOZ SP TNPH
# ...
7117.5000 4.8248 4.5446 4.3306 90.2137 142.5274 7.8271 -0.0063 0.2869 3.6239 2.5095 219.4609 0.2568
7118.0000 4.7895 4.5961 4.3603 89.0531 139.1018 7.8770 -0.0044 0.2845 3.6478 2.5114 219.3036 0.2673
7118.5000 4.6198 4.4227 4.1705 89.6894 130.3211 7.8645 -0.0039 0.2565 3.6209 2.5245 218.8984 0.2614
7119.0000 3.9804 3.8358 3.6359 90.7988 138.4896 7.8520 -0.0005 0.2482 3.5395 2.5175 218.5938 0.2393
7119.5000 3.4942 3.3403 3.1943 93.0160 142.4362 7.8520 -0.0003 0.2756 3.3752 2.5144 218.7768 0.2491
7120.0000 3.4923 3.3183 3.1605 93.7499 149.0744 7.8271 -0.0010 0.2969 3.3230 2.5152 219.0000 0.2575
7120.5000 4.2217 3.7235 3.5170 91.8406 132.9221 7.8271 -0.0029 0.2724 3.4741 2.5295 219.4286 0.2560
7121.0000 4.7516 4.4751 4.1639 88.9997 126.0694 7.8271 -0.0031 0.2597 3.6602 2.5488 219.5000 0.2267
7121.5000 5.2504 4.9230 4.5893 85.7187 119.9512 7.8271 -0.0022 0.2506 3.7670 2.5570 219.8929 0.2289
7122.0000 5.0160 4.7739 4.4619 86.4375 130.0766 7.8396 -0.0008 0.2509 3.7135 2.5548 219.7500 0.2362
7122.5000 4.7014 4.5393 4.2577 88.8392 135.2160 7.8520 -0.0026 0.2525 3.6455 2.5315 219.6094 0.2482
7123.0000 4.4056 4.2077 3.9655 89.8549 140.6010 7.8520 -0.0037 0.2799 3.5535 2.5077 219.8482 0.2498
7123.5000 4.3157 4.0505 3.8392 90.7779 140.3867 7.8271 -0.0002 0.3001 3.4807 2.5027 220.5078 0.2707
7124.0000 4.2413 3.9926 3.7701 90.7278 138.3979 7.8271 0.0061 0.2787 3.4241 2.5086 219.6518 0.2826
7124.5000 4.1034 3.9423 3.7178 90.5418 134.4209 7.8271 0.0131 0.2562 3.3987 2.5130 218.7891 0.2573
7125.0000 3.8520 3.6895 3.4841 91.8693 133.3193 7.8520 0.0190 0.2674 3.3750 2.5160 218.5469 0.2440
7125.5000 3.5730 3.4286 3.2367 91.9143 132.3097 7.8271 0.0190 0.2803 3.3311 2.5239 219.0714 0.2523
7126.0000 3.8826 3.5603 3.3670 92.3514 134.4508 7.8645 0.0117 0.2729 3.3432 2.5273 219.2188 0.2565
7126.5000 3.9997 3.7969 3.5589 91.3824 128.6998 7.8520 0.0026 0.2746 3.3525 2.5286 219.3482 0.2456
7127.0000 3.9902 3.7724 3.5361 90.6234 131.6677 7.8645 -0.0021 0.2735 3.3770 2.5219 219.3672 0.2564
7127.5000 3.9893 3.7442 3.5190 91.6319 131.8818 7.9020 0.0047 0.2933 3.3925 2.5372 219.3281 0.2595
7128.0000 3.9088 3.7296 3.5070 92.0016 132.7384 7.9020 0.0058 0.2722 3.3924 2.5354 219.2143 0.2681
7128.5000 4.0217 3.7282 3.5133 90.9284 129.7710 7.9270 0.0067 0.2659 3.4138 2.5436 219.2266 0.2445
7129.0000 4.1636 3.9104 3.6765 89.8042 125.0290 7.8271 0.0039 0.2446 3.4468 2.5493 219.0357 0.2409
7129.5000 4.2597 4.0629 3.8172 89.8566 122.8880 7.8271 0.0080 0.2571 3.4839 2.5670 219.2109 0.2260
7130.0000 4.0938 3.8731 3.6575 89.8544 126.1000 7.7771 0.0073 0.2885 3.4225 2.5698 219.1161 0.2487
7130.5000 4.0050 3.7483 3.5461 89.8516 128.5477 7.7771 0.0038 0.2932 3.3479 2.5592 219.0781 0.2742
7131.0000 4.0608 3.8592 3.6418 90.1665 133.2589 7.7771 -0.0019 0.2741 3.3306 2.5404 218.9643 0.2679
7131.5000 3.9758 3.8096 3.5936 90.1145 129.5869 7.8021 -0.0001 0.2446 3.3856 2.5327 218.8047 0.2549
7132.0000 3.6651 3.4627 3.2852 90.2769 128.0265 7.8021 0.0065 0.2429 3.4158 2.5315 218.6953 0.2387
7132.5000 3.4357 3.2594 3.0905 91.5054 125.7014 7.8770 0.0060 0.2628 3.3902 2.5320 218.5625 0.2400
7133.0000 3.4592 3.2874 3.1060 92.4192 127.2320 7.8021 0.0019 0.2833 3.3654 2.5295 218.3906 0.2490
7133.5000 3.4694 3.2775 3.0922 92.4416 128.7309 7.7896 -0.0014 0.2947 3.3289 2.5152 218.5536 0.2636
7134.0000 3.4895 3.2788 3.0879 92.1387 131.1784 7.7771 0.0010 0.2876 3.2949 2.5035 218.7578 0.2770
7134.5000 3.5166 3.3099 3.0971 92.2611 127.3233 7.8021 0.0045 0.2789 3.2944 2.5001 218.9844 0.2698
7135.0000 3.5244 3.3198 3.0956 92.5252 125.8245 7.8021 0.0032 0.2801 3.3322 2.5124 218.8482 0.2645
7135.5000 3.4690 3.2722 3.0717 92.6946 123.3770 7.7771 0.0044 0.2804 3.3541 2.5125 218.8047 0.2609
7136.0000 3.4325 3.2290 3.0381 92.9528 126.8029 7.7646 0.0068 0.2863 3.3458 2.5056 218.9464 0.2600
7136.5000 3.4410 3.2393 3.0535 93.4756 125.4265 7.7771 0.0232 0.2937 3.3462 2.5076 218.9531 0.2609
7137.0000 3.4348 3.2253 3.0481 92.9981 129.2507 7.7771 0.0371 0.3008 3.3797 2.5137 218.7143 0.2721
7137.5000 3.4865 3.2647 3.0689 91.9292 132.3103 7.7021 0.0510 0.2966 3.4348 2.5176 218.7344 0.2783
7138.0000 3.5954 3.4000 3.1639 92.7493 136.8989 7.6771 0.0506 0.2722 3.4688 2.5126 218.7143 0.2716
7138.5000 3.5810 3.3987 3.1787 91.8783 133.8093 7.6896 0.0490 0.2612 3.4863 2.5130 218.6016 0.2610
7139.0000 3.5417 3.3235 3.1342 92.4873 132.6773 7.7521 0.0471 0.2719 3.4669 2.5194 218.6719 0.2538
7139.5000 3.5079 3.3126 3.1162 93.2995 128.3332 7.8271 0.0427 0.2792 3.4186 2.5156 218.8393 0.2587
7140.0000 3.5457 3.3109 3.1187 92.7735 127.1394 7.7271 0.0431 0.2897 3.3760 2.5215 218.9219 0.2598
7140.5000 3.5711 3.3690 3.1605 92.8490 124.8455 7.7271 0.0507 0.2733 3.3717 2.5345 219.0078 0.2669
7141.0000 3.6006 3.4050 3.2028 92.9831 125.9772 7.7271 0.0465 0.2895 3.3630 2.5365 218.9643 0.2539
7141.5000 3.5585 3.3625 3.1698 93.4114 134.7576 7.7771 0.0368 0.2943 3.3592 2.5302 218.8203 0.2711
7142.0000 3.5363 3.3268 3.1430 93.6840 134.0542 7.7396 0.0208 0.2738 3.3464 2.5144 218.9766 0.2724
7142.5000 3.5448 3.3453 3.1583 93.8624 138.3063 7.7521 0.0250 0.2801 3.3532 2.5210 218.8929 0.2590
7143.0000 3.5506 3.3497 3.1611 93.4540 132.7382 7.7521 0.0262 0.2607 3.3229 2.5263 218.9063 0.2614
7143.5000 3.6011 3.3867 3.2007 93.0770 135.8891 7.7271 0.0196 0.2745 3.2462 2.5261 219.0078 0.2392
7144.0000 3.6636 3.4486 3.2515 92.9886 135.7058 7.8021 0.0076 0.2530 3.1853 2.5188 219.1607 0.2444
7144.5000 3.6874 3.4715 3.2715 92.5273 131.7292 7.8271 0.0025 0.2631 3.2094 2.5138 219.1953 0.2331
7145.0000 3.6654 3.4573 3.2632 91.9889 131.7284 7.8271 0.0048 0.2686 3.3104 2.5200 219.0781 0.2418
7145.5000 3.6566 3.4464 3.2571 91.3599 127.2317 7.8271 0.0066 0.2668 3.4266 2.5288 219.0357 0.2384
7146.0000 3.6474 3.4210 3.2369 91.1414 127.4766 7.8021 0.0082 0.2591 3.5042 2.5345 219.1641 0.2406
7146.5000 3.6469 3.4195 3.2363 91.2800 121.7562 7.8021 0.0132 0.2680 3.5504 2.5381 219.1607 0.2354
7147.0000 3.6477 3.4217 3.2386 91.3903 122.6123 7.7771 0.0154 0.2686 3.5460 2.5369 219.1094 0.2459
7147.5000 3.5950 3.3631 3.1839 91.3597 126.5281 7.8021 0.0147 0.2708 3.4884 2.5308 219.3214 0.2488
7148.0000 3.5464 3.3287 3.1440 91.4448 125.8852 7.8021 0.0082 0.2584 3.4043 2.5160 219.3594 0.2556
7148.5000 3.4737 3.2651 3.0740 92.0170 126.2832 7.8271 0.0059 0.2741 3.3474 2.5006 219.1016 0.2441
7149.0000 3.4215 3.2148 3.0336 92.1080 121.3882 7.8021 0.0120 0.2809 3.3499 2.5083 218.9821 0.2605
7149.5000 3.3592 3.1710 3.0001 92.5843 130.1686 7.8021 0.0181 0.2810 3.3706 2.5210 219.0156 0.2681
7150.0000 3.3130 3.1332 2.9394 93.1683 142.1607 7.8021 0.0261 0.2850 3.3924 2.5338 218.8929 0.2639
7150.5000 3.2608 3.0495 2.8733 92.8358 147.3001 7.7521 0.0294 0.2883 3.4181 2.5384 218.7109 0.2671
7151.0000 3.3244 3.0875 2.9028 93.0207 149.7778 7.8520 0.0261 0.2933 3.4391 2.5368 218.6484 0.2755
7151.5000 3.5851 3.3275 3.1131 93.7766 138.4585 7.8021 0.0152 0.2804 3.4574 2.5272 219.0089 0.2781
7152.0000 3.8118 3.5403 3.2943 93.0540 142.3748 7.8021 0.0058 0.2691 3.4667 2.5171 219.3828 0.2699
7152.5000 3.9818 3.6843 3.4236 93.1563 137.7561 7.8021 0.0037 0.2657 3.4514 2.5154 219.8672 0.2557
7153.0000 3.9923 3.7349 3.4888 93.0728 142.4670 7.8271 0.0052 0.2606 3.3904 2.5226 219.8393 0.2451
7153.5000 3.9333 3.6974 3.4635 92.9916 141.1203 7.8271 0.0002 0.2634 3.3504 2.5170 219.7813 0.2361
7154.0000 3.8970 3.6671 3.4421 93.6436 141.0894 7.8271 -0.0021 0.2750 3.2771 2.5228 219.5804 0.2444
7154.5000 3.8752 3.6283 3.4120 93.1947 139.3761 7.8146 -0.0041 0.2817 3.2836 2.5205 219.5078 0.2642
7155.0000 3.8760 3.6145 3.3983 93.2340 139.4989 7.8520 -0.0004 0.2954 3.2830 2.5307 219.6563 0.2645
7155.5000 3.8398 3.6011 3.3879 93.6594 147.5743 7.8271 0.0027 0.2794 3.3571 2.5280 219.6696 0.2697
7156.0000 3.8275 3.5908 3.3754 93.3645 148.8601 7.8021 0.0045 0.2692 3.3679 2.5222 219.3281 0.2568
7156.5000 3.8322 3.5908 3.3737 92.9783 146.4126 7.8271 0.0055 0.2549 3.3846 2.5141 219.2891 0.2459
7157.0000 3.8136 3.5986 3.3773 92.7399 139.8662 7.7896 0.0030 0.2532 3.3755 2.4903 218.9643 0.2357
7157.5000 3.7094 3.5069 3.2917 92.8348 143.9653 7.7771 0.0063 0.2584 3.3921 2.4850 219.3906 0.2382
