~VERSION INFORMATION
VERS.           2.0   :CWLS Log ASCII Standard - VERSION 2.0
WRAP.           NO    :One Line per depth step
PROD.  Schlumberger   :LAS Producer
PROG.  DLIS to ASCII 19C2-270                          :LAS Program name and version
CREA.        2013/08/28 17:00                          :LAS Creation date {YYYY/MM/DD hh:mm}
DLIS_CREA.  2013-Aug-28 16:23                          :DLIS Creation date and time {YYYY-MMM-DD hh:mm}
SOURCE.     Bear_Oil_Marquardt_43_31_Main_DLIS.dlis    :DLIS File Name
FILE-ID.     MaxWell_5Dlis                             :File Identification Number
#--------------------------------------------------
~WELL INFORMATION
#MNEM.UNIT      DATA             DESCRIPTION
#---- ------ --------------   -----------------------------
STRT .F      1000.5          :START DEPTH        # original; data subset to 5500-8000
STOP .F      7710.0          :STOP DEPTH        # original; data subset to 5500-8000
STEP .F       0.5            :STEP     
NULL .          -999.25      :NULL VALUE
COMP .        Bear Oil and Gas, Inc.                   :COMPANY
WELL .        Marquardt 43 31                          :WELL
FLD  .        Wildcat                                  :FIELD
LOC  .        NESE 1627' FSL & 170' FEL                :LOCATION
CNTY .        Laramie                                  :COUNTY
STAT .        Wyoming                                  :STATE
CTRY .        United States                            :COUNTRY
API  .        049-021-21034                            :API NUMBER
UWI  .        049021210340000                          :UNIQUE WELL ID
DATE .        28-Aug-2013                              :LOG DATE {DD-MMM-YYYY}
SRVC .        Schlumberger                             :SERVICE COMPANY
LATI .DEG     41.306700 degrees                        :LATITUDE
LONG .DEG     -104.11980 degrees                       :LONGITUDE
GDAT .                                                 :GeoDetic Datum
SECT .        31                                       :Section
RANG .        60W                                      :Range
TOWN .        16N                                      :Township
#-----------------------------------------------------------------------------
~PARAMETER INFORMATION
#MNEM.UNIT    VALUE                      DESCRIPTION
#---- -----   --------------------       ------------------------
CN   .        Bear Oil and Gas  Inc.     :Company Name
WN   .        Marquardt 43 31            :Well Name
FN   .        Wildcat                    :Field Name
FL   .        NESE 1627' FSL & 170' FEL  :Field Location
FL1  .        Sec. 31  T. 16N  R. 60W    :Field Location, Line 1
COUN .        Laramie                    :County or Parish
STAT .        Wyoming                    :State or Province
NATI .        United States              :Nation
DATE .        28-Aug-2013                :Tools Above Rotary Table Date
APIN .        049-021-21034              :API Well Number
SECT .        31                         :Section
TOWN .        16N                        :Township
RANG .        60W                        :Range
DMF  .        KB                         :Drilling Measured From (Name of Drilling Elevation Reference)
LMF  .        KB                         :Logging Measured From (Name of Logging Elevation Reference)
PDAT .        GL                         :Permanent Datum
ENGI .        Max Pace                   :Engineer s Name
WITN .        Terry Eittreim             :Witness s Name
LATI .        41.306700 degrees          :Latitude
LONG .        -104.11980 degrees         :Longitude
LUL  .        Fort Morgan  CO            :Logging Unit Location
LUN  .        3022                       :Logging Unit Number
RUN  .        Run 1                      :Run Number
SON  .        CA0R-00043                 :Service Order Number
BHT  .DEGF     166.00000                 :Bottom Hole Temperature
BS   .IN         7.87500                 :Bit Size
MDEN .G/C3       2.65000                 :Matrix Density for Density Porosity
DFD  .LB/G       8.90000                 :Drilling Fluid Density
DFV  .S         65.00000                 :Drilling Fluid Viscosity
DFL  .C3         9.00000                 :Drilling Fluid Loss
RMFS .OHMM       1.11000                 :Resistivity of Mud Filtrate Sample
EKB  .F       5298.00000                 :Elevation of Kelly Bushing
EGL  .F       5286.00000                 :Elevation of Ground Level
BLI  .F       7686.00000                 :Bottom Log Interval
BSAL .PPM     3335.81519                 :Borehole Salinity
FLEV .F          8.00000                 :Depth of Drilling Fluid Level to LMF (Log Measured From)
MCST .DEGF      83.00000                 :Mudcake Sample Temperature
MFST .DEGF      83.00000                 :Mud Filtrate Sample Temperature
MRT  .DEGF     166.00000                 :Maximum Recorded Temperature
MST  .DEGF      83.00000                 :Mud Sample Temperature
RMCS .OHMM       1.85000                 :Resistivity of Mud Cake Sample
RMS  .OHMM       1.48000                 :Resistivity of Mud Sample
RW   .OHMM       1.00000                 :Connate Water Resistivity
TDD  .F       7680.00000                 :Driller Total Depth
TDL  .F       7686.00000                 :Logger Total Depth
TLI  .F       1025.00000                 :Top Log Interval
HIDE .        Wildcat                    :Header Identifier
MATR .        SAND                       :Rock Matrix for Neutron Porosity Corrections
FNUM .           1.00000                 :F-Numerator for Formation Factor Formula
FEXP .           2.00000                 :Exponent "m" for Formation Factor Formula
DFT  .        WATER                      :Drilling Fluid Type
DFPH .           8.00000                 :Drilling Fluid pH
MCSS .        Calculated                 :Mudcake Sample Source
MFSS .        Calculated                 :Mud Filtrate Sample Source
FD   .G/C3       1.00000                 :Fluid Density
MSS  .        Active Tank                :Mud Sample Source
OS1  .                                   :Other Services Line 1
OS2  .                                   :Other Services Line 2
OS3  .                                   :Other Services Line 3
OS4  .                                   :Other Services Line 4
OS5  .                                   :Other Services Line 5
R1   .                                   :Remarks Line 1
R2   .                                   :Remarks Line 2
R3   .                                   :Remarks Line 3
R4   .                                   :Remarks Line 4
R5   .                                   :Remarks Line 5
R6   .                                   :Remarks Line 6
R7   .                                   :Remarks Line 7
R8   .                                   :Remarks Line 8
TCS  .        05 00 00                   :Time Circulation Stopped
TLAB .        14 30 25                   :Time Logger At Bottom
NMT  .        NOBARITE                   :HRDD Mud Type for Nuclear Devices
EPD  .F         5286.000000              :Elevation of Permanent Datum above Mean Sea Level
APD  .F          12.000000               :Elevation of Depth Reference (LMF) above Permanent Datum
#-----------------------------------------------------------------------------
~CURVE INFORMATION
#MNEM.UNIT   API CODE                                  DESCRIPTION
#---- -----  --------                                  -----------------------
DEPT .F                                                :DEPTH (BOREHOLE) {F10.1}
AT10 .OHMM                                             :Array Induction Two Foot Resistivity A10 {F11.4}
AT30 .OHMM                                             :Array Induction Two Foot Resistivity A30 {F11.4}
AT90 .OHMM                                             :Array Induction Two Foot Resistivity A90 {F11.4}
GR   .GAPI                                             :Gamma Ray {F11.4}
HCAL .IN                                               :HRCC Caliper Calibrated {F11.4}
HDRA .G/C3                                             :Density Standoff Correction {F11.4}
NPHI .CFCF                                             :Thermal Neutron Porosity (original Ratio Method) in Selected Lithology {F11.4}
PEFZ .                                                 :Standard Resolution Formation Photoelectric Factor {F11.4}
RHOZ .G/C3                                             :Standard Resolution Formation Density {F11.4}
SP   .MV                                               :Spontaneous Potential {F11.4}
TNPH .CFCF                                             :Thermal Neutron Porosity (Ratio Method) in Selected Lithology {F11.4}
#-----------------------------------------------------------------------------
# 
#     DEPT       AF10       AF20       AF30       AF60       AF90       AO10       AO20       AO30       AO60       AO90       AT10       AT20       AT30       AT60       AT90     AHFCO60      AHMF      AHORT      AHORX      AHSCA     AHTCO10    AHTCO20    AHTCO30    AHTCO60    AHTCO90     AHTD1      AHTD2      AHTRT      AHTRX       CDF        CFTC       CNTC       CTEM       DCAL       DNPH       DPHZ       DSOZ       ECGR        ED        GDEV        GR        GTEM       HCAL       HDRA       HDRB       HGR        HMIN       HMNO       HNPO       HPRA       HTNP        ND        NPHI       NPOR       PEFZ    PXND_HILT     RHOZ       RSOZ     RWA_HILT     RXO8       RXOZ        SP        SPAR       STIT       TENS       TNPH     HTNP_SAN
#
~A  DEPT AT10 AT30 AT90 GR HCAL HDRA NPHI PEFZ RHOZ SP TNPH
# ...
6818.5 4.2959 4.3750 4.7257 248.0372 8.0228 0.0105 0.2516 4.9572 2.5508 -77.1161 0.2255
6819.0 3.5901 3.8163 3.7425 221.5834 8.0456 0.0232 0.2585 4.6965 2.5805 -75.4375 0.2288
6819.5 5.0066 4.4855 4.3738 160.3762 8.0685 0.0211 0.2054 4.4735 2.6022 -76.3125 0.1940
6820.0 6.2133 6.0534 5.6376 84.8076 8.0228 0.0077 0.1455 4.4242 2.5970 -78.3571 0.1429
6820.5 9.2507 8.9399 7.8167 52.3891 8.0000 0.0015 0.1060 4.5015 2.5955 -78.9375 0.0999
6821.0 8.6734 8.9924 8.1730 46.0348 8.0000 0.0036 0.0853 4.5930 2.6061 -78.1250 0.0873
6821.5 6.4580 6.3482 6.1041 60.5588 8.0000 0.0081 0.1122 4.5704 2.6184 -75.8929 0.0907
6822.0 5.2766 5.1844 4.9096 71.4511 8.0342 0.0078 0.1217 4.4924 2.6158 -74.2768 0.1204
6822.5 4.8091 5.0745 4.8199 84.2889 8.0228 0.0093 0.1339 4.4486 2.6103 -74.1518 0.1287
6823.0 4.3821 4.6248 4.3899 90.4163 8.0456 0.0062 0.1416 4.3630 2.5839 -73.1719 0.1331
6823.5 3.9553 4.1538 3.8572 94.5660 8.0456 0.0154 0.1689 4.3501 2.5869 -73.1875 0.1336
6824.0 4.3679 4.0510 3.7813 76.9303 8.0913 0.0123 0.1589 4.3063 2.5838 -73.4375 0.1429
6824.5 5.7424 5.9872 5.0965 63.9948 7.9772 0.0105 0.1274 4.3729 2.6116 -74.2188 0.1156
6825.0 8.0367 8.2522 7.2582 55.4365 7.9772 0.0006 0.0939 4.3995 2.6274 -73.4911 0.0938
6825.5 6.7727 7.3123 7.3343 67.6259 8.0000 -0.0028 0.1058 4.4402 2.6335 -72.7054 0.0871
6826.0 6.0420 6.2229 5.9027 68.2093 7.9886 -0.0019 0.1030 4.4021 2.6353 -72.2768 0.1020
6826.5 6.0598 5.8593 5.6270 65.6156 8.0228 0.0055 0.1019 4.4327 2.6426 -72.3047 0.0977
6827.0 6.0565 6.3716 5.9040 63.6707 8.0000 0.0224 0.1081 4.4485 2.6652 -72.1786 0.1057
6827.5 4.5410 5.0486 4.8805 75.8600 8.0228 0.0404 0.1506 4.4544 2.6665 -71.7054 0.1263
6828.0 3.7496 3.8034 3.6347 92.4586 8.0456 0.0589 0.2041 4.3762 2.6551 -71.8571 0.1670
6828.5 3.4379 3.3970 3.2699 94.9224 8.0228 0.0558 0.2085 4.2884 2.6315 -73.0391 0.1908
6829.0 4.1681 3.9413 3.7583 95.0848 8.0456 0.0364 0.1894 4.2857 2.6070 -74.7946 0.1728
6829.5 4.8507 4.8658 4.3634 84.4513 7.9772 0.0129 0.1558 4.3850 2.5957 -75.8036 0.1455
6830.0 5.1297 4.9156 4.7099 74.8551 8.0000 0.0040 0.1271 4.5373 2.5929 -76.2500 0.1262
6830.5 6.1610 5.8964 5.5227 59.6507 7.9544 0.0088 0.1176 4.7030 2.6084 -77.2188 0.1016
6831.0 7.4053 7.5804 7.0787 53.6854 7.9772 0.0119 0.1199 4.8126 2.6149 -76.8571 0.0967
6831.5 6.2132 6.2078 6.0184 54.0097 8.0228 0.0093 0.1254 4.8170 2.6115 -76.5089 0.1066
6832.0 5.9055 6.0107 5.6104 55.8253 8.0228 0.0046 0.1272 4.7668 2.6156 -76.3929 0.1151
6832.5 6.2659 6.6081 6.2099 51.9351 8.0228 -0.0003 0.1169 4.6991 2.6305 -75.5469 0.1183
6833.0 6.0637 6.2726 5.9470 52.3890 8.0000 0.0104 0.1290 4.7734 2.6514 -75.3036 0.1139
6833.5 6.0682 6.0122 5.6996 48.9850 7.9772 0.0135 0.1305 4.7965 2.6619 -75.7411 0.1181
6834.0 6.6181 6.4843 6.1515 50.2819 8.0000 0.0118 0.1212 4.7945 2.6420 -77.5391 0.1132
6834.5 6.7355 6.9275 6.4993 48.7257 8.0000 0.0002 0.1207 4.6841 2.6233 -77.5357 0.1052
6835.0 6.4488 6.7303 6.3365 47.7205 8.0000 -0.0034 0.1169 4.6581 2.6028 -77.4107 0.1065
6835.5 6.5778 6.7561 6.4039 49.6329 8.0000 -0.0037 0.1137 4.6620 2.5985 -77.8125 0.1067
6836.0 6.6039 6.8900 6.5315 57.6730 8.0000 -0.0026 0.1072 4.6322 2.6064 -77.1953 0.1064
6836.5 5.9528 6.1337 5.8620 64.1568 8.0228 -0.0020 0.1257 4.5950 2.6116 -76.3661 0.1072
6837.0 5.2969 5.3500 5.2285 66.3943 8.0000 -0.0023 0.1402 4.5800 2.6115 -76.7679 0.1180
6837.5 6.4509 5.8547 5.6912 51.7409 7.9544 -0.0013 0.1364 4.6033 2.6142 -77.8304 0.1217
6838.0 6.9215 7.1803 6.5743 50.1847 7.9772 0.0057 0.1119 4.6576 2.6327 -78.3203 0.1103
6838.5 7.6950 8.1253 7.9762 52.7780 7.9544 0.0148 0.1030 4.6694 2.6596 -77.7679 0.1013
6839.0 6.4819 7.1811 6.9969 65.3564 7.9772 0.0136 0.1132 4.6590 2.6579 -76.4464 0.1030
6839.5 6.2672 6.1756 6.2652 65.6158 7.9772 0.0071 0.1289 4.6267 2.6409 -75.6719 0.1138
6840.0 5.9690 5.8143 5.8386 63.2816 8.0000 -0.0003 0.1232 4.5894 2.6252 -75.6071 0.1209
6840.5 5.9737 6.1542 5.8720 60.1695 7.9772 -0.0002 0.1192 4.5399 2.6335 -75.6607 0.1108
6841.0 5.9717 6.3011 5.8871 62.5037 8.0000 0.0015 0.1142 4.4081 2.6519 -75.1518 0.1146
6841.5 5.2250 5.5062 5.2883 64.8380 8.0000 0.0039 0.1385 4.2715 2.6679 -74.5859 0.1239
6842.0 4.7849 4.9108 4.8027 69.4412 8.0000 0.0022 0.1565 4.1569 2.6582 -74.2679 0.1468
6842.5 4.2141 4.4877 4.2791 77.2220 8.0000 -0.0005 0.1863 4.0972 2.6399 -74.4018 0.1521
6843.0 4.3975 4.2107 4.0621 87.0772 7.9544 -0.0040 0.1819 4.1159 2.6186 -74.7054 0.1601
6843.5 5.5313 5.1181 4.8941 82.7333 7.9544 -0.0017 0.1684 4.2284 2.6235 -75.6953 0.1400
6844.0 6.8194 6.8060 6.3037 74.7904 7.9658 0.0021 0.1384 4.3808 2.6307 -76.8750 0.1279
6844.5 7.0625 7.4387 7.2349 59.4887 7.9772 0.0036 0.1250 4.5136 2.6302 -77.6339 0.1167
6845.0 7.1713 7.2506 7.1822 53.7829 7.9544 0.0043 0.1164 4.5697 2.6300 -78.3929 0.1103
6845.5 7.0996 7.1929 7.0870 45.1271 7.9544 0.0030 0.0998 4.5928 2.6306 -78.7266 0.1059
6846.0 7.0553 7.1965 7.1851 43.2468 7.9772 0.0035 0.0977 4.5445 2.6498 -78.0982 0.1031
6846.5 6.3066 6.9376 6.8594 45.3215 7.9772 0.0000 0.1014 4.4532 2.6445 -76.7589 0.1095
6847.0 5.6350 5.8121 5.8999 59.3266 7.9772 -0.0025 0.1433 4.2892 2.6387 -75.5234 0.1158
6847.5 4.9621 5.0922 4.9928 81.6955 7.9772 -0.0030 0.1634 4.1129 2.6311 -75.0893 0.1380
6848.0 5.3504 5.2881 5.1584 91.5510 7.9544 0.0013 0.1779 4.0309 2.6504 -75.2946 0.1440
6848.5 6.0601 6.0285 5.7776 89.6060 7.9772 0.0037 0.1567 4.0696 2.6640 -75.7679 0.1471
6849.0 6.7123 6.9658 6.4021 71.1921 7.9772 0.0042 0.1353 4.2516 2.6747 -76.1328 0.1271
6849.5 7.4088 7.2287 6.8902 66.2645 8.0000 0.0014 0.1257 4.4079 2.6646 -76.1786 0.1114
6850.0 6.7740 7.4388 7.1356 68.4689 7.9544 -0.0004 0.1221 4.4596 2.6557 -76.0893 0.1138
6850.5 6.0710 6.3938 6.2766 77.6761 8.0000 -0.0018 0.1397 4.3234 2.6410 -75.2500 0.1223
6851.0 5.5749 5.5620 5.4723 87.2717 7.9772 -0.0009 0.1613 4.1496 2.6397 -74.7422 0.1449
6851.5 5.7867 5.9197 5.7877 87.0122 7.9772 0.0007 0.1621 4.0674 2.6372 -75.2321 0.1504
6852.0 5.9161 6.1206 5.9938 90.7726 7.9772 0.0014 0.1499 4.0822 2.6288 -75.2321 0.1418
6852.5 5.4960 5.5301 5.8254 89.2169 7.9772 0.0006 0.1483 4.0803 2.6194 -74.6172 0.1357
6853.0 5.1483 5.1399 5.1010 89.7355 7.9772 0.0025 0.1607 4.0629 2.6307 -74.8929 0.1445
6853.5 5.7083 5.6228 5.4217 83.5114 7.9772 0.0026 0.1653 4.0463 2.6425 -75.3661 0.1441
6854.0 6.2820 6.5022 5.9817 77.8058 8.0000 0.0023 0.1416 4.1035 2.6497 -75.2031 0.1328
6854.5 6.0953 6.6232 6.3815 80.3993 7.9772 -0.0014 0.1365 4.1432 2.6393 -74.3661 0.1232
6855.0 5.9007 5.9839 5.7946 86.4935 7.9544 -0.0048 0.1332 4.2346 2.6263 -74.1518 0.1311
6855.5 5.4916 5.5189 5.3462 91.1619 7.9772 -0.0040 0.1508 4.2461 2.6304 -74.5446 0.1302
6856.0 5.7077 5.6474 5.3860 89.6058 7.9772 -0.0020 0.1531 4.2650 2.6351 -74.8203 0.1370
6856.5 5.6862 5.7516 5.4819 78.3243 7.9315 -0.0008 0.1608 4.2970 2.6327 -75.3214 0.1343
6857.0 6.1047 6.1308 5.6168 68.2420 7.9201 -0.0006 0.1557 4.3293 2.6246 -76.5714 0.1360
6857.5 6.5435 6.5686 6.1808 61.4987 7.9315 0.0010 0.1378 4.3267 2.6208 -76.7411 0.1325
6858.0 5.5678 5.6968 5.3399 69.7978 7.9544 0.0054 0.1453 4.2049 2.6292 -75.4375 0.1286
6858.5 4.8834 4.8519 4.7414 82.4736 7.9544 0.0062 0.1456 4.0213 2.6258 -74.9643 0.1447
6859.0 4.5248 4.5592 4.3006 105.0051 8.0000 0.0051 0.1707 3.7731 2.6201 -74.1875 0.1537
6859.5 4.1173 4.1560 3.9991 125.7530 8.0000 0.0001 0.1845 3.5422 2.6030 -73.4375 0.1766
6860.0 3.8096 3.9375 3.8087 143.1291 8.0000 -0.0033 0.1930 3.3679 2.5971 -73.0781 0.1844
6860.5 3.7307 3.8215 3.7129 150.4229 8.0228 -0.0069 0.2094 3.2366 2.5901 -73.0357 0.1877
6861.0 3.8151 3.7738 3.7246 139.2390 8.0000 -0.0069 0.2115 3.0741 2.5905 -74.2411 0.1913
6861.5 3.9611 3.9347 3.8589 135.3489 8.0114 -0.0057 0.2203 2.8826 2.5796 -76.6094 0.1901
6862.0 4.1913 4.0466 4.0016 115.6382 8.0000 -0.0031 0.1963 2.7124 2.5671 -78.5982 0.1895
6862.5 4.2237 3.9667 3.9389 112.2986 8.0228 -0.0021 0.1784 2.6506 2.5491 -79.6786 0.1675
6863.0 3.9520 3.8026 3.7943 101.1471 8.0000 -0.0036 0.1657 2.7014 2.5273 -80.0357 0.1601
6863.5 3.6130 3.4697 3.4669 107.8903 8.0913 -0.0059 0.1768 2.7570 2.5017 -80.4609 0.1586
6864.0 3.3507 3.3129 3.2754 117.7459 8.1141 -0.0048 0.1900 2.6880 2.4907 -81.0000 0.1706
