~VERSION INFORMATION
VERS.           2.0   :CWLS Log ASCII Standard - VERSION 2.0
WRAP.           NO    :One Line per depth step
PROD.  Schlumberger   :LAS Producer
PROG.  DLIS to ASCII 19C1-222                          :LAS Program name and version
CREA.        2013/09/09 02:34                          :LAS Creation date {YYYY/MM/DD hh:mm}
DLIS_CREA.  2013-Sep-09 02:29                          :DLIS Creation date and time {YYYY-MMM-DD hh:mm}
SOURCE.     049-021-21038_Marquardt 44-31_Run_PEX-AIT_Mainpass.dlis  :DLIS File Name
FILE-ID.     MaxWell_4Dlis                             :File Identification Number
#--------------------------------------------------
~WELL INFORMATION
#MNEM.UNIT      DATA             DESCRIPTION
#---- ------ --------------   -----------------------------
STRT .F      952.5           :START DEPTH        # original; data subset to 5500-8000
STOP .F      7703.0          :STOP DEPTH        # original; data subset to 5500-8000
STEP .F       0.5            :STEP     
NULL .          -999.25      :NULL VALUE
COMP .        Bear Oil & Gas, Inc                      :COMPANY
WELL .        Marquardt 44-31                          :WELL
FLD  .        Wildcat                                  :FIELD
LOC  .        Lat/Long : 41.3038/-104.1202             :LOCATION
CNTY .        Laramie                                  :COUNTY
STAT .        Wyoming                                  :STATE
CTRY .        USA                                      :COUNTRY
API  .        049-021-21038                            :API NUMBER
UWI  .        049021210380000                          :UNIQUE WELL ID
DATE .        08-Sep-2013                              :LOG DATE {DD-MMM-YYYY}
SRVC .        Schlumberger                             :SERVICE COMPANY
LATI .DEG     41.303800 degrees                        :LATITUDE
LONG .DEG     -104.12020 degrees                       :LONGITUDE
GDAT .                                                 :GeoDetic Datum
SECT .        31                                       :Section
RANG .        60W                                      :Range
TOWN .        16N                                      :Township
#-----------------------------------------------------------------------------
~PARAMETER INFORMATION
#MNEM.UNIT    VALUE                      DESCRIPTION
#---- -----   --------------------       ------------------------
CN   .        Bear Oil & Gas  Inc        :Company Name
WN   .        Marquardt 44-31            :Well Name
FN   .        Wildcat                    :Field Name
FL   .        Lat/Long   41.3038/-104.1202 :Field Location
FL1  .        SHL   766' FSL X 245' FEL SESE :Field Location, Line 1
COUN .        Laramie                    :County or Parish
STAT .        Wyoming                    :State or Province
NATI .        USA                        :Nation
DATE .        08-Sep-2013                :Tools Above Rotary Table Date
APIN .        049-021-21038              :API Well Number
SECT .        31                         :Section
TOWN .        16N                        :Township
RANG .        60W                        :Range
DMF  .        KB                         :Drilling Measured From (Name of Drilling Elevation Reference)
LMF  .        KB                         :Logging Measured From (Name of Logging Elevation Reference)
PDAT .        GL                         :Permanent Datum
ENGI .        Arvin Shi                  :Engineer s Name
WITN .        Terry Eittreim             :Witness s Name
LATI .        41.303800 degrees          :Latitude
LONG .        -104.12020 degrees         :Longitude
LUL  .        Fort Morgan                :Logging Unit Location
LUN  .        3030                       :Logging Unit Number
RUN  .        Run 1                      :Run Number
SON  .        C6VJ-00075                 :Service Order Number
BHT  .DEGF     184.00000                 :Bottom Hole Temperature
BS   .IN         7.87500                 :Bit Size
MDEN .G/C3       2.65000                 :Matrix Density for Density Porosity
DFD  .LB/G       9.00000                 :Drilling Fluid Density
DFV  .S         80.00000                 :Drilling Fluid Viscosity
DFL  .C3      -999.25000                 :Drilling Fluid Loss
RMFS .OHMM       0.80250                 :Resistivity of Mud Filtrate Sample
EKB  .F       5298.00000                 :Elevation of Kelly Bushing
EGL  .F       5286.00000                 :Elevation of Ground Level
BLI  .F       7686.00000                 :Bottom Log Interval
BSAL .PPM     4641.08936                 :Borehole Salinity
FLEV .F          8.00000                 :Depth of Drilling Fluid Level to LMF (Log Measured From)
MCST .DEGF      84.00000                 :Mudcake Sample Temperature
MFST .DEGF      84.00000                 :Mud Filtrate Sample Temperature
MRT  .DEGF     184.00000                 :Maximum Recorded Temperature
MST  .DEGF      84.00000                 :Mud Sample Temperature
RMCS .OHMM       1.33750                 :Resistivity of Mud Cake Sample
RMS  .OHMM       1.07000                 :Resistivity of Mud Sample
RW   .OHMM       1.00000                 :Connate Water Resistivity
TDD  .F       7680.00000                 :Driller Total Depth
TDL  .F       7686.00000                 :Logger Total Depth
TLI  .F       1023.00000                 :Top Log Interval
HIDE .        Wildcat                    :Header Identifier
MATR .        SAND                       :Rock Matrix for Neutron Porosity Corrections
FNUM .           1.00000                 :F-Numerator for Formation Factor Formula
FEXP .           2.00000                 :Exponent "m" for Formation Factor Formula
DFT  .        Fresh Water                :Drilling Fluid Type
DFPH .        -999.25000                 :Drilling Fluid pH
MCSS .        Calculated                 :Mudcake Sample Source
MFSS .        Calculated                 :Mud Filtrate Sample Source
FD   .G/C3       1.00000                 :Fluid Density
MSS  .        Flowline                   :Mud Sample Source
OS1  .                                   :Other Services Line 1
OS2  .                                   :Other Services Line 2
OS3  .                                   :Other Services Line 3
OS4  .                                   :Other Services Line 4
OS5  .                                   :Other Services Line 5
R1   .                                   :Remarks Line 1
R2   .                                   :Remarks Line 2
R3   .                                   :Remarks Line 3
R4   .                                   :Remarks Line 4
R5   .                                   :Remarks Line 5
R6   .                                   :Remarks Line 6
R7   .                                   :Remarks Line 7
R8   .                                   :Remarks Line 8
TCS  .        15 00 00                   :Time Circulation Stopped
TLAB .        00 30 46                   :Time Logger At Bottom
NMT  .        NOBARITE                   :HRDD Mud Type for Nuclear Devices
EPD  .C3         5286.000000             :Elevation of Permanent Datum above Mean Sea Level
APD  .F          12.000000               :Elevation of Depth Reference (LMF) above Permanent Datum
#-----------------------------------------------------------------------------
~CURVE INFORMATION
#MNEM.UNIT   API CODE                                  DESCRIPTION
#---- -----  --------                                  -----------------------
DEPT .F                                                :DEPTH (BOREHOLE) {F10.1}
AT10 .OHMM                                             :Array Induction Two Foot Resistivity A10 {F11.4}
AT30 .OHMM                                             :Array Induction Two Foot Resistivity A30 {F11.4}
AT90 .OHMM                                             :Array Induction Two Foot Resistivity A90 {F11.4}
GR   .GAPI                                             :Gamma Ray {F11.4}
HCAL .IN                                               :HRCC Caliper Calibrated {F11.4}
HDRA .G/C3                                             :Density Standoff Correction {F11.4}
NPHI .CFCF                                             :Thermal Neutron Porosity (original Ratio Method) in Selected Lithology {F11.4}
PEFZ .                                                 :Standard Resolution Formation Photoelectric Factor {F11.4}
RHOZ .G/C3                                             :Standard Resolution Formation Density {F11.4}
SP   .MV                                               :Spontaneous Potential {F11.4}
TNPH .CFCF                                             :Thermal Neutron Porosity (Ratio Method) in Selected Lithology {F11.4}
#-----------------------------------------------------------------------------
# 
#     DEPT       AF10       AF20       AF30       AF60       AF90       AO10       AO20       AO30       AO60       AO90       AT10       AT20       AT30       AT60       AT90     AHFCO60      AHMF      AHORT      AHORX      AHSCA     AHTCO10    AHTCO20    AHTCO30    AHTCO60    AHTCO90     AHTD1      AHTD2      AHTRT      AHTRX       CDF        CFTC       CNTC       CTEM       DCAL       DNPH       DPHZ       DSOZ       ECGR        ED        GDEV        GR        GTEM       HCAL       HDRA       HDRB       HGR        HMIN       HMNO       HNPO       HPRA       HTNP        ND        NPHI       NPOR       PEFZ    PXND_HILT     RHOZ       RSOZ     RWA_HILT     RXO8       RXOZ        SP        SPAR       STIT       TENS       TNPH     HTNP_SAN
#
~A  DEPT AT10 AT30 AT90 GR HCAL HDRA NPHI PEFZ RHOZ SP TNPH
5500.0 2.3161 2.2705 2.2373 102.7764 8.0911 0.0933 0.3018 3.1259 2.5072 -494.2708 0.3092
5500.5 2.3113 2.2727 2.2340 95.3789 8.4248 0.1135 0.3258 3.1298 2.4988 -494.0714 0.2992
5501.0 2.3071 2.2716 2.2322 98.2852 8.3358 0.1335 0.3257 3.1145 2.5085 -494.3854 0.3269
5501.5 2.2749 2.2352 2.2032 96.9643 8.2023 0.1240 0.3289 3.0645 2.5067 -493.7396 0.3214
5502.0 2.2530 2.2106 2.1731 95.1141 8.2246 0.1185 0.3086 3.0314 2.5218 -493.5625 0.3240
5502.5 2.2780 2.2341 2.1974 93.7932 8.5360 0.1159 0.2959 3.0121 2.5064 -493.7589 0.2925
5503.0 2.2925 2.2528 2.2111 98.5491 8.3136 0.1370 0.3223 2.9964 2.4898 -493.3854 0.2942
5503.5 2.3005 2.2445 2.2135 108.0610 8.1801 0.1527 0.3374 2.9505 2.4788 -493.6146 0.3078
5504.0 2.3172 2.2593 2.2269 104.6264 8.0688 0.1646 0.3320 2.9231 2.5010 -493.5104 0.3249
5504.5 2.3309 2.2726 2.2430 99.0774 8.0243 0.1565 0.3249 2.9221 2.5233 -493.6250 0.3213
5505.0 2.2680 2.2169 2.1878 90.3587 8.0911 0.1394 0.3169 2.9601 2.5159 -493.7813 0.3197
5505.5 2.1807 2.1354 2.1076 88.7737 8.0021 0.1162 0.3210 2.9817 2.4849 -493.0521 0.3228
5506.0 2.1230 2.0689 2.0389 86.9248 8.1356 0.1061 0.3276 2.9839 2.4603 -493.4271 0.3193
5506.5 2.0682 2.0073 1.9784 84.5465 8.4693 0.1095 0.3139 2.9766 2.4494 -493.6518 0.3205
5507.0 1.9892 1.9437 1.9083 85.6027 8.2913 0.1224 0.3201 2.9692 2.4533 -493.5521 0.3106
5507.5 1.9147 1.8562 1.8175 87.1883 8.0911 0.1253 0.3201 2.9753 2.4643 -493.7604 0.3230
5508.0 1.9322 1.8308 1.7883 90.8877 8.1356 0.1165 0.3471 3.0077 2.4680 -493.0938 0.3099
5508.5 2.1773 2.0495 1.9862 92.5489 7.8908 0.1153 0.3417 3.0703 2.4876 -493.7768 0.3170
5509.0 2.3663 2.2632 2.1701 90.9631 7.8908 0.1213 0.3268 3.1280 2.5052 -494.1771 0.3092
5509.5 2.4827 2.3792 2.2731 93.8692 8.0021 0.1328 0.3116 3.1758 2.5176 -493.6667 0.3100
5510.0 2.5416 2.4669 2.3483 96.1714 8.1801 0.1439 0.3251 3.2072 2.5044 -494.0417 0.3153
5510.5 2.5126 2.4372 2.3302 102.7766 8.3136 0.1682 0.3375 3.2261 2.4939 -493.5521 0.3190
5511.0 2.4681 2.3824 2.2877 101.7198 8.2691 0.1827 0.3236 3.2104 2.4991 -493.5938 0.3224
5511.5 2.4484 2.3695 2.2760 104.0974 8.0243 0.1648 0.3159 3.1759 2.5070 -493.6250 0.3185
5512.0 2.4031 2.3308 2.2462 103.8334 8.0466 0.1194 0.2959 3.1402 2.5108 -493.3021 0.3054
5512.5 2.3398 2.2669 2.1971 107.1176 8.4470 0.0756 0.2941 3.1207 2.5000 -493.8438 0.2875
5513.0 2.2914 2.2272 2.1623 104.7399 8.3358 0.0586 0.2927 3.1317 2.4925 -493.4107 0.2893
5513.5 2.2724 2.2061 2.1427 99.4557 7.9798 0.0580 0.3125 3.1482 2.4885 -493.1667 0.2909
5514.0 2.2656 2.1955 2.1360 94.8504 8.0021 0.0673 0.3173 3.1643 2.5038 -493.5729 0.3105
5514.5 2.2620 2.2041 2.1456 95.6429 7.9798 0.0638 0.3228 3.1493 2.5085 -493.5208 0.3157
5515.0 2.2675 2.2031 2.1470 97.7564 8.2913 0.0610 0.3066 3.1361 2.5032 -494.1146 0.3041
5515.5 2.2792 2.1943 2.1412 94.3220 8.1133 0.0574 0.3105 3.1316 2.4830 -494.0536 0.2941
5516.0 2.3187 2.2450 2.1866 86.3960 8.3358 0.0582 0.3109 3.1488 2.4693 -493.9167 0.2995
5516.5 2.3697 2.2916 2.2361 84.2825 8.0021 0.0635 0.3144 3.1828 2.4791 -494.2500 0.3049
5517.0 2.3610 2.3005 2.2518 85.8674 7.9131 0.0794 0.3217 3.2135 2.4992 -493.7708 0.3094
5517.5 2.3712 2.3109 2.2672 95.0013 8.4025 0.1017 0.3145 3.2206 2.5108 -494.0000 0.3046
5518.0 2.3874 2.3209 2.2819 96.3225 7.9798 0.1126 0.3162 3.1771 2.5235 -493.5417 0.3055
5518.5 2.3888 2.3178 2.2843 95.5298 8.0021 0.0996 0.3106 3.1209 2.5267 -493.3333 0.3027
5519.0 2.3941 2.3269 2.2884 93.5298 8.0243 0.0821 0.2962 3.0859 2.5369 -493.5729 0.3028
5519.5 2.3961 2.3347 2.2880 93.5293 7.9353 0.0739 0.3361 3.0846 2.5222 -493.2292 0.2989
5520.0 2.3588 2.3093 2.2681 99.0780 8.0243 0.0747 0.3218 3.0653 2.5108 -493.3214 0.3224
5520.5 2.3336 2.2815 2.2463 100.1345 8.2023 0.0757 0.3318 3.0454 2.4981 -493.5313 0.3056
5521.0 2.3108 2.2494 2.2126 102.5127 8.1578 0.0732 0.2866 3.0428 2.4937 -493.1563 0.3208
5521.5 2.2740 2.2139 2.1764 98.5498 8.1578 0.0759 0.2975 3.0639 2.4917 -493.3125 0.2850
5522.0 2.2195 2.1640 2.1283 98.8137 8.0466 0.0813 0.3020 3.0828 2.4914 -493.1771 0.2941
5522.5 2.1789 2.1214 2.0885 91.7175 8.0466 0.0884 0.3490 3.0948 2.4860 -493.5625 0.2943
5523.0 2.1826 2.1201 2.0859 94.6235 8.1356 0.0979 0.3529 3.1133 2.4919 -493.6771 0.3351
5523.5 2.1927 2.1304 2.0964 94.0951 8.0466 0.1017 0.3629 3.1188 2.4975 -493.4107 0.3385
5524.0 2.2048 2.1424 2.1049 96.1714 8.1578 0.1009 0.3360 3.1157 2.5050 -493.7500 0.3423
5524.5 2.2136 2.1507 2.1156 93.7938 8.1356 0.0924 0.3285 3.1062 2.4999 -493.5313 0.3261
5525.0 2.2293 2.1568 2.1223 89.8308 7.9798 0.0877 0.3366 3.1050 2.4936 -493.8304 0.3286
5525.5 2.2697 2.1939 2.1610 91.4160 8.0243 0.0912 0.3269 3.1161 2.5035 -493.9583 0.3270
5526.0 2.3354 2.2484 2.2123 94.3221 8.0688 0.0891 0.3447 3.1304 2.5188 -493.3646 0.3186
5526.5 2.3944 2.3277 2.2841 100.1727 7.9576 0.0783 0.3527 3.1461 2.5232 -493.7188 0.3343
5527.0 2.3351 2.2843 2.2511 98.8514 8.0021 0.0609 0.3499 3.1550 2.5087 -493.3438 0.3351
5527.5 2.2945 2.2187 2.1756 94.8879 8.1133 0.0527 0.3291 3.1541 2.4962 -493.1979 0.3327
5528.0 2.3126 2.2355 2.1936 91.4156 8.0243 0.0611 0.3088 3.1600 2.4943 -493.4107 0.3261
5528.5 2.3028 2.2445 2.1931 89.0374 8.0243 0.0826 0.3257 3.1670 2.5012 -493.5938 0.3115
5529.0 2.2790 2.2213 2.1699 94.5862 8.1578 0.1010 0.3359 3.1672 2.4923 -493.8854 0.3185
5529.5 2.2690 2.1977 2.1450 96.1716 8.0688 0.1050 0.3234 3.1602 2.4849 -493.4688 0.3256
5530.0 2.2509 2.1844 2.1211 101.7199 8.1578 0.0968 0.2951 3.1893 2.4830 -493.0208 0.3084
5530.5 2.2403 2.1822 2.1102 95.1151 8.1133 0.0906 0.2917 3.2663 2.4957 -493.6563 0.2881
5531.0 2.1763 2.1344 2.0770 95.9073 8.0688 0.0832 0.3128 3.3224 2.4969 -493.2083 0.2896
5531.5 2.1039 2.0498 2.0025 92.8879 8.1356 0.0814 0.3257 3.3016 2.5006 -493.4821 0.3065
5532.0 2.0470 1.9964 1.9508 95.7941 8.1578 0.0774 0.3525 3.2201 2.4845 -493.9167 0.3222
5532.5 2.0787 2.0271 1.9819 89.7176 8.1801 0.0929 0.3527 3.1502 2.4917 -493.6667 0.3422
5533.0 2.1062 2.0430 2.0001 97.2286 8.4693 0.0969 0.3360 3.0984 2.4911 -494.1042 0.3378
5533.5 2.1457 2.0808 2.0374 94.3222 8.2023 0.0961 0.3067 3.0704 2.5026 -493.9167 0.3216
5534.0 2.1869 2.1303 2.0851 102.2484 8.0911 0.0839 0.3013 3.0655 2.5085 -493.8229 0.3046
5534.5 2.1717 2.1175 2.0774 93.5299 8.1133 0.0746 0.3163 3.0889 2.5037 -493.7396 0.2983
5535.0 2.1447 2.0891 2.0566 92.4727 8.4693 0.0730 0.3166 3.1134 2.5083 -493.2500 0.3034
5535.5 2.1212 2.0658 2.0294 82.9611 8.4693 0.0697 0.3151 3.1164 2.5000 -493.3646 0.3069
5536.0 2.0956 2.0472 2.0085 78.7336 8.0911 0.0669 0.3264 3.1103 2.4885 -493.3125 0.3064
5536.5 2.0543 2.0083 1.9692 84.0184 8.4248 0.0654 0.3321 3.1008 2.4790 -493.2292 0.3133
5537.0 2.0267 1.9688 1.9274 91.8691 8.2913 0.0756 0.3336 3.0979 2.4748 -493.7500 0.3344
5537.5 1.9955 1.9456 1.8964 95.0394 8.1356 0.0962 0.3157 3.0874 2.4754 -493.1563 0.3293
5538.0 1.9722 1.9162 1.8703 90.5473 8.2913 0.1233 0.3068 3.0872 2.4729 -492.9732 0.3100
5538.5 1.9545 1.8888 1.8462 88.7734 8.0688 0.1339 0.3215 3.0973 2.4652 -493.1354 0.3112
5539.0 1.9717 1.8928 1.8476 93.2651 8.4915 0.1316 0.3286 3.1128 2.4693 -493.0625 0.3077
5539.5 2.0034 1.9237 1.8723 93.2652 8.5360 0.1092 0.3173 3.1178 2.4605 -493.7292 0.3110
5540.0 2.0222 1.9521 1.8950 91.6802 8.0911 0.0925 0.3245 3.1146 2.4721 -493.4063 0.3114
5540.5 2.0393 1.9740 1.9195 95.3792 8.0021 0.0784 0.3207 3.1173 2.4693 -493.4583 0.3154
5541.0 2.0589 1.9928 1.9382 98.8138 8.0021 0.0766 0.3454 3.1338 2.4789 -493.5104 0.3136
5541.5 2.0825 2.0097 1.9564 103.0409 8.0466 0.0712 0.3271 3.1492 2.4830 -493.3854 0.3226
5542.0 2.1015 2.0305 1.9736 98.0212 8.0021 0.0664 0.3304 3.1529 2.4918 -493.6964 0.3160
5542.5 2.1100 2.0404 1.9797 96.4362 8.0688 0.0581 0.3137 3.1430 2.4928 -493.3542 0.3221
5543.0 2.1140 2.0439 1.9827 94.0584 8.5138 0.0543 0.3270 3.1244 2.4949 -493.1667 0.3022
5543.5 2.1221 2.0599 1.9980 95.9072 8.2023 0.0564 0.3580 3.1009 2.5008 -493.2917 0.3282
5544.0 2.1178 2.0639 2.0030 97.4922 8.0021 0.0603 0.3480 3.0711 2.5102 -492.9896 0.3476
5544.5 2.1079 2.0486 1.9893 95.1145 8.6473 0.0574 0.3330 3.0267 2.5075 -493.4063 0.3292
5545.0 2.1347 2.0706 2.0073 90.0951 8.1578 0.0570 0.3113 3.0050 2.5022 -493.4167 0.3313
