~VERSION INFORMATION
VERS.           1.2   :CWLS Log ASCII Standard - VERSION 1.2
WRAP.           NO    :One Line per depth step
PROD.  Schlumberger   :LAS Producer
PROG.  DLIS to ASCII 17C0-152                          :LAS Program name and version
CREA.        2013/10/21 20:50                          :LAS Creation date {YYYY/MM/DD hh:mm}
DLIS_CREA.  2013-Oct-21 08:39                          :DLIS Creation date and time {YYYY-MMM-DD hh:mm}
SOURCE.     9ec8b34d-aca5-43ef-91a8-8c41069c79cd       :DLIS File Name
#--------------------------------------------------
~WELL INFORMATION
#MNEM.UNIT      DATA             DESCRIPTION
#---- ------ --------------   -----------------------------
STRT .F      901.5000        :START DEPTH        # original; data subset to 5500-8000
STOP .F      7746.5000       :STOP DEPTH        # original; data subset to 5500-8000
STEP .F       0.5000         :STEP       
NULL .          -999.25      :NULL VALUE
COMP .                 COMPANY:  Bear Oil and Gas, Inc.             
WELL .                    WELL:  McGahan Farms 32 31                
FLD  .                   FIELD:  Wildcat                            
LOC  .                LOCATION:  SHL: SWNE 2563' FNL & 1423' FEL    
CNTY .                  COUNTY:  Laramie                            
STAT .                   STATE:  Wyoming                            
CTRY .                 COUNTRY:  United States                      
SRVC .         SERVICE COMPANY:  Schlumberger                       
LATI .DEG             LATITUDE:  41.309490 degrees                  
LONG .DEG            LONGITUDE:  -104.12429 degrees                 
API  .              API NUMBER:  49-021-21045                       
DATE .                LOG DATE:  21-Oct-2013
UWI  .          UNIQUE WELL ID:  49021210450000                     
#-----------------------------------------------------------------------------
~PARAMETER INFORMATION
#MNEM.UNIT    VALUE                      DESCRIPTION
#---- -----   --------------------       ------------------------
CN   .        Bear Oil and Gas  Inc.     :Company Name
WN   .        McGahan Farms 32 31        :Well Name
FN   .        Wildcat                    :Field Name
FL   .        SHL  SWNE 2563' FNL & 1423' FEL :Field Location
FL1  .        Section 31  Township 16N  Range 60W :Field Location, Line 1
COUN .        Laramie                    :County or Parish
STAT .        Wyoming                    :State or Province
NATI .        United States              :Nation
DATE .        21-Oct-2013                :Tools Above Rotary Table Date
APIN .        49-021-21045               :API Well Number
SECT .        31                         :Section
TOWN .        16N                        :Township
RANG .        60W                        :Range
DMF  .        KB                         :Drilling Measured From (Name of Drilling Elevation Reference)
LMF  .        KB                         :Logging Measured From (Name of Logging Elevation Reference)
PDAT .        GL                         :Permanent Datum
ENGI .        Max Pace                   :Engineer s Name
WITN .        Terry                      :Witness s Name
LATI .        41.309490 degrees          :Latitude
LONG .        -104.12429 degrees         :Longitude
LUL  .        Fort Morgan  CO            :Logging Unit Location
LUN  .        3022                       :Logging Unit Number
RUN  .        Run 1                      :Run Number
SON  .        CA0R-00056                 :Service Order Number
BHT  .DEGF     166.00000                 :Bottom Hole Temperature
BS   .IN         7.87500                 :Bit Size
MDEN .G/C3       2.65000                 :Matrix Density for Density Porosity
DFD  .LB/G       9.10000                 :Drilling Fluid Density
DFV  .S         63.00000                 :Drilling Fluid Viscosity
DFL  .C3         8.80000                 :Drilling Fluid Loss
RMFS .OHMM       1.24500                 :Resistivity of Mud Filtrate Sample
EKB  .F       5307.00000                 :Elevation of Kelly Bushing
EGL  .F       5295.00000                 :Elevation of Ground Level
BLI  .F       7730.00000                 :Bottom Log Interval
BSAL .PPM        0.00000                 :Borehole Salinity
FLEV .F          8.00000                 :Depth of Drilling Fluid Level to LMF (Log Measured From)
MCST .DEGF      61.00000                 :Mudcake Sample Temperature
MFST .DEGF      61.00000                 :Mud Filtrate Sample Temperature
MRT  .DEGF     166.00000                 :Maximum Recorded Temperature
MST  .DEGF      61.00000                 :Mud Sample Temperature
RMCS .OHMM       2.07500                 :Resistivity of Mud Cake Sample
RMS  .OHMM       1.66000                 :Resistivity of Mud Sample
RW   .OHMM       1.00000                 :Connate Water Resistivity
TDD  .F       7719.99951                 :Driller Total Depth
TDL  .F       7730.00000                 :Logger Total Depth
TLI  .F       1023.75000                 :Top Log Interval
HIDE .        Wildcat                    :Header Identifier
MATR .        SAND                       :Rock Matrix for Neutron Porosity Corrections
FNUM .           1.00000                 :F-Numerator for Formation Factor Formula
FEXP .           2.00000                 :Exponent "m" for Formation Factor Formula
DFT  .        Fresh Water                :Drilling Fluid Type
DFPH .           7.50000                 :Drilling Fluid pH
MCSS .        Calculated                 :Mudcake Sample Source
MFSS .        Calculated                 :Mud Filtrate Sample Source
FD   .G/C3       1.00000                 :Fluid Density
MSS  .        Active Tank                :Mud Sample Source
OS1  .                                   :Other Services Line 1
OS2  .                                   :Other Services Line 2
OS3  .                                   :Other Services Line 3
OS4  .                                   :Other Services Line 4
OS5  .                                   :Other Services Line 5
R1   .        Tool string run as per tool sketch :Remarks Line 1
R2   .        All Schlumberger depth control procedures followed :Remarks Line 2
R3   .        IDW used as primary depth reference :Remarks Line 3
R4   .        Z Chart used as secondary depth reference :Remarks Line 4
R5   .        Matrix Density zoned as per client request :Remarks Line 5
R6   .        Crew  Max Pace  Tyler Riter  Cody Bruns :Remarks Line 6
R7   .                                   :Remarks Line 7
R8   .                                   :Remarks Line 8
TCS  .        19 00 00                   :Time Circulation Stopped
TLAB .        06 35 50                   :Time Logger At Bottom
NMT  .        NOBARITE                   :HRDD Mud Type for Nuclear Devices
EPD  .C3         5295.000000             :Elevation of Permanent Datum above Mean Sea Level
APD  .F          12.000000               :Elevation of Depth Reference (LMF) above Permanent Datum
#-----------------------------------------------------------------------------
~CURVE INFORMATION
#MNEM.UNIT   API CODE                                  DESCRIPTION
#---- -----  --------                                  -----------------------
DEPT .F                                                :DEPTH (BOREHOLE) {F12.4}
AT10 .OHMM                                             :Array Induction Two Foot Resistivity A10 {F11.4}
AT30 .OHMM                                             :Array Induction Two Foot Resistivity A30 {F11.4}
AT90 .OHMM                                             :Array Induction Two Foot Resistivity A90 {F11.4}
DT   .US/F                                             :Delta-T (also called Slowness or Interval Transit Time) {F11.4}
GR   .GAPI                                             :Gamma Ray {F11.4}
HCAL .IN                                               :HRCC Caliper Calibrated {F11.4}
HDRA .G/C3                                             :Density Standoff Correction {F11.4}
NPHI .CFCF                                             :Thermal Neutron Porosity (original Ratio Method) in Selected Lithology {F11.4}
PEFZ .                                                 :Standard Resolution Formation Photoelectric Factor {F11.4}
RHOZ .G/C3                                             :Standard Resolution Formation Density {F11.4}
SP   .MV                                               :Spontaneous Potential {F11.4}
TNPH .CFCF                                             :Thermal Neutron Porosity (Ratio Method) in Selected Lithology {F11.4}
#-----------------------------------------------------------------------------
# 
#      DEPT        AF10       AF20       AF30       AF60       AF90       AO10       AO20       AO30       AO60       AO90       AT10       AT20       AT30       AT60       AT90     AHFCO60      AHMF      AHORT      AHORX      AHSCA     AHTCO10    AHTCO20    AHTCO30    AHTCO60    AHTCO90     AHTD1      AHTD2      AHTRT      AHTRX       CDF        CFTC       CNTC       CTEM       DCAL       DNPH       DPHZ       DSOZ        DT        ECGR        ED        GDEV        GR        GTEM       HCAL       HDRA       HDRB       HGR        HMIN       HMNO       HNPO       HPRA       HTNP       ITT         ND        NPHI       NPOR       PEFZ    PXND_HILT     RHOZ       RSOZ     RWA_HILT     RXO8       RXOZ        SP        SPAR       SPHI       STIT       TENS       TNPH     HTNP_SAN
#
~A  DEPT AT10 AT30 AT90 DT GR HCAL HDRA NPHI PEFZ RHOZ SP TNPH
# ...
6391.0000 2.2430 2.1320 2.0507 95.6480 128.8839 8.0270 0.2095 0.3394 3.1342 2.4559 197.4453 0.3329
6391.5000 2.2213 2.1189 2.0444 95.6390 133.3497 8.1519 0.2106 0.3196 3.1010 2.4871 197.3984 0.3280
6392.0000 2.2540 2.1421 2.0682 95.1435 137.4492 8.2019 0.1859 0.2980 3.0900 2.5095 197.4643 0.3061
6392.5000 2.3050 2.1865 2.1089 94.8647 138.5202 8.2019 0.1475 0.2989 3.0772 2.5231 197.4141 0.2862
6393.0000 2.3274 2.1926 2.1163 93.9822 138.0309 7.9520 0.1144 0.3218 3.0554 2.5128 197.4531 0.2872
6393.5000 2.2819 2.1818 2.1090 94.4495 131.6067 7.9895 0.1029 0.3343 3.0251 2.4970 197.3482 0.3064
6394.0000 2.2455 2.1623 2.0929 95.1891 131.1783 8.0519 0.1158 0.3451 2.9982 2.5086 197.4063 0.3191
6394.5000 2.2181 2.1372 2.0723 94.8352 131.6680 8.0270 0.1383 0.3578 3.0020 2.5118 197.4297 0.3330
6395.0000 2.2817 2.1680 2.0993 94.8904 132.9527 8.1769 0.1763 0.3506 3.0407 2.5344 197.2857 0.3434
6395.5000 2.3477 2.2399 2.1743 94.7327 124.1729 8.2768 0.2052 0.3298 3.0928 2.5298 197.6406 0.3389
6396.0000 2.3140 2.1835 2.1226 93.2825 117.5649 8.1644 0.2167 0.2980 3.1257 2.5500 197.6875 0.3238
6396.5000 2.2477 2.1324 2.0788 94.1223 116.8916 8.0769 0.1962 0.3056 3.1330 2.5424 197.4911 0.2978
6397.0000 2.1445 2.0545 2.0071 94.8486 122.2457 8.0020 0.1805 0.3458 3.1522 2.5323 197.6328 0.3056
6397.5000 2.0756 1.9786 1.9388 95.1160 122.4901 8.0270 0.1716 0.3506 3.1587 2.5027 197.6328 0.3348
6398.0000 2.0395 1.9397 1.9011 96.4554 122.7349 8.4018 0.1727 0.3295 3.1691 2.4979 197.8125 0.3248
6398.5000 1.9985 1.9098 1.8632 95.9269 121.8780 8.2768 0.1548 0.3095 3.1636 2.4937 197.7422 0.3106
6399.0000 1.9603 1.8710 1.8351 96.2734 120.8991 8.3768 0.1398 0.3294 3.1800 2.5027 197.8906 0.2999
6399.5000 1.9213 1.8106 1.7841 95.4603 125.3963 8.1269 0.1246 0.3430 3.2005 2.4982 197.9107 0.3290
6400.0000 1.9504 1.8129 1.7688 95.2990 122.2142 8.0519 0.1278 0.3226 3.2313 2.4928 197.7969 0.3278
6400.5000 2.0029 1.8839 1.8215 96.1696 119.3084 8.0519 0.1499 0.3158 3.2707 2.5079 197.5703 0.3129
6401.0000 2.0388 1.9171 1.8563 96.5588 119.5223 8.1019 0.1653 0.3160 3.2668 2.5100 197.6641 0.3084
6401.5000 2.0877 1.9493 1.8942 95.4883 127.8440 7.8271 0.1730 0.3396 3.2455 2.5199 197.5982 0.3107
6402.0000 2.1415 1.9897 1.9141 95.8322 139.4076 8.2519 0.1530 0.3152 3.2084 2.5119 197.5938 0.3196
6402.5000 2.1770 2.0267 1.9384 95.0795 137.9092 8.1519 0.1342 0.3046 3.1992 2.5108 197.4922 0.3024
6403.0000 2.2071 2.0479 1.9486 94.7390 132.7697 8.0894 0.1193 0.2878 3.2016 2.5031 197.4643 0.2917
6403.5000 2.2262 2.0642 1.9609 94.6662 132.3408 8.0270 0.1190 0.3068 3.2133 2.4910 197.6250 0.2821
6404.0000 2.3148 2.1535 2.0376 92.9598 129.8629 8.1019 0.1271 0.3338 3.2351 2.4935 197.5469 0.3016
6404.5000 2.4334 2.2818 2.1470 92.3721 127.7215 8.0894 0.1344 0.3570 3.2746 2.5095 197.4464 0.3230
6405.0000 2.3717 2.2258 2.0841 92.0933 122.7962 8.0020 0.1371 0.3718 3.3172 2.5130 197.5156 0.3337
6405.5000 2.2140 2.0753 1.9675 91.4553 127.9359 7.9270 0.1555 0.3694 3.3654 2.5188 197.4531 0.3552
6406.0000 2.1346 2.0032 1.9122 94.6298 126.6509 8.0020 0.1691 0.3574 3.3629 2.5134 197.6518 0.3537
6406.5000 2.1162 1.9898 1.9176 95.1588 126.4372 8.0020 0.1769 0.3519 3.3494 2.5161 197.5938 0.3487
6407.0000 2.1198 1.9874 1.9114 96.0496 125.4578 8.0270 0.1646 0.3378 3.3288 2.5052 197.5859 0.3492
6407.5000 2.1062 1.9874 1.9200 96.4736 129.7406 8.0270 0.1491 0.3896 3.3200 2.5008 197.5078 0.3347
6408.0000 2.1092 1.9800 1.9235 96.1670 129.0977 8.0020 0.1336 0.3743 3.3194 2.5013 197.5268 0.3631
6408.5000 2.1168 1.9982 1.9385 96.3710 127.6292 7.9270 0.1133 0.3660 3.3325 2.4991 197.4531 0.3461
6409.0000 2.0837 1.9576 1.9013 96.3021 127.2012 7.9270 0.1175 0.3348 3.3740 2.5107 197.7031 0.3410
6409.5000 2.0320 1.9224 1.8695 96.6860 129.1284 7.9645 0.1347 0.3322 3.3875 2.5129 197.9821 0.3317
6410.0000 1.9792 1.8726 1.8232 97.3802 130.1072 8.0519 0.1679 0.3418 3.3708 2.5170 198.1016 0.3367
6410.5000 1.9711 1.8672 1.8115 97.1852 133.1051 8.1269 0.1844 0.3583 3.3280 2.5146 197.9844 0.3300
6411.0000 1.9968 1.8974 1.8353 95.0187 133.8702 8.1144 0.1887 0.3375 3.2921 2.5107 197.9018 0.3473
6411.5000 2.0168 1.9095 1.8440 95.1200 130.9642 8.0769 0.1853 0.3402 3.2733 2.5068 197.8516 0.3270
6412.0000 1.9405 1.8255 1.7744 94.9906 132.6767 8.0270 0.1767 0.3462 3.2634 2.4923 198.0703 0.3274
6412.5000 1.9010 1.7913 1.7390 95.8394 129.2509 8.0270 0.1644 0.3844 3.2425 2.4917 198.0357 0.3260
6413.0000 1.9692 1.8445 1.7935 97.6304 130.1075 8.2269 0.1417 0.3583 3.2173 2.4988 197.8672 0.3446
6413.5000 2.0119 1.8990 1.8440 96.6463 124.3260 8.2269 0.1226 0.3223 3.2453 2.5097 197.7969 0.3301
6414.0000 2.0620 1.9468 1.8923 96.0168 123.3468 8.0020 0.1127 0.3067 3.2971 2.5358 197.7321 0.3197
6414.5000 2.0557 1.9484 1.8945 96.3143 119.4919 7.9520 0.1168 0.3225 3.3024 2.5582 197.7031 0.3189
6415.0000 2.0587 1.9399 1.8828 96.7977 121.1135 7.8021 0.1169 0.3398 3.2035 2.5493 197.7813 0.3246
6415.5000 2.0735 1.9578 1.9168 96.7707 123.8969 8.1019 0.1157 0.3498 3.1079 2.5281 197.8482 0.3227
6416.0000 2.1042 1.9947 1.9338 96.6284 138.0312 7.9520 0.1024 0.3472 3.0739 2.4922 197.9297 0.3295
6416.5000 2.1256 2.0025 1.9413 96.7207 139.9889 7.9520 0.0989 0.3352 3.1156 2.4736 197.8438 0.3258
6417.0000 2.1525 2.0327 1.9555 95.7783 139.7751 8.0395 0.1026 0.3289 3.1451 2.4457 197.8438 0.3225
6417.5000 2.1958 2.0852 1.9939 96.0191 126.2837 7.9270 0.1279 0.3278 3.1589 2.4557 198.0536 0.3228
6418.0000 2.2063 2.1156 2.0345 96.2102 124.8153 8.0395 0.1532 0.3277 3.1522 2.4851 198.1563 0.3170
6418.5000 2.1230 2.0268 1.9564 96.2309 128.0272 7.9770 0.1623 0.3402 3.1294 2.5069 198.0469 0.3174
6419.0000 2.0498 1.9423 1.8782 96.8459 127.1708 7.9020 0.1584 0.3311 3.0918 2.5013 197.8750 0.3288
6419.5000 1.9915 1.8815 1.8191 97.2063 124.9681 7.9270 0.1485 0.3306 3.0795 2.4707 197.6719 0.3227
6420.0000 1.9106 1.8285 1.7640 97.8898 122.8264 7.8770 0.1487 0.3272 3.1042 2.4431 197.8594 0.3283
6420.5000 1.8642 1.7872 1.7212 98.4555 123.0410 8.0270 0.1588 0.3501 3.1510 2.4213 197.8438 0.3291
6421.0000 1.8264 1.7426 1.6857 98.8382 127.2011 7.9770 0.1783 0.3786 3.1749 2.4342 197.8571 0.3541
6421.5000 1.8212 1.7290 1.6558 99.6960 126.5590 8.2019 0.1872 0.4013 3.1884 2.4496 197.8359 0.3595
6422.0000 1.8262 1.7507 1.6647 99.3050 127.3235 8.2269 0.1764 0.3965 3.1960 2.4628 197.8203 0.3872
6422.5000 1.8472 1.7695 1.6757 99.5768 126.0396 8.1019 0.1565 0.4121 3.2120 2.4617 197.5714 0.3709
6423.0000 1.8034 1.7400 1.6565 99.5133 132.4634 8.2019 0.1422 0.4115 3.2196 2.4641 197.6719 0.3816
6423.5000 1.7873 1.7097 1.6354 99.7775 132.9530 8.2394 0.1336 0.4230 3.2295 2.4704 197.8984 0.3868
6424.0000 1.7648 1.6956 1.6245 99.8873 141.5184 8.3518 0.1180 0.3924 3.2169 2.4808 197.9375 0.3968
6424.5000 1.7436 1.6739 1.6081 100.4572 140.6623 8.1519 0.1024 0.3947 3.1962 2.4769 198.1406 0.3734
6425.0000 1.7501 1.6732 1.6112 100.2768 148.4938 8.1644 0.0982 0.3914 3.1867 2.4810 198.0536 0.3821
6425.5000 1.7625 1.6964 1.6334 99.9544 142.0691 8.0769 0.0969 0.4031 3.1841 2.4713 198.1953 0.3679
6426.0000 1.7822 1.7130 1.6513 100.0194 136.6849 8.2269 0.1069 0.3636 3.1964 2.4802 198.2891 0.3733
6426.5000 1.7115 1.6681 1.6106 99.9354 135.7364 8.2269 0.1095 0.3719 3.1939 2.4615 198.2188 0.3501
6427.0000 1.6868 1.6263 1.5736 100.0934 141.3041 8.3768 0.1171 0.3723 3.1901 2.4535 198.2411 0.3597
6427.5000 1.6706 1.6077 1.5545 100.6062 146.4747 8.2019 0.1199 0.4173 3.1953 2.4478 198.2344 0.3648
6428.0000 1.6466 1.5944 1.5408 100.7194 144.9751 8.2019 0.1187 0.4131 3.2010 2.4572 198.3750 0.3897
6428.5000 1.6501 1.5877 1.5374 100.6398 138.5511 8.1769 0.1056 0.4036 3.1883 2.4565 198.4688 0.3818
6429.0000 1.7006 1.6236 1.5682 100.3539 131.6678 8.3018 0.0902 0.3740 3.1458 2.4609 198.1953 0.3785
6429.5000 1.7348 1.6605 1.5915 100.0789 129.7406 8.2019 0.0747 0.3499 3.1019 2.4581 198.1484 0.3545
6430.0000 1.7904 1.7061 1.6511 99.7769 129.5265 8.1269 0.0731 0.3339 3.1176 2.4759 198.1964 0.3431
6430.5000 1.7878 1.7072 1.6507 99.1289 126.3445 8.0395 0.0773 0.3207 3.1685 2.4951 198.2188 0.3250
6431.0000 1.7749 1.6982 1.6453 99.3938 121.8481 8.1019 0.0936 0.3388 3.2377 2.5153 198.1484 0.3159
