~VERSION INFORMATION
VERS.           1.2   :CWLS Log ASCII Standard - VERSION 1.2
WRAP.           NO    :One Line per depth step
PROD.  Schlumberger   :LAS Producer
PROG.  DLIS to ASCII 17C0-152                          :LAS Program name and version
CREA.        2013/08/16 09:04                          :LAS Creation date {YYYY/MM/DD hh:mm}
DLIS_CREA.  2013-Aug-16 00:16                          :DLIS Creation date and time {YYYY-MMM-DD hh:mm}
SOURCE.     960568ea-4174-41e0-a405-0f32a02141a6       :DLIS File Name
#--------------------------------------------------
~WELL INFORMATION
#MNEM.UNIT      DATA             DESCRIPTION
#---- ------ --------------   -----------------------------
STRT .F      457.0000        :START DEPTH        # original; data subset to 5500-8000
STOP .F      7701.0000       :STOP DEPTH        # original; data subset to 5500-8000
STEP .F       0.5000         :STEP       
NULL .          -999.25      :NULL VALUE
COMP .                 COMPANY:  Bear Oil & Gas, Inc.               
WELL .                    WELL:  Fornstrom 13-32A                   
FLD  .                   FIELD:  Wildcat                            
LOC  .                LOCATION:  SHL: NWSW 1925' FSL & 540" FWL     
CNTY .                  COUNTY:  Laramie                            
STAT .                   STATE:  Wyoming                            
CTRY .                 COUNTRY:  United States                      
SRVC .         SERVICE COMPANY:  Schlumberger                       
LATI .DEG             LATITUDE:  41.307320 degrees                  
LONG .DEG            LONGITUDE:  -104.11715 degrees                 
API  .              API NUMBER:  49-021-21022                       
DATE .                LOG DATE:  15-Aug-2013
UWI  .          UNIQUE WELL ID:  49021210220000                     
#-----------------------------------------------------------------------------
~PARAMETER INFORMATION
#MNEM.UNIT    VALUE                      DESCRIPTION
#---- -----   --------------------       ------------------------
CN   .        Bear Oil & Gas  Inc.       :Company Name
WN   .        Fornstrom 13-32A           :Well Name
FN   .        Wildcat                    :Field Name
FL   .        SHL  NWSW 1925' FSL & 540  FWL :Field Location
FL1  .        Sec. 32  T. 16N  R. 60W    :Field Location, Line 1
COUN .        Laramie                    :County or Parish
STAT .        Wyoming                    :State or Province
NATI .        United States              :Nation
DATE .        15-Aug-2013                :Tools Above Rotary Table Date
APIN .        49-021-21022               :API Well Number
SECT .        32                         :Section
TOWN .        16N                        :Township
RANG .        60W                        :Range
DMF  .        KB                         :Drilling Measured From (Name of Drilling Elevation Reference)
LMF  .        KB                         :Logging Measured From (Name of Logging Elevation Reference)
PDAT .        GL                         :Permanent Datum
ENGI .        Max Pace                   :Engineer s Name
WITN .        Tery Eittreim              :Witness s Name
LATI .        41.307320 degrees          :Latitude
LONG .        -104.11715 degrees         :Longitude
LUL  .        Fort Morgan  CO            :Logging Unit Location
LUN  .        3030                       :Logging Unit Number
RUN  .        Run 1                      :Run Number
SON  .        CA0R-00040                 :Service Order Number
BHT  .DEGF     168.00000                 :Bottom Hole Temperature
BS   .IN         7.87500                 :Bit Size
MDEN .G/C3       2.65000                 :Matrix Density for Density Porosity
DFD  .LB/G       8.80000                 :Drilling Fluid Density
DFV  .S         36.00000                 :Drilling Fluid Viscosity
DFL  .C3         5.00000                 :Drilling Fluid Loss
RMFS .OHMM       1.11000                 :Resistivity of Mud Filtrate Sample
EKB  .F       5298.00000                 :Elevation of Kelly Bushing
EGL  .F       5286.00000                 :Elevation of Ground Level
BLI  .F       7687.00000                 :Bottom Log Interval
BSAL .PPM     3295.90967                 :Borehole Salinity
FLEV .F          8.00000                 :Depth of Drilling Fluid Level to LMF (Log Measured From)
MCST .DEGF      84.00000                 :Mudcake Sample Temperature
MFST .DEGF      84.00000                 :Mud Filtrate Sample Temperature
MRT  .DEGF     168.00000                 :Maximum Recorded Temperature
MST  .DEGF      84.00000                 :Mud Sample Temperature
RMCS .OHMM       1.85000                 :Resistivity of Mud Cake Sample
RMS  .OHMM       1.48000                 :Resistivity of Mud Sample
RW   .OHMM       1.00000                 :Connate Water Resistivity
TDD  .F       7680.00000                 :Driller Total Depth
TDL  .F       7687.00000                 :Logger Total Depth
TLI  .F       1026.25000                 :Top Log Interval
HIDE .        Wildcat                    :Header Identifier
MATR .        SAND                       :Rock Matrix for Neutron Porosity Corrections
FNUM .           1.00000                 :F-Numerator for Formation Factor Formula
FEXP .           2.00000                 :Exponent "m" for Formation Factor Formula
DFT  .        Fresh Water                :Drilling Fluid Type
DFPH .           8.50000                 :Drilling Fluid pH
MCSS .        Calculated                 :Mudcake Sample Source
MFSS .        Calculated                 :Mud Filtrate Sample Source
FD   .G/C3       1.00000                 :Fluid Density
MSS  .        Active Tank                :Mud Sample Source
OS1  .                                   :Other Services Line 1
OS2  .                                   :Other Services Line 2
OS3  .                                   :Other Services Line 3
OS4  .                                   :Other Services Line 4
OS5  .                                   :Other Services Line 5
R1   .                                   :Remarks Line 1
R2   .                                   :Remarks Line 2
R3   .                                   :Remarks Line 3
R4   .                                   :Remarks Line 4
R5   .                                   :Remarks Line 5
R6   .                                   :Remarks Line 6
R7   .                                   :Remarks Line 7
R8   .                                   :Remarks Line 8
TCS  .        14 00 00                   :Time Circulation Stopped
TLAB .        22 20 59                   :Time Logger At Bottom
NMT  .        NOBARITE                   :HRDD Mud Type for Nuclear Devices
EPD  .F         5286.000000              :Elevation of Permanent Datum above Mean Sea Level
APD  .F          12.000000               :Elevation of Depth Reference (LMF) above Permanent Datum
#-----------------------------------------------------------------------------
~CURVE INFORMATION
#MNEM.UNIT   API CODE                                  DESCRIPTION
#---- -----  --------                                  -----------------------
DEPT .F                                                :DEPTH (BOREHOLE) {F12.4}
AT10 .OHMM                                             :Array Induction Two Foot Resistivity A10 {F11.4}
AT30 .OHMM                                             :Array Induction Two Foot Resistivity A30 {F11.4}
AT90 .OHMM                                             :Array Induction Two Foot Resistivity A90 {F11.4}
GR   .GAPI                                             :Gamma Ray {F11.4}
HCAL .IN                                               :HRCC Caliper Calibrated {F11.4}
HDRA .G/C3                                             :Density Standoff Correction {F11.4}
NPHI .CFCF                                             :Thermal Neutron Porosity (original Ratio Method) in Selected Lithology {F11.4}
PEFZ .                                                 :Standard Resolution Formation Photoelectric Factor {F11.4}
RHOZ .G/C3                                             :Standard Resolution Formation Density {F11.4}
SP   .MV                                               :Spontaneous Potential {F11.4}
TNPH .CFCF                                             :Thermal Neutron Porosity (Ratio Method) in Selected Lithology {F11.4}
#-----------------------------------------------------------------------------
# 
#      DEPT        AF10       AF20       AF30       AF60       AF90       AO10       AO20       AO30       AO60       AO90       AT10       AT20       AT30       AT60       AT90     AHFCO60      AHMF      AHORT      AHORX      AHSCA     AHTCO10    AHTCO20    AHTCO30    AHTCO60    AHTCO90     AHTD1      AHTD2      AHTRT      AHTRX       CDF        CFTC       CNTC       CTEM       DCAL       DNPH       DPHZ       DSOZ       ECGR        ED        GDEV        GR        GTEM       HCAL       HDRA       HDRB       HGR        HMIN       HMNO       HNPO       HPRA       HTNP        ND        NPHI       NPOR       PEFZ    PXND_HILT     RHOZ       RSOZ     RWA_HILT     RXO8       RXOZ        SP        SPAR       STIT       TENS       TNPH     HTNP_SAN
#
~A  DEPT AT10 AT30 AT90 GR HCAL HDRA NPHI PEFZ RHOZ SP TNPH
5500.0000 2.4427 2.3391 2.2570 105.9778 7.9917 0.0257 0.3080 2.9878 2.5050 50.3438 0.2992
5500.5000 2.4546 2.3485 2.2643 113.4956 8.0379 0.0314 0.3156 2.9767 2.5165 50.1146 0.2994
5501.0000 2.4665 2.3521 2.2656 112.2040 8.0610 0.0222 0.3142 2.9732 2.5104 49.8646 0.2983
5501.5000 2.4956 2.3828 2.2880 116.7260 8.0379 0.0150 0.3114 3.0127 2.5003 49.9792 0.3053
5502.0000 2.4987 2.4154 2.3159 107.3986 8.0148 0.0223 0.3097 3.0992 2.4971 50.3333 0.3038
5502.5000 2.3958 2.3087 2.2186 105.9853 7.9454 0.0335 0.3377 3.1228 2.4924 50.2917 0.3076
5503.0000 2.3016 2.2288 2.1443 108.2467 7.9223 0.0472 0.3506 3.0734 2.5073 50.2500 0.3343
5503.5000 2.3222 2.2521 2.1663 111.0726 7.9454 0.0381 0.3325 2.9344 2.5089 49.9479 0.3397
5504.0000 2.3278 2.2664 2.1813 116.4427 7.9917 0.0201 0.3330 2.8550 2.4983 49.7292 0.3200
5504.5000 2.3413 2.2656 2.1903 101.1807 8.0610 0.0029 0.3454 2.8041 2.4936 49.9167 0.3230
5505.0000 2.3523 2.2751 2.2069 102.8770 8.0379 -0.0027 0.3748 2.8069 2.4995 50.0179 0.3348
5505.5000 2.3503 2.2733 2.2158 96.9419 8.0148 -0.0014 0.3690 2.8371 2.5163 49.8229 0.3599
5506.0000 2.3044 2.2317 2.1861 98.0726 8.0379 0.0064 0.3257 2.9286 2.5175 50.0417 0.3574
5506.5000 2.2480 2.1798 2.1530 98.6382 7.9917 0.0216 0.3146 3.0469 2.5145 50.5000 0.3203
5507.0000 2.2028 2.1267 2.1092 103.7251 7.9917 0.0439 0.3035 3.1483 2.5068 50.6875 0.3105
5507.5000 2.1337 2.0795 2.0592 111.9212 8.0148 0.0576 0.3231 3.2171 2.4937 50.7396 0.3130
5508.0000 2.0378 1.9807 1.9771 109.0947 7.9454 0.0629 0.3237 3.2217 2.4765 50.6250 0.3386
5508.5000 1.9388 1.8749 1.8716 108.2470 7.8992 0.0641 0.3575 3.1663 2.4687 50.6667 0.3257
5509.0000 1.8862 1.8309 1.8206 110.7904 7.9223 0.0559 0.3726 3.0662 2.4743 50.6458 0.3304
5509.5000 2.1561 2.0219 2.0024 109.3771 7.9223 0.0394 0.3724 2.9910 2.4954 49.9896 0.3281
5510.0000 2.3519 2.2590 2.2289 107.1159 7.9454 0.0155 0.3239 2.9477 2.5116 49.9688 0.3306
5510.5000 2.5204 2.3745 2.3389 101.7466 7.9686 0.0048 0.2878 2.9813 2.5304 50.2708 0.3023
5511.0000 2.4808 2.3676 2.3331 109.0947 7.9686 -0.0004 0.3033 3.0536 2.5174 50.5417 0.2885
5511.5000 2.4513 2.3485 2.3082 104.2901 7.9686 0.0009 0.3232 3.0897 2.5017 50.2188 0.3075
5512.0000 2.4262 2.3278 2.2889 104.0070 7.9686 0.0131 0.3565 3.1111 2.4930 50.0313 0.3194
5512.5000 2.4223 2.3244 2.2761 103.4421 7.7836 0.0315 0.3516 3.0965 2.5113 49.8646 0.3382
5513.0000 2.4139 2.3155 2.2615 110.2253 7.9917 0.0374 0.3441 3.0839 2.5233 49.8750 0.3313
5513.5000 2.3802 2.2893 2.2329 113.6173 8.1073 0.0195 0.3427 3.0228 2.5198 49.9167 0.3367
5514.0000 2.3506 2.2684 2.2089 109.9426 7.9917 0.0019 0.3192 2.9667 2.5099 49.8542 0.3393
5514.5000 2.3437 2.2427 2.1844 107.9644 7.9917 -0.0054 0.3197 2.9357 2.4998 49.8125 0.3169
5515.0000 2.3750 2.2577 2.1949 104.2899 7.9917 -0.0025 0.3208 2.9727 2.4943 50.2083 0.3178
5515.5000 2.3996 2.2950 2.2330 102.3118 8.0148 -0.0041 0.3328 3.0356 2.4901 50.2708 0.3196
5516.0000 2.3707 2.2946 2.2284 102.0294 8.0379 -0.0020 0.3227 3.1164 2.5019 50.2604 0.3286
5516.5000 2.3522 2.2489 2.1934 98.3552 8.0379 0.0049 0.3230 3.1625 2.5157 49.9896 0.3152
5517.0000 2.3886 2.2649 2.2153 99.7682 8.0148 0.0128 0.3176 3.1612 2.5291 50.0104 0.3169
5517.5000 2.4150 2.3239 2.2640 102.3116 8.0148 0.0129 0.3343 3.1360 2.5285 49.9479 0.3065
5518.0000 2.4421 2.3500 2.3026 108.5291 8.0148 0.0099 0.3412 3.1038 2.5297 49.7917 0.3203
5518.5000 2.4431 2.3541 2.3095 107.6817 8.0379 0.0058 0.3479 3.0851 2.5302 50.1563 0.3269
5519.0000 2.4565 2.3624 2.3237 100.6156 8.0379 0.0063 0.3532 3.0739 2.5312 50.4896 0.3249
5519.5000 2.4683 2.3727 2.3353 98.3548 8.0148 0.0033 0.3393 3.0582 2.5313 50.3854 0.3311
5520.0000 2.4807 2.3856 2.3499 95.5285 8.0379 0.0016 0.3295 3.0323 2.5241 50.1042 0.3315
5520.5000 2.4925 2.3998 2.3633 95.2459 8.0379 -0.0021 0.3240 3.0281 2.5147 49.8542 0.3325
5521.0000 2.4629 2.3780 2.3430 95.5288 8.0148 -0.0005 0.3239 3.0089 2.5064 49.7813 0.3278
5521.5000 2.4254 2.3395 2.3070 96.6593 8.0841 0.0042 0.3251 3.0240 2.5101 49.6979 0.3238
5522.0000 2.3929 2.3066 2.2749 96.6595 8.0610 0.0074 0.3178 3.0072 2.5197 49.5536 0.3264
5522.5000 2.3587 2.2789 2.2437 97.7893 8.0610 0.0094 0.3289 3.0057 2.5133 49.5729 0.3139
5523.0000 2.3178 2.2380 2.2057 100.8981 8.0610 0.0040 0.3399 2.9699 2.4958 49.7813 0.3233
5523.5000 2.2732 2.1915 2.1523 102.0290 8.0379 0.0002 0.3647 2.9688 2.4801 50.1250 0.3348
5524.0000 2.2594 2.1827 2.1416 102.0293 8.1073 -0.0018 0.3602 2.9676 2.4863 50.1071 0.3471
5524.5000 2.2542 2.1723 2.1273 104.8557 8.0841 0.0001 0.3645 3.0040 2.4963 50.0521 0.3513
5525.0000 2.2526 2.1608 2.1160 109.9425 8.0841 0.0042 0.3306 3.0494 2.5040 50.0625 0.3551
5525.5000 2.2701 2.1679 2.1153 114.1823 8.0841 0.0071 0.3403 3.1040 2.5044 50.1771 0.3267
5526.0000 2.2977 2.1923 2.1359 108.8119 8.0841 0.0073 0.3353 3.1308 2.5005 50.0313 0.3328
5526.5000 2.3310 2.2324 2.1705 111.6385 8.0379 0.0052 0.3488 3.1120 2.5107 50.1563 0.3204
5527.0000 2.3827 2.2718 2.2033 107.1157 8.0148 0.0025 0.3202 3.0724 2.5197 50.1667 0.3275
5527.5000 2.4509 2.3540 2.2741 107.3988 7.9686 -0.0014 0.3014 3.0806 2.5176 50.4063 0.3083
5528.0000 2.4373 2.3722 2.3013 100.0505 7.9917 -0.0018 0.3102 3.0939 2.5066 50.2292 0.3036
5528.5000 2.4033 2.3143 2.2556 100.0513 7.9917 -0.0023 0.3203 3.1007 2.4936 49.9479 0.3073
5529.0000 2.3942 2.2974 2.2274 109.3775 8.0148 0.0001 0.3279 3.0596 2.4978 49.8229 0.3080
5529.5000 2.3769 2.3040 2.2331 112.7691 7.9917 0.0004 0.3507 3.0221 2.4994 49.4792 0.3144
5530.0000 2.3298 2.2629 2.2078 115.3125 7.9686 0.0053 0.3560 2.9961 2.5127 49.4583 0.3324
5530.5000 2.2869 2.2230 2.1676 112.2040 8.0379 0.0116 0.3446 2.9851 2.5219 49.4063 0.3438
5531.0000 2.2721 2.1939 2.1459 115.3128 7.9917 0.0136 0.3041 3.0097 2.5199 49.3229 0.3315
5531.5000 2.2537 2.1862 2.1391 107.6819 7.9917 0.0108 0.2964 3.0705 2.5073 49.5104 0.3040
5532.0000 2.2188 2.1747 2.1282 105.9857 7.9917 0.0076 0.3297 3.1153 2.5012 49.6875 0.2963
5532.5000 2.1881 2.1274 2.0839 99.7680 7.9686 0.0080 0.3299 3.0939 2.5049 50.0000 0.3278
5533.0000 2.1747 2.1026 2.0622 103.1595 7.9454 0.0046 0.3359 3.0338 2.4968 50.1875 0.3302
5533.5000 2.2208 2.1418 2.1049 102.5946 7.9917 0.0015 0.3246 2.9777 2.4875 50.1042 0.3322
5534.0000 2.2532 2.1706 2.1405 104.2903 8.0148 0.0017 0.3556 2.9585 2.4877 50.1667 0.3200
5534.5000 2.2857 2.1904 2.1604 108.8118 8.0841 0.0135 0.3615 2.9672 2.4985 49.9896 0.3352
5535.0000 2.3328 2.2218 2.1738 106.5507 7.9686 0.0334 0.3540 3.0045 2.5088 49.7396 0.3375
5535.5000 2.3412 2.2478 2.1910 109.6595 7.9454 0.0532 0.3539 3.0548 2.5083 49.8021 0.3424
5536.0000 2.3313 2.2297 2.1696 100.8986 7.9223 0.0632 0.3437 3.1013 2.5072 50.0833 0.3493
5536.5000 2.3208 2.1991 2.1236 91.2891 7.8992 0.0572 0.3284 3.1443 2.5022 50.1042 0.3320
5537.0000 2.3476 2.2609 2.1515 79.7012 7.8761 0.0513 0.3146 3.1977 2.5055 49.8854 0.3112
5537.5000 2.3748 2.2700 2.1595 86.4843 7.8530 0.0483 0.3279 3.2362 2.5112 49.6979 0.3053
5538.0000 2.1888 2.1300 2.0413 96.6593 7.9686 0.0417 0.3290 3.1946 2.5169 49.6563 0.3244
5538.5000 2.0971 2.0059 1.9312 103.1598 7.9917 0.0325 0.3302 3.0990 2.5244 49.5313 0.3272
5539.0000 2.0460 1.9500 1.8671 98.9204 8.0610 0.0175 0.3410 3.0054 2.5197 49.5833 0.3297
5539.5000 2.0318 1.9359 1.8619 94.1156 7.9917 0.0124 0.3613 2.9704 2.5197 49.6563 0.3361
5540.0000 2.0332 1.9322 1.8625 96.9420 8.0379 0.0060 0.3764 2.9763 2.5042 49.8021 0.3420
5540.5000 2.0626 1.9561 1.8870 98.6372 7.9917 0.0057 0.3756 2.9910 2.5071 50.1354 0.3502
5541.0000 2.0900 1.9882 1.9206 103.1592 7.9223 0.0053 0.3926 3.0128 2.5034 50.0833 0.3644
5541.5000 2.1014 1.9979 1.9337 106.8333 7.9917 0.0061 0.3599 3.0309 2.5072 50.5208 0.3806
5542.0000 2.1155 2.0102 1.9462 108.8120 7.9223 0.0013 0.3609 3.0390 2.5118 50.7083 0.3435
5542.5000 2.1500 2.0420 1.9719 107.3993 7.9917 -0.0014 0.3323 3.0306 2.5232 50.5179 0.3391
5543.0000 2.1840 2.0771 2.0014 100.8981 7.9686 -0.0015 0.3687 3.0167 2.5245 50.1458 0.3299
5543.5000 2.1963 2.0964 2.0245 98.9203 7.9454 0.0032 0.3413 3.0292 2.5134 49.7708 0.3547
5544.0000 2.2087 2.1024 2.0294 102.0289 7.9454 0.0083 0.3619 3.0513 2.5021 49.8542 0.3261
