~VERSION INFORMATION
VERS.           2.0   :CWLS Log ASCII Standard - VERSION 2.0
WRAP.           NO    :One Line per depth step
PROD.  Schlumberger   :LAS Producer
PROG.  DLIS to ASCII 19C2-270                          :LAS Program name and version
CREA.        2013/09/21 19:52                          :LAS Creation date {YYYY/MM/DD hh:mm}
DLIS_CREA.  2013-Sep-21 19:47                          :DLIS Creation date and time {YYYY-MMM-DD hh:mm}
SOURCE.     49-021-21035_McGahan Farms 42-31_Run_PEX_Mainpass.dlis  :DLIS File Name
FILE-ID.     MaxWell_3Dlis                             :File Identification Number
#--------------------------------------------------
~WELL INFORMATION
#MNEM.UNIT      DATA             DESCRIPTION
#---- ------ --------------   -----------------------------
STRT .F      1000.5          :START DEPTH        # original; data subset to 5500-8000
STOP .F      7716.5          :STOP DEPTH        # original; data subset to 5500-8000
STEP .F       0.5            :STEP     
NULL .          -999.25      :NULL VALUE
COMP .        Bear Oil & Gas, Inc                      :COMPANY
WELL .        McGahan Farms 42-31                      :WELL
FLD  .        Wildcat                                  :FIELD
LOC  .        Lat/Long: 41.3098/-104.1197              :LOCATION
CNTY .        Laramie                                  :COUNTY
STAT .        Wyoming                                  :STATE
CTRY .        USA                                      :COUNTRY
API  .        49-021-21035                             :API NUMBER
UWI  .        49021210350000                           :UNIQUE WELL ID
DATE .        21-Sep-2013                              :LOG DATE {DD-MMM-YYYY}
SRVC .        Schlumberger                             :SERVICE COMPANY
LATI .DEG     41.309800 degrees                        :LATITUDE
LONG .DEG     -104.11970 degrees                       :LONGITUDE
GDAT .                                                 :GeoDetic Datum
SECT .        31                                       :Section
RANG .        60W                                      :Range
TOWN .        16N                                      :Township
#-----------------------------------------------------------------------------
~PARAMETER INFORMATION
#MNEM.UNIT    VALUE                      DESCRIPTION
#---- -----   --------------------       ------------------------
CN   .        Bear Oil & Gas  Inc        :Company Name
WN   .        McGahan Farms 42-31        :Well Name
FN   .        Wildcat                    :Field Name
FL   .        Lat/Long  41.3098/-104.1197 :Field Location
FL1  .        SHL   2375' FNL X 190' FEL SENE :Field Location, Line 1
COUN .        Laramie                    :County or Parish
STAT .        Wyoming                    :State or Province
NATI .        USA                        :Nation
DATE .        21-Sep-2013                :Tools Above Rotary Table Date
APIN .        49-021-21035               :API Well Number
SECT .        31                         :Section
TOWN .        16N                        :Township
RANG .        60W                        :Range
DMF  .        KB                         :Drilling Measured From (Name of Drilling Elevation Reference)
LMF  .        KB                         :Logging Measured From (Name of Logging Elevation Reference)
PDAT .        GL                         :Permanent Datum
ENGI .        Arvin Shi                  :Engineer s Name
WITN .        Terry Eittreim             :Witness s Name
LATI .        41.309800 degrees          :Latitude
LONG .        -104.11970 degrees         :Longitude
LUL  .        Fort Morgan                :Logging Unit Location
LUN  .        3022                       :Logging Unit Number
RUN  .        Run 1                      :Run Number
SON  .        C6VJ-00079                 :Service Order Number
BHT  .DEGF     175.00000                 :Bottom Hole Temperature
BS   .IN         7.87500                 :Bit Size
MDEN .G/C3       2.65000                 :Matrix Density for Density Porosity
DFD  .LB/G       9.20000                 :Drilling Fluid Density
DFV  .S         80.00000                 :Drilling Fluid Viscosity
DFL  .C3      -999.25000                 :Drilling Fluid Loss
RMFS .OHMM       0.96000                 :Resistivity of Mud Filtrate Sample
EKB  .F       5307.00000                 :Elevation of Kelly Bushing
EGL  .F       5295.00000                 :Elevation of Ground Level
BLI  .F       7700.00000                 :Bottom Log Interval
BSAL .PPM     3275.14868                 :Borehole Salinity
FLEV .F          8.00000                 :Depth of Drilling Fluid Level to LMF (Log Measured From)
MCST .DEGF      98.00000                 :Mudcake Sample Temperature
MFST .DEGF      98.00000                 :Mud Filtrate Sample Temperature
MRT  .DEGF     175.00000                 :Maximum Recorded Temperature
MST  .DEGF      98.00000                 :Mud Sample Temperature
RMCS .OHMM       1.60000                 :Resistivity of Mud Cake Sample
RMS  .OHMM       1.28000                 :Resistivity of Mud Sample
RW   .OHMM       1.00000                 :Connate Water Resistivity
TDD  .F       7697.00000                 :Driller Total Depth
TDL  .F       7700.00000                 :Logger Total Depth
TLI  .F       1018.00000                 :Top Log Interval
HIDE .        Wildcat                    :Header Identifier
MATR .        SAND                       :Rock Matrix for Neutron Porosity Corrections
FNUM .           1.00000                 :F-Numerator for Formation Factor Formula
FEXP .           2.00000                 :Exponent "m" for Formation Factor Formula
DFT  .        Chemical Gel               :Drilling Fluid Type
DFPH .        -999.25000                 :Drilling Fluid pH
MCSS .        Calculated                 :Mudcake Sample Source
MFSS .        Calculated                 :Mud Filtrate Sample Source
FD   .G/C3       1.00000                 :Fluid Density
MSS  .        Flowline                   :Mud Sample Source
OS1  .                                   :Other Services Line 1
OS2  .                                   :Other Services Line 2
OS3  .                                   :Other Services Line 3
OS4  .                                   :Other Services Line 4
OS5  .                                   :Other Services Line 5
R1   .                                   :Remarks Line 1
R2   .                                   :Remarks Line 2
R3   .                                   :Remarks Line 3
R4   .                                   :Remarks Line 4
R5   .                                   :Remarks Line 5
R6   .                                   :Remarks Line 6
R7   .                                   :Remarks Line 7
R8   .                                   :Remarks Line 8
TCS  .        11 00 00                   :Time Circulation Stopped
TLAB .        17 20 49                   :Time Logger At Bottom
NMT  .        NOBARITE                   :HRDD Mud Type for Nuclear Devices
EPD  .C3         5295.000000             :Elevation of Permanent Datum above Mean Sea Level
APD  .F          12.000000               :Elevation of Depth Reference (LMF) above Permanent Datum
#-----------------------------------------------------------------------------
~CURVE INFORMATION
#MNEM.UNIT   API CODE                                  DESCRIPTION
#---- -----  --------                                  -----------------------
DEPT .F                                                :DEPTH (BOREHOLE) {F10.1}
AT10 .OHMM                                             :Array Induction Two Foot Resistivity A10 {F11.4}
AT30 .OHMM                                             :Array Induction Two Foot Resistivity A30 {F11.4}
AT90 .OHMM                                             :Array Induction Two Foot Resistivity A90 {F11.4}
GR   .GAPI                                             :Gamma Ray {F11.4}
HCAL .IN                                               :HRCC Caliper Calibrated {F11.4}
HDRA .G/C3                                             :Density Standoff Correction {F11.4}
NPHI .CFCF                                             :Thermal Neutron Porosity (original Ratio Method) in Selected Lithology {F11.4}
PEFZ .                                                 :Standard Resolution Formation Photoelectric Factor {F11.4}
RHOZ .G/C3                                             :Standard Resolution Formation Density {F11.4}
SP   .MV                                               :Spontaneous Potential {F11.4}
TNPH .CFCF                                             :Thermal Neutron Porosity (Ratio Method) in Selected Lithology {F11.4}
#-----------------------------------------------------------------------------
# 
#     DEPT       AF10       AF20       AF30       AF60       AF90       AO10       AO20       AO30       AO60       AO90       AT10       AT20       AT30       AT60       AT90     AHFCO60      AHMF      AHORT      AHORX      AHSCA     AHTCO10    AHTCO20    AHTCO30    AHTCO60    AHTCO90     AHTD1      AHTD2      AHTRT      AHTRX       CDF        CFTC       CNTC       CTEM       DCAL       DNPH       DPHZ       DSOZ       ECGR        ED        GDEV        GR        GTEM       HCAL       HDRA       HDRB       HGR        HMIN       HMNO       HNPO       HPRA       HTNP        ND        NPHI       NPOR       PEFZ    PXND_HILT     RHOZ       RSOZ     RWA_HILT     RXO8       RXOZ        SP        SPAR       STIT       TENS       TNPH     HTNP_SAN
#
~A  DEPT AT10 AT30 AT90 GR HCAL HDRA NPHI PEFZ RHOZ SP TNPH
# ...
7663.0 1.7961 1.6607 1.5941 117.7811 8.0381 0.1267 0.3408 3.0136 2.5299 -326.6250 0.3482
7663.5 1.8239 1.6634 1.5800 117.7810 8.0821 0.1271 0.3415 2.9816 2.5117 -325.0156 0.3397
7664.0 1.7801 1.6585 1.5701 119.1695 7.9722 0.1371 0.3494 2.9430 2.4979 -325.3482 0.3426
7664.5 1.8615 1.7433 1.6424 122.8395 8.1114 0.1456 0.3569 2.9182 2.4818 -325.2266 0.3369
7665.0 1.9716 1.8330 1.7372 126.2583 8.1774 0.1476 0.3647 2.9246 2.4841 -324.9219 0.3422
7665.5 2.1250 1.9185 1.7909 129.6306 8.1627 0.1335 0.3582 2.9818 2.4942 -324.4688 0.3446
7666.0 2.6898 2.2091 2.0698 129.8289 8.0454 0.1063 0.3549 3.0846 2.5157 -324.1161 0.3310
7666.5 3.4821 3.0697 2.7053 126.9327 8.0088 0.0755 0.3399 3.2561 2.5540 -324.1016 0.3150
7667.0 6.3792 5.4717 4.6273 127.5279 7.9062 0.0384 0.3016 3.4990 2.5851 -324.0547 0.2959
7667.5 7.4983 7.9893 6.8659 130.6290 7.8476 0.0122 0.2684 3.7316 2.6166 -323.8438 0.2557
7668.0 7.1748 6.7711 6.2309 133.2740 7.8769 -0.0004 0.2380 3.7235 2.6288 -324.1172 0.2305
7668.5 6.6107 5.9454 5.3967 129.0684 7.8402 0.0111 0.2181 3.5430 2.6184 -323.8304 0.2246
7669.0 3.3701 3.3344 3.2282 127.4549 7.8696 0.0542 0.2124 3.2827 2.6135 -323.7321 0.2288
7669.5 2.1275 2.1259 2.0350 127.5610 7.8952 0.1078 0.2057 3.1362 2.6063 -323.7734 0.2434
7670.0 1.8101 1.7910 1.8127 126.6090 8.0308 0.1451 0.2135 3.0267 2.5904 -323.7768 0.2435
7670.5 1.7149 1.7192 1.7605 123.4616 8.1920 0.1513 0.2175 2.9478 2.5542 -323.9643 0.2277
7671.0 1.6575 1.6530 1.6993 123.2952 8.1187 0.1473 0.2193 2.9018 2.5226 -324.0703 0.2129
7671.5 1.6119 1.5586 1.6294 127.3152 8.0967 0.1496 0.2362 2.8789 2.5156 -324.2321 0.2117
7672.0 1.5868 1.5050 1.5423 129.4307 8.1407 0.1505 0.2383 2.8631 2.5163 -324.5089 0.2249
7672.5 1.5793 1.4975 1.5343 126.2572 8.1261 0.1435 0.2411 2.8582 2.5135 -324.4453 0.2294
7673.0 1.7300 1.6286 1.6429 124.2469 8.0235 0.1312 0.2370 2.8548 2.5263 -324.0804 0.2327
7673.5 2.1177 2.0299 2.0770 126.8089 8.0271 0.1068 0.2325 2.8547 2.5434 -323.7946 0.2259
7674.0 2.9831 2.7247 2.7157 127.7153 7.9648 0.0742 0.2378 2.8789 2.5619 -323.8828 0.2286
7674.5 4.0270 3.3779 3.3616 131.0615 7.7963 0.0393 0.2366 2.9377 2.5637 -323.7656 0.2312
7675.0 4.1740 3.8529 3.6676 127.2502 7.7743 0.0150 0.2373 2.9994 2.5527 -323.6320 0.2303
7675.5 4.1499 3.9114 3.5164 131.1185 7.7633 0.0046 0.2290 3.0040 2.5420 -323.7222 0.2265
7676.0 3.8804 3.8179 3.5049 130.0272 7.7670 0.0013 0.2401 2.9430 2.5305 -323.8937 0.2164
7676.5 3.2944 3.5203 3.3517 128.2712 7.7963 0.0058 0.2417 2.8940 2.5176 -323.7625 0.2250
7677.0 2.9041 2.7952 2.6600 125.5723 7.7816 0.0163 0.2465 2.8972 2.5017 -323.8977 0.2305
7677.5 2.4162 2.2296 2.1953 124.1035 7.8109 0.0294 0.2404 2.9499 2.4977 -323.8802 0.2349
7678.0 2.4352 2.2225 2.1690 127.7441 7.7889 0.0404 0.2399 3.0099 2.5124 -323.8802 0.2325
7678.5 2.4172 2.3596 2.1696 128.5398 7.8402 0.0548 0.2434 3.0748 2.5405 -324.0268 0.2300
7679.0 2.2520 2.1707 1.9870 125.8984 7.7963 0.0733 0.2350 3.1241 2.5617 -324.0792 -5423.2901
7679.5 1.9789 1.9348 1.9392 119.9105 7.7889 0.0882 0.2434 3.1331 2.5539 -324.1295 -999.2500
7680.0 1.7868 1.7085 1.7587 119.9105 7.8549 0.0934 0.2414 3.0923 2.5361 -324.4453 -999.2500
7680.5 1.6686 1.5859 1.5551 119.9105 7.9135 0.0884 0.2515 3.0286 2.5114 -324.5000 -999.2500
7681.0 1.6819 1.5807 1.5252 119.9105 7.8989 0.0863 0.2424 2.9818 2.4977 -324.4102 -999.2500
7681.5 1.9231 1.8934 1.8547 119.9105 7.8732 0.0877 0.2415 2.9617 2.4894 -324.3203 -999.2500
7682.0 2.3701 2.2561 2.2875 119.9105 7.7816 0.0950 0.2346 2.9511 2.4904 -324.1838 -999.2500
7682.5 3.0036 2.6763 2.6504 119.9105 7.7633 0.1085 0.2339 2.9294 2.4999 -324.2794 -999.2500
7683.0 3.7207 3.3158 3.3529 119.9105 7.7596 0.1268 0.2354 2.9075 2.5130 -324.2794 -999.2500
7683.5 3.7956 3.7175 3.6276 119.9105 7.7523 0.1421 0.2396 2.9046 2.5234 -324.4191 -999.2500
7684.0 3.6459 3.5107 3.6542 119.9105 7.7596 0.1507 0.2369 2.9157 2.5322 -324.5352 -999.2500
7684.5 3.6104 3.4529 3.5425 119.9105 7.7523 0.1515 0.2265 2.9184 2.5339 -324.5313 -999.2500
7685.0 4.0715 3.8936 3.8070 119.9105 7.7376 0.1483 0.2265 2.8948 2.5372 -324.5331 -999.2500
7685.5 4.4477 4.4697 4.2741 119.9105 7.7303 0.1436 0.2265 2.8620 2.5347 -324.8008 -999.2500
7686.0 4.8015 4.9924 4.9310 119.9105 7.7376 0.1442 0.2265 2.8480 2.5319 -324.7757 -999.2500
7686.5 4.1130 4.0350 3.8673 119.9105 7.7413 0.1516 0.2265 2.8630 2.5299 -324.7461 -999.2500
7687.0 2.6895 2.4984 2.4532 119.9105 7.7193 0.1556 0.2265 2.8776 2.5312 -325.0742 -999.2500
7687.5 1.8079 1.8487 1.8769 119.9105 7.7303 0.1506 0.2265 2.8722 2.5288 -325.4154 -999.2500
7688.0 1.5417 1.6226 1.6603 119.9105 7.7157 0.1454 0.2265 2.8565 2.5261 -325.4522 -999.2500
7688.5 1.5980 1.5602 1.6161 119.9105 7.7376 0.1456 0.2265 2.8533 2.5268 -325.4258 -999.2500
7689.0 1.7348 1.7074 1.8459 119.9105 7.7230 0.1450 0.2265 2.8572 2.5258 -325.3529 -999.2500
7689.5 1.8452 1.7710 1.9210 119.9105 7.7157 0.1445 0.2265 2.8670 2.5259 -325.4265 -999.2500
7690.0 2.0387 1.8529 2.0029 119.9105 7.7230 0.1449 0.2265 2.8765 2.5271 -325.2383 -999.2500
7690.5 2.2110 1.9912 2.1845 119.9105 7.7083 0.1498 0.2265 2.8892 2.5287 -325.4007 -999.2500
7691.0 2.4166 2.1813 2.4200 119.9105 7.7193 0.1549 0.2265 2.8972 2.5297 -325.7243 -999.2500
7691.5 2.7267 2.3888 2.7031 119.9105 7.7010 0.1623 0.2265 2.9009 2.5317 -325.9706 -999.2500
7692.0 3.0526 2.6957 3.0441 119.9105 7.7193 0.1701 0.2265 2.9060 2.5384 -325.7109 -999.2500
7692.5 4.0581 2.9970 3.3339 119.9105 7.7083 0.1781 0.2265 2.9073 2.5451 -325.3594 -999.2500
7693.0 4.3028 3.1105 3.3485 119.9105 7.7157 0.1783 0.2265 2.9051 2.5472 -325.3787 -999.2500
7693.5 4.4485 3.3727 3.5123 119.9105 7.7083 -5412.6214 0.2265 -5424.6996 -5423.1043 -325.6406 -999.2500
7694.0 5.0527 3.6670 3.5021 119.9105 7.7083 -999.2500 0.2265 -999.2500 -999.2500 -325.6680 -999.2500
7694.5 5.7302 4.0564 3.7157 119.9105 7.6973 -999.2500 0.2265 -999.2500 -999.2500 -325.8493 -999.2500
7695.0 5.1376 3.7941 3.3300 119.9105 7.7083 -999.2500 0.2265 -999.2500 -999.2500 -325.8419 -999.2500
7695.5 5.1306 3.5276 2.9467 119.9105 7.4665 -999.2500 0.2265 -999.2500 -999.2500 -325.6367 -999.2500
7696.0 4.9594 3.2921 2.6916 119.9105 4.3078 -999.2500 0.2265 -999.2500 -999.2500 -325.5551 -999.2500
7696.5 4.9071 3.1588 2.5423 119.9105 3.4321 -999.2500 0.2265 -999.2500 -999.2500 -325.6875 -999.2500
7697.0 4.9734 3.1012 2.4724 119.9105 3.4211 -999.2500 0.2265 -999.2500 -999.2500 -325.7684 -999.2500
7697.5 5.0376 3.0957 2.4641 119.9105 3.4266 -999.2500 0.2265 -999.2500 -999.2500 -325.8906 -999.2500
7698.0 5.0597 3.1433 2.5157 119.9105 3.4255 -999.2500 0.2265 -999.2500 -999.2500 -326.2461 -999.2500
7698.5 5.1293 3.1683 2.5690 119.9105 3.4266 -999.2500 0.2265 -999.2500 -999.2500 -326.5147 -999.2500
7699.0 5.1581 3.1862 2.6286 119.9105 3.4266 -999.2500 0.2265 -999.2500 -999.2500 -326.5938 -999.2500
7699.5 5.1488 3.1938 2.6765 119.9105 3.4266 -999.2500 0.2265 -999.2500 -999.2500 -326.7169 -999.2500
7700.0 5.1423 3.2027 2.7151 119.9105 3.4266 -999.2500 0.2265 -999.2500 -999.2500 -325.6176 -999.2500
7700.5 5.1564 3.2154 2.7412 119.9105 3.4266 -999.2500 0.2265 -999.2500 -999.2500 -326.2734 -999.2500
7701.0 5.1588 3.2203 2.7549 119.9105 3.4266 -999.2500 0.2265 -999.2500 -999.2500 -328.1523 -999.2500
7701.5 5.1556 3.2231 2.7554 119.9105 3.4266 -999.2500 0.2265 -999.2500 -999.2500 -331.3676 -999.2500
7702.0 5.1385 3.2221 2.7428 119.9105 3.4266 -999.2500 0.2265 -999.2500 -999.2500 -327.8398 -999.2500
7702.5 5.1304 3.2217 2.7223 119.9105 3.4266 -999.2500 0.2265 -999.2500 -999.2500 -327.8945 -999.2500
7703.0 5.1191 3.2217 2.7009 119.9105 3.4266 -999.2500 0.2265 -999.2500 -999.2500 -327.9625 -999.2500
7703.5 5.1232 3.2199 2.6820 119.9105 3.4266 -999.2500 0.2265 -999.2500 -999.2500 -327.7148 -999.2500
7704.0 5.1195 3.2130 2.6676 119.9105 3.4266 -999.2500 0.2265 -999.2500 -999.2500 -327.7266 -999.2500
7704.5 5.1188 3.2013 2.6578 119.9105 3.4266 -999.2500 0.2265 -999.2500 -999.2500 -327.6833 -999.2500
7705.0 5.1114 3.1877 2.6536 119.9105 3.4266 -999.2500 0.2265 -999.2500 -999.2500 -327.5708 -999.2500
7705.5 5.1008 3.1773 2.6556 119.9105 3.4266 -999.2500 0.2265 -999.2500 -999.2500 -327.5664 -999.2500
