~VERSION INFORMATION
VERS.           2.0   :CWLS Log ASCII Standard - VERSION 2.0
WRAP.           NO    :One Line per depth step
PROD.  Schlumberger   :LAS Producer
PROG.  DLIS to ASCII 19C2-270                          :LAS Program name and version
CREA.        2013/09/21 19:52                          :LAS Creation date {YYYY/MM/DD hh:mm}
DLIS_CREA.  2013-Sep-21 19:47                          :DLIS Creation date and time {YYYY-MMM-DD hh:mm}
SOURCE.     49-021-21035_McGahan Farms 42-31_Run_PEX_Mainpass.dlis  :DLIS File Name
FILE-ID.     MaxWell_3Dlis                             :File Identification Number
#--------------------------------------------------
~WELL INFORMATION
#MNEM.UNIT      DATA             DESCRIPTION
#---- ------ --------------   -----------------------------
STRT .F      1000.5          :START DEPTH        # original; data subset to 5500-8000
STOP .F      7716.5          :STOP DEPTH        # original; data subset to 5500-8000
STEP .F       0.5            :STEP     
NULL .          -999.25      :NULL VALUE
COMP .        Bear Oil & Gas, Inc                      :COMPANY
WELL .        McGahan Farms 42-31                      :WELL
FLD  .        Wildcat                                  :FIELD
LOC  .        Lat/Long: 41.3098/-104.1197              :LOCATION
CNTY .        Laramie                                  :COUNTY
STAT .        Wyoming                                  :STATE
CTRY .        USA                                      :COUNTRY
API  .        49-021-21035                             :API NUMBER
UWI  .        49021210350000                           :UNIQUE WELL ID
DATE .        21-Sep-2013                              :LOG DATE {DD-MMM-YYYY}
SRVC .        Schlumberger                             :SERVICE COMPANY
LATI .DEG     41.309800 degrees                        :LATITUDE
LONG .DEG     -104.11970 degrees                       :LONGITUDE
GDAT .                                                 :GeoDetic Datum
SECT .        31                                       :Section
RANG .        60W                                      :Range
TOWN .        16N                                      :Township
#-----------------------------------------------------------------------------
~PARAMETER INFORMATION
#MNEM.UNIT    VALUE                      DESCRIPTION
#---- -----   --------------------       ------------------------
CN   .        Bear Oil & Gas  Inc        :Company Name
WN   .        McGahan Farms 42-31        :Well Name
FN   .        Wildcat                    :Field Name
FL   .        Lat/Long  41.3098/-104.1197 :Field Location
FL1  .        SHL   2375' FNL X 190' FEL SENE :Field Location, Line 1
COUN .        Laramie                    :County or Parish
STAT .        Wyoming                    :State or Province
NATI .        USA                        :Nation
DATE .        21-Sep-2013                :Tools Above Rotary Table Date
APIN .        49-021-21035               :API Well Number
SECT .        31                         :Section
TOWN .        16N                        :Township
RANG .        60W                        :Range
DMF  .        KB                         :Drilling Measured From (Name of Drilling Elevation Reference)
LMF  .        KB                         :Logging Measured From (Name of Logging Elevation Reference)
PDAT .        GL                         :Permanent Datum
ENGI .        Arvin Shi                  :Engineer s Name
WITN .        Terry Eittreim             :Witness s Name
LATI .        41.309800 degrees          :Latitude
LONG .        -104.11970 degrees         :Longitude
LUL  .        Fort Morgan                :Logging Unit Location
LUN  .        3022                       :Logging Unit Number
RUN  .        Run 1                      :Run Number
SON  .        C6VJ-00079                 :Service Order Number
BHT  .DEGF     175.00000                 :Bottom Hole Temperature
BS   .IN         7.87500                 :Bit Size
MDEN .G/C3       2.65000                 :Matrix Density for Density Porosity
DFD  .LB/G       9.20000                 :Drilling Fluid Density
DFV  .S         80.00000                 :Drilling Fluid Viscosity
DFL  .C3      -999.25000                 :Drilling Fluid Loss
RMFS .OHMM       0.96000                 :Resistivity of Mud Filtrate Sample
EKB  .F       5307.00000                 :Elevation of Kelly Bushing
EGL  .F       5295.00000                 :Elevation of Ground Level
BLI  .F       7700.00000                 :Bottom Log Interval
BSAL .PPM     3275.14868                 :Borehole Salinity
FLEV .F          8.00000                 :Depth of Drilling Fluid Level to LMF (Log Measured From)
MCST .DEGF      98.00000                 :Mudcake Sample Temperature
MFST .DEGF      98.00000                 :Mud Filtrate Sample Temperature
MRT  .DEGF     175.00000                 :Maximum Recorded Temperature
MST  .DEGF      98.00000                 :Mud Sample Temperature
RMCS .OHMM       1.60000                 :Resistivity of Mud Cake Sample
RMS  .OHMM       1.28000                 :Resistivity of Mud Sample
RW   .OHMM       1.00000                 :Connate Water Resistivity
TDD  .F       7697.00000                 :Driller Total Depth
TDL  .F       7700.00000                 :Logger Total Depth
TLI  .F       1018.00000                 :Top Log Interval
HIDE .        Wildcat                    :Header Identifier
MATR .        SAND                       :Rock Matrix for Neutron Porosity Corrections
FNUM .           1.00000                 :F-Numerator for Formation Factor Formula
FEXP .           2.00000                 :Exponent "m" for Formation Factor Formula
DFT  .        Chemical Gel               :Drilling Fluid Type
DFPH .        -999.25000                 :Drilling Fluid pH
MCSS .        Calculated                 :Mudcake Sample Source
MFSS .        Calculated                 :Mud Filtrate Sample Source
FD   .G/C3       1.00000                 :Fluid Density
MSS  .        Flowline                   :Mud Sample Source
OS1  .                                   :Other Services Line 1
OS2  .                                   :Other Services Line 2
OS3  .                                   :Other Services Line 3
OS4  .                                   :Other Services Line 4
OS5  .                                   :Other Services Line 5
R1   .                                   :Remarks Line 1
R2   .                                   :Remarks Line 2
R3   .                                   :Remarks Line 3
R4   .                                   :Remarks Line 4
R5   .                                   :Remarks Line 5
R6   .                                   :Remarks Line 6
R7   .                                   :Remarks Line 7
R8   .                                   :Remarks Line 8
TCS  .        11 00 00                   :Time Circulation Stopped
TLAB .        17 20 49                   :Time Logger At Bottom
NMT  .        NOBARITE                   :HRDD Mud Type for Nuclear Devices
EPD  .C3         5295.000000             :Elevation of Permanent Datum above Mean Sea Level
APD  .F          12.000000               :Elevation of Depth Reference (LMF) above Permanent Datum
#-----------------------------------------------------------------------------
~CURVE INFORMATION
#MNEM.UNIT   API CODE                                  DESCRIPTION
#---- -----  --------                                  -----------------------
DEPT .F                                                :DEPTH (BOREHOLE) {F10.1}
AT10 .OHMM                                             :Array Induction Two Foot Resistivity A10 {F11.4}
AT30 .OHMM                                             :Array Induction Two Foot Resistivity A30 {F11.4}
AT90 .OHMM                                             :Array Induction Two Foot Resistivity A90 {F11.4}
GR   .GAPI                                             :Gamma Ray {F11.4}
HCAL .IN                                               :HRCC Caliper Calibrated {F11.4}
HDRA .G/C3                                             :Density Standoff Correction {F11.4}
NPHI .CFCF                                             :Thermal Neutron Porosity (original Ratio Method) in Selected Lithology {F11.4}
PEFZ .                                                 :Standard Resolution Formation Photoelectric Factor {F11.4}
RHOZ .G/C3                                             :Standard Resolution Formation Density {F11.4}
SP   .MV                                               :Spontaneous Potential {F11.4}
TNPH .CFCF                                             :Thermal Neutron Porosity (Ratio Method) in Selected Lithology {F11.4}
#-----------------------------------------------------------------------------
# 
#     DEPT       AF10       AF20       AF30       AF60       AF90       AO10       AO20       AO30       AO60       AO90       AT10       AT20       AT30       AT60       AT90     AHFCO60      AHMF      AHORT      AHORX      AHSCA     AHTCO10    AHTCO20    AHTCO30    AHTCO60    AHTCO90     AHTD1      AHTD2      AHTRT      AHTRX       CDF        CFTC       CNTC       CTEM       DCAL       DNPH       DPHZ       DSOZ       ECGR        ED        GDEV        GR        GTEM       HCAL       HDRA       HDRB       HGR        HMIN       HMNO       HNPO       HPRA       HTNP        ND        NPHI       NPOR       PEFZ    PXND_HILT     RHOZ       RSOZ     RWA_HILT     RXO8       RXOZ        SP        SPAR       STIT       TENS       TNPH     HTNP_SAN
#
~A  DEPT AT10 AT30 AT90 GR HCAL HDRA NPHI PEFZ RHOZ SP TNPH
# ...
7214.0 3.2821 2.8720 2.6120 128.1989 7.8622 -0.0058 0.2834 3.4302 2.4204 -337.8393 0.2779
7214.5 2.5880 2.3109 2.1214 154.2130 7.8512 0.0036 0.3041 3.2750 2.4106 -338.2679 0.2779
7215.0 2.1308 1.9557 1.8191 183.3442 7.8622 0.0100 0.3178 3.0941 2.4121 -338.5625 0.2976
7215.5 2.7221 2.3423 2.1599 188.7856 8.1041 0.0084 0.3178 3.0427 2.4241 -338.5536 0.2893
7216.0 3.3340 3.0555 2.7287 160.6180 7.9062 0.0003 0.2846 3.1446 2.4459 -338.5000 0.2818
7216.5 4.1512 3.6219 3.1890 130.2399 7.8842 -0.0068 0.2698 3.3212 2.4617 -338.2589 0.2578
7217.0 4.4433 3.8494 3.4292 114.3988 7.8842 -0.0089 0.2591 3.4601 2.4714 -338.2891 0.2508
7217.5 4.5250 3.9075 3.5270 107.7109 7.8622 -0.0107 0.2612 3.5031 2.4655 -338.5357 0.2474
7218.0 4.5303 3.9633 3.6105 104.7922 7.8622 -0.0121 0.2502 3.5289 2.4580 -338.7891 0.2506
7218.5 4.5238 4.0328 3.7108 106.8047 7.8842 -0.0111 0.2363 3.5144 2.4628 -339.0000 0.2366
7219.0 4.4979 4.1251 3.7985 115.1926 7.8842 -0.0097 0.2334 3.5255 2.4641 -339.1563 0.2287
7219.5 4.2439 3.9876 3.7099 120.7470 7.8622 -0.0089 0.2470 3.5271 2.4554 -339.2143 0.2290
7220.0 4.0642 3.7944 3.5604 121.6533 7.8732 -0.0081 0.2672 3.5454 2.4392 -339.2813 0.2425
7220.5 4.0186 3.7901 3.5580 121.9370 7.8622 -0.0094 0.2827 3.5577 2.4320 -339.3661 0.2573
7221.0 4.3843 4.0181 3.7470 120.8884 7.8842 -0.0091 0.2888 3.5790 2.4440 -339.5000 0.2564
7221.5 4.6905 4.3337 3.9960 122.9286 7.8842 -0.0106 0.2706 3.6549 2.4574 -339.5714 0.2473
7222.0 4.9316 4.5136 4.1460 120.1514 7.8622 -0.0099 0.2530 3.7127 2.4667 -339.6641 0.2382
7222.5 4.5361 4.2003 3.8908 121.0011 7.8842 -0.0104 0.2416 3.7329 2.4613 -339.8482 0.2428
7223.0 4.2869 4.0234 3.7235 127.5758 7.8622 -0.0094 0.2539 3.6496 2.4570 -339.0714 0.2433
7223.5 4.0561 3.8562 3.6000 138.0892 7.8622 -0.0095 0.2603 3.5919 2.4453 -339.3828 0.2496
7224.0 3.8145 3.6379 3.4248 144.0405 7.8622 -0.0070 0.2784 3.5330 2.4467 -339.4554 0.2490
7224.5 4.0000 3.8245 3.5414 143.1340 7.8622 -0.0075 0.2756 3.5995 2.4384 -339.2422 0.2638
7225.0 4.4073 4.1967 3.8483 137.3815 7.8512 -0.0078 0.2730 3.6835 2.4362 -339.6161 0.2552
7225.5 4.7622 4.6790 4.1503 129.4470 7.8402 -0.0098 0.2675 3.7415 2.4291 -340.1016 0.2473
7226.0 4.8115 4.8126 4.4604 136.0770 7.8622 -0.0101 0.2819 3.6885 2.4344 -339.7143 0.2506
7226.5 5.1398 4.9820 4.6502 133.3562 7.8402 -0.0078 0.2853 3.6189 2.4513 -340.0703 0.2645
7227.0 5.4093 4.9916 4.6933 136.3037 7.8622 -0.0007 0.2593 3.6576 2.4765 -341.0703 0.2445
7227.5 5.0759 5.1256 4.7205 118.8483 7.9062 0.0012 0.2210 3.7347 2.4959 -341.0446 0.2113
7228.0 5.2557 4.7890 4.6126 114.3148 7.8183 0.0222 0.1997 3.7252 2.4871 -340.9688 0.2014
7228.5 3.6269 3.5365 3.4006 118.7066 7.8622 0.0527 0.2103 3.5143 2.4268 -341.1339 0.2194
7229.0 2.2080 2.0982 2.1433 153.3351 7.8622 0.0893 0.2924 3.1966 2.3745 -341.5625 0.2567
7229.5 1.6132 1.5874 1.5626 181.4183 7.9502 0.0685 0.3456 2.9168 2.3321 -341.6964 0.3040
7230.0 2.4200 2.1997 2.1569 174.7583 8.0821 0.0325 0.3494 2.9266 2.3785 -340.8516 0.2871
7230.5 3.6580 3.6256 3.3223 144.4942 7.8842 -0.0034 0.2744 3.2322 2.4364 -340.2054 0.2593
7231.0 5.5639 5.0062 4.4566 120.0379 7.8842 0.0036 0.2275 3.6028 2.4951 -339.8984 0.2261
7231.5 4.5745 4.5385 4.1633 118.5650 7.8842 0.0096 0.2278 3.7579 2.4992 -339.7054 0.2207
7232.0 4.1822 3.9161 3.6076 123.6655 7.8842 0.0078 0.2577 3.6476 2.4829 -339.5893 0.2315
7232.5 3.9804 3.6907 3.4179 127.2930 7.8622 -0.0019 0.2614 3.5086 2.4707 -339.4453 0.2550
7233.0 4.3096 3.8428 3.5736 130.5804 7.8842 -0.0100 0.2559 3.4739 2.4664 -339.2589 0.2417
7233.5 4.5586 4.2537 3.9423 134.6604 7.9062 -0.0085 0.2430 3.5076 2.4773 -339.3594 0.2347
7234.0 4.8685 4.5124 4.1600 132.2800 7.8842 -0.0058 0.2539 3.5235 2.4923 -339.4375 0.2254
7234.5 4.7761 4.4793 4.1344 132.7334 7.8842 -0.0054 0.2604 3.5288 2.4915 -339.2891 0.2371
7235.0 4.6312 4.2983 3.9944 133.8669 7.8952 -0.0069 0.2754 3.4813 2.4856 -339.2656 0.2453
7235.5 4.4346 4.1145 3.8228 139.6475 7.8842 -0.0098 0.2796 3.4685 2.4713 -339.3036 0.2657
7236.0 4.5740 4.2085 3.9298 139.1938 7.9062 0.0005 0.2867 3.4464 2.4704 -339.2813 0.2678
7236.5 4.8226 4.4464 4.1654 127.8875 7.8842 0.0117 0.2839 3.5021 2.4661 -339.3036 0.2654
7237.0 5.0032 4.5995 4.3148 119.0466 7.8842 0.0124 0.2679 3.5727 2.4653 -339.4141 0.2681
7237.5 5.1734 4.7656 4.4405 113.7759 7.8842 0.0025 0.2556 3.6568 2.4649 -339.4732 0.2480
7238.0 5.3565 4.8791 4.5709 113.9742 7.8842 -0.0057 0.2391 3.7238 2.4638 -339.2946 0.2339
7238.5 5.3388 4.9242 4.5992 112.3871 7.8842 -0.0064 0.2385 3.7536 2.4627 -339.3438 0.2220
7239.0 5.1509 4.7646 4.4683 115.8443 7.8842 -0.0067 0.2546 3.7200 2.4633 -339.5625 0.2280
7239.5 4.9415 4.5831 4.3209 118.0263 7.8622 -0.0081 0.2661 3.6804 2.4599 -339.7422 0.2507
7240.0 4.9719 4.5890 4.3136 128.4542 7.8622 -0.0061 0.2793 3.6437 2.4621 -339.8929 0.2556
7240.5 5.1974 4.7635 4.4514 134.1216 7.8622 -0.0042 0.2782 3.6600 2.4677 -339.8438 0.2560
7241.0 5.3546 4.9234 4.5692 137.8341 7.8842 -0.0043 0.2729 3.7028 2.4806 -339.8839 0.2537
7241.5 5.5792 5.1107 4.7382 134.6327 7.8402 -0.0044 0.2611 3.7652 2.4901 -340.0625 0.2435
7242.0 5.4797 5.0985 4.7128 134.1793 7.8842 -0.0067 0.2495 3.8140 2.4855 -340.3304 0.2323
7242.5 5.0886 4.7620 4.4470 133.6406 7.8622 -0.0084 0.2585 3.7817 2.4767 -340.4453 0.2354
7243.0 4.7843 4.4380 4.1711 132.0813 7.8512 -0.0109 0.2687 3.7554 2.4601 -340.4531 0.2462
7243.5 4.6995 4.3500 4.1136 129.1341 7.8402 -0.0107 0.2762 3.7152 2.4602 -340.6875 0.2557
7244.0 4.8704 4.4666 4.2200 126.5556 7.8512 -0.0012 0.2579 3.7572 2.4625 -340.4766 0.2533
7244.5 5.0153 4.6310 4.3729 125.6489 7.8622 0.0003 0.2691 3.7992 2.4725 -340.4286 0.2423
7245.0 5.0662 4.6823 4.4327 126.6689 7.8622 0.0011 0.2564 3.8126 2.4820 -340.6161 0.2524
7245.5 5.1496 4.7569 4.5052 131.3726 7.8512 -0.0086 0.2604 3.8160 2.4856 -340.4766 0.2354
7246.0 5.2840 4.8857 4.6090 124.9119 7.8402 -0.0042 0.2320 3.8100 2.4885 -339.8929 0.2343
7246.5 5.4609 4.9579 4.7098 117.5727 7.8512 0.0011 0.2216 3.8339 2.4851 -339.6484 0.2128
7247.0 5.1762 4.8811 4.6439 114.1727 7.8402 0.0026 0.2308 3.8372 2.4759 -339.4464 0.2126
7247.5 4.9676 4.6364 4.4427 131.0612 7.8402 -0.0012 0.2521 3.7822 2.4634 -339.3281 0.2246
7248.0 4.6521 4.3629 4.2014 141.5744 7.8402 -0.0072 0.2732 3.7554 2.4475 -339.3036 0.2449
7248.5 4.9916 4.5390 4.3740 138.6269 7.8402 -0.0087 0.2605 3.7769 2.4484 -338.9531 0.2471
7249.0 5.3377 4.9308 4.7296 125.0256 7.8622 -0.0095 0.2499 3.8559 2.4627 -338.6875 0.2270
7249.5 5.4185 5.0115 4.7650 114.9089 7.8732 -0.0084 0.2287 3.8712 2.4846 -338.7266 0.2171
7250.0 4.9213 4.5298 4.3435 115.5891 7.8842 -0.0079 0.2418 3.8217 2.4919 -338.7054 0.2075
7250.5 4.5672 4.2184 4.0349 119.6418 7.8842 -0.0075 0.2540 3.7462 2.4840 -338.6563 0.2301
7251.0 4.3134 4.0222 3.8562 119.2168 7.8622 -0.0071 0.2670 3.6849 2.4739 -338.6429 0.2541
7251.5 4.0596 3.8065 3.6449 121.5686 7.8622 -0.0006 0.2719 3.6339 2.4687 -338.6172 0.2577
7252.0 3.8800 3.6378 3.4937 113.4357 7.8622 0.0044 0.2616 3.6112 2.4676 -338.6071 0.2552
7252.5 3.8351 3.5988 3.4478 120.6052 7.8842 0.0160 0.2633 3.6302 2.4649 -338.5469 0.2423
7253.0 3.8307 3.6221 3.4608 110.5451 7.8732 0.0127 0.2460 3.6893 2.4639 -338.5179 0.2453
7253.5 3.8405 3.6145 3.4597 118.0824 7.8842 0.0072 0.2537 3.7438 2.4666 -338.6172 0.2339
7254.0 4.0442 3.7409 3.5764 108.1924 7.8842 -0.0043 0.2537 3.7613 2.4767 -338.5893 0.2333
7254.5 4.3592 4.0437 3.8702 108.3347 7.8842 -0.0087 0.2563 3.7651 2.4841 -338.3516 0.2233
7255.0 4.7316 4.3176 4.1259 100.1168 7.8842 -0.0075 0.2474 3.7916 2.4897 -338.3214 0.2193
7255.5 5.1135 4.6234 4.3908 97.7083 7.8842 -0.0097 0.2306 3.8588 2.4912 -338.5234 0.2132
7256.0 5.1642 4.7745 4.5141 100.2868 7.8622 -0.0085 0.2102 3.8866 2.4938 -338.7411 0.2043
7256.5 4.7815 4.4863 4.2174 107.3147 7.8842 -0.0100 0.2150 3.8563 2.4849 -338.6696 0.2007
7257.0 4.6037 4.2466 4.0354 119.4715 7.8622 -0.0081 0.2291 3.7856 2.4677 -338.7031 0.2139
7257.5 4.6254 4.1632 4.0078 123.2404 7.8512 -0.0040 0.2468 3.7215 2.4552 -338.8750 0.2143
7258.0 4.7162 4.1902 3.9164 125.2809 7.8622 -0.0014 0.2365 3.7152 2.4531 -339.0156 0.2127
7258.5 4.6772 4.2669 3.9211 122.5606 7.8402 0.0049 0.2131 3.6758 2.4671 -339.2321 0.1994
