~VERSION INFORMATION
VERS.           2.0   :CWLS Log ASCII Standard - VERSION 2.0
WRAP.           NO    :One Line per depth step
PROD.  Schlumberger   :LAS Producer
PROG.  DLIS to ASCII 19C1-222                          :LAS Program name and version
CREA.        2013/09/09 02:34                          :LAS Creation date {YYYY/MM/DD hh:mm}
DLIS_CREA.  2013-Sep-09 02:29                          :DLIS Creation date and time {YYYY-MMM-DD hh:mm}
SOURCE.     049-021-21038_Marquardt 44-31_Run_PEX-AIT_Mainpass.dlis  :DLIS File Name
FILE-ID.     MaxWell_4Dlis                             :File Identification Number
#--------------------------------------------------
~WELL INFORMATION
#MNEM.UNIT      DATA             DESCRIPTION
#---- ------ --------------   -----------------------------
STRT .F      952.5           :START DEPTH        # original; data subset to 5500-8000
STOP .F      7703.0          :STOP DEPTH        # original; data subset to 5500-8000
STEP .F       0.5            :STEP     
NULL .          -999.25      :NULL VALUE
COMP .        Bear Oil & Gas, Inc                      :COMPANY
WELL .        Marquardt 44-31                          :WELL
FLD  .        Wildcat                                  :FIELD
LOC  .        Lat/Long : 41.3038/-104.1202             :LOCATION
CNTY .        Laramie                                  :COUNTY
STAT .        Wyoming                                  :STATE
CTRY .        USA                                      :COUNTRY
API  .        049-021-21038                            :API NUMBER
UWI  .        049021210380000                          :UNIQUE WELL ID
DATE .        08-Sep-2013                              :LOG DATE {DD-MMM-YYYY}
SRVC .        Schlumberger                             :SERVICE COMPANY
LATI .DEG     41.303800 degrees                        :LATITUDE
LONG .DEG     -104.12020 degrees                       :LONGITUDE
GDAT .                                                 :GeoDetic Datum
SECT .        31                                       :Section
RANG .        60W                                      :Range
TOWN .        16N                                      :Township
#-----------------------------------------------------------------------------
~PARAMETER INFORMATION
#MNEM.UNIT    VALUE                      DESCRIPTION
#---- -----   --------------------       ------------------------
CN   .        Bear Oil & Gas  Inc        :Company Name
WN   .        Marquardt 44-31            :Well Name
FN   .        Wildcat                    :Field Name
FL   .        Lat/Long   41.3038/-104.1202 :Field Location
FL1  .        SHL   766' FSL X 245' FEL SESE :Field Location, Line 1
COUN .        Laramie                    :County or Parish
STAT .        Wyoming                    :State or Province
NATI .        USA                        :Nation
DATE .        08-Sep-2013                :Tools Above Rotary Table Date
APIN .        049-021-21038              :API Well Number
SECT .        31                         :Section
TOWN .        16N                        :Township
RANG .        60W                        :Range
DMF  .        KB                         :Drilling Measured From (Name of Drilling Elevation Reference)
LMF  .        KB                         :Logging Measured From (Name of Logging Elevation Reference)
PDAT .        GL                         :Permanent Datum
ENGI .        Arvin Shi                  :Engineer s Name
WITN .        Terry Eittreim             :Witness s Name
LATI .        41.303800 degrees          :Latitude
LONG .        -104.12020 degrees         :Longitude
LUL  .        Fort Morgan                :Logging Unit Location
LUN  .        3030                       :Logging Unit Number
RUN  .        Run 1                      :Run Number
SON  .        C6VJ-00075                 :Service Order Number
BHT  .DEGF     184.00000                 :Bottom Hole Temperature
BS   .IN         7.87500                 :Bit Size
MDEN .G/C3       2.65000                 :Matrix Density for Density Porosity
DFD  .LB/G       9.00000                 :Drilling Fluid Density
DFV  .S         80.00000                 :Drilling Fluid Viscosity
DFL  .C3      -999.25000                 :Drilling Fluid Loss
RMFS .OHMM       0.80250                 :Resistivity of Mud Filtrate Sample
EKB  .F       5298.00000                 :Elevation of Kelly Bushing
EGL  .F       5286.00000                 :Elevation of Ground Level
BLI  .F       7686.00000                 :Bottom Log Interval
BSAL .PPM     4641.08936                 :Borehole Salinity
FLEV .F          8.00000                 :Depth of Drilling Fluid Level to LMF (Log Measured From)
MCST .DEGF      84.00000                 :Mudcake Sample Temperature
MFST .DEGF      84.00000                 :Mud Filtrate Sample Temperature
MRT  .DEGF     184.00000                 :Maximum Recorded Temperature
MST  .DEGF      84.00000                 :Mud Sample Temperature
RMCS .OHMM       1.33750                 :Resistivity of Mud Cake Sample
RMS  .OHMM       1.07000                 :Resistivity of Mud Sample
RW   .OHMM       1.00000                 :Connate Water Resistivity
TDD  .F       7680.00000                 :Driller Total Depth
TDL  .F       7686.00000                 :Logger Total Depth
TLI  .F       1023.00000                 :Top Log Interval
HIDE .        Wildcat                    :Header Identifier
MATR .        SAND                       :Rock Matrix for Neutron Porosity Corrections
FNUM .           1.00000                 :F-Numerator for Formation Factor Formula
FEXP .           2.00000                 :Exponent "m" for Formation Factor Formula
DFT  .        Fresh Water                :Drilling Fluid Type
DFPH .        -999.25000                 :Drilling Fluid pH
MCSS .        Calculated                 :Mudcake Sample Source
MFSS .        Calculated                 :Mud Filtrate Sample Source
FD   .G/C3       1.00000                 :Fluid Density
MSS  .        Flowline                   :Mud Sample Source
OS1  .                                   :Other Services Line 1
OS2  .                                   :Other Services Line 2
OS3  .                                   :Other Services Line 3
OS4  .                                   :Other Services Line 4
OS5  .                                   :Other Services Line 5
R1   .                                   :Remarks Line 1
R2   .                                   :Remarks Line 2
R3   .                                   :Remarks Line 3
R4   .                                   :Remarks Line 4
R5   .                                   :Remarks Line 5
R6   .                                   :Remarks Line 6
R7   .                                   :Remarks Line 7
R8   .                                   :Remarks Line 8
TCS  .        15 00 00                   :Time Circulation Stopped
TLAB .        00 30 46                   :Time Logger At Bottom
NMT  .        NOBARITE                   :HRDD Mud Type for Nuclear Devices
EPD  .C3         5286.000000             :Elevation of Permanent Datum above Mean Sea Level
APD  .F          12.000000               :Elevation of Depth Reference (LMF) above Permanent Datum
#-----------------------------------------------------------------------------
~CURVE INFORMATION
#MNEM.UNIT   API CODE                                  DESCRIPTION
#---- -----  --------                                  -----------------------
DEPT .F                                                :DEPTH (BOREHOLE) {F10.1}
AT10 .OHMM                                             :Array Induction Two Foot Resistivity A10 {F11.4}
AT30 .OHMM                                             :Array Induction Two Foot Resistivity A30 {F11.4}
AT90 .OHMM                                             :Array Induction Two Foot Resistivity A90 {F11.4}
GR   .GAPI                                             :Gamma Ray {F11.4}
HCAL .IN                                               :HRCC Caliper Calibrated {F11.4}
HDRA .G/C3                                             :Density Standoff Correction {F11.4}
NPHI .CFCF                                             :Thermal Neutron Porosity (original Ratio Method) in Selected Lithology {F11.4}
PEFZ .                                                 :Standard Resolution Formation Photoelectric Factor {F11.4}
RHOZ .G/C3                                             :Standard Resolution Formation Density {F11.4}
SP   .MV                                               :Spontaneous Potential {F11.4}
TNPH .CFCF                                             :Thermal Neutron Porosity (Ratio Method) in Selected Lithology {F11.4}
#-----------------------------------------------------------------------------
# 
#     DEPT       AF10       AF20       AF30       AF60       AF90       AO10       AO20       AO30       AO60       AO90       AT10       AT20       AT30       AT60       AT90     AHFCO60      AHMF      AHORT      AHORX      AHSCA     AHTCO10    AHTCO20    AHTCO30    AHTCO60    AHTCO90     AHTD1      AHTD2      AHTRT      AHTRX       CDF        CFTC       CNTC       CTEM       DCAL       DNPH       DPHZ       DSOZ       ECGR        ED        GDEV        GR        GTEM       HCAL       HDRA       HDRB       HGR        HMIN       HMNO       HNPO       HPRA       HTNP        ND        NPHI       NPOR       PEFZ    PXND_HILT     RHOZ       RSOZ     RWA_HILT     RXO8       RXOZ        SP        SPAR       STIT       TENS       TNPH     HTNP_SAN
#
~A  DEPT AT10 AT30 AT90 GR HCAL HDRA NPHI PEFZ RHOZ SP TNPH
# ...
6089.5 3.3603 3.2816 3.1737 93.4159 7.8241 -0.0064 0.2816 2.8662 2.5507 -484.1161 0.2842
6090.0 3.4004 3.3003 3.1837 91.6333 7.8463 -0.0070 0.2783 2.8582 2.5460 -484.3750 0.2782
6090.5 3.5391 3.4467 3.3134 94.9168 7.8241 -0.0052 0.2641 2.8530 2.5527 -484.6875 0.2747
6091.0 3.6238 3.5148 3.3814 99.3043 7.8352 -0.0039 0.2710 2.8784 2.5566 -484.3750 0.2575
6091.5 3.7087 3.5856 3.4513 96.3598 7.8463 -0.0024 0.2613 2.9180 2.5600 -484.7969 0.2572
6092.0 3.8497 3.7159 3.5758 91.4063 7.8241 -0.0031 0.2665 2.9569 2.5574 -484.6250 0.2474
6092.5 3.9837 3.8572 3.7204 89.9912 7.8241 -0.0026 0.2608 2.9525 2.5650 -484.5000 0.2477
6093.0 4.0711 3.9710 3.8317 89.7647 7.8018 -0.0008 0.2641 2.9349 2.5795 -484.5536 0.2474
6093.5 3.9230 3.8700 3.7451 88.3774 7.8018 0.0004 0.2692 2.9011 2.5871 -484.0625 0.2534
6094.0 3.8909 3.7906 3.6838 87.0751 7.8018 -0.0003 0.2680 2.8691 2.5820 -484.5000 0.2668
6094.5 3.8905 3.7925 3.6800 87.2735 7.8241 -0.0041 0.2708 2.8279 2.5661 -484.8125 0.2703
6095.0 3.8653 3.7700 3.6517 93.7273 7.8463 -0.0063 0.2632 2.7951 2.5601 -484.5547 0.2661
6095.5 3.8535 3.7627 3.6341 98.4837 7.8463 -0.0101 0.2554 2.8147 2.5485 -484.6696 0.2575
6096.0 3.8212 3.7330 3.6115 98.4833 7.8463 -0.0088 0.2482 2.8134 2.5602 -484.1094 0.2460
6096.5 3.7845 3.6798 3.5611 92.0294 7.8463 -0.0073 0.2414 2.8198 2.5706 -484.4732 0.2412
6097.0 3.7916 3.6889 3.5570 87.2732 7.8463 -0.0049 0.2528 2.8021 2.5816 -484.5859 0.2354
6097.5 3.7874 3.6851 3.5574 86.0844 7.8463 -0.0058 0.2546 2.8198 2.5712 -484.4643 0.2423
6098.0 3.7206 3.6000 3.4733 89.6512 7.8575 -0.0078 0.2621 2.8316 2.5555 -484.7422 0.2482
6098.5 3.5959 3.5482 3.4200 90.3307 7.8018 -0.0090 0.2597 2.8717 2.5380 -484.2946 0.2557
6099.0 3.4732 3.4000 3.2852 95.6808 7.8463 -0.0091 0.2695 2.9008 2.5292 -484.1641 0.2529
6099.5 3.4780 3.3383 3.2264 97.0682 7.8352 -0.0082 0.2718 2.9415 2.5270 -484.3125 0.2621
6100.0 3.5866 3.4904 3.3617 97.5210 7.8463 -0.0062 0.2755 2.9511 2.5399 -484.0089 0.2577
6100.5 3.7393 3.6205 3.4826 92.3691 7.8463 -0.0062 0.2627 2.9714 2.5465 -484.3594 0.2638
6101.0 3.5973 3.5268 3.3983 90.2459 7.8463 -0.0077 0.2637 2.9686 2.5484 -483.7857 0.2599
6101.5 3.5031 3.4219 3.3147 98.1436 7.8463 -0.0093 0.2452 2.9210 2.5490 -483.7031 0.2572
6102.0 3.5684 3.4238 3.3030 98.4837 7.8241 -0.0090 0.2420 2.8744 2.5504 -483.9464 0.2366
6102.5 3.6437 3.5046 3.3891 99.0213 7.8352 -0.0061 0.2417 2.8474 2.5556 -483.9844 0.2317
6103.0 3.5922 3.5379 3.4186 94.9736 7.8686 -0.0045 0.2578 2.8718 2.5523 -484.0089 0.2319
6103.5 3.4968 3.3818 3.2882 94.4354 7.8463 -0.0045 0.2662 2.8968 2.5497 -483.5982 0.2514
6104.0 3.4400 3.3145 3.2191 99.7860 7.8575 -0.0071 0.2759 2.9422 2.5414 -483.5078 0.2602
6104.5 3.4815 3.3480 3.2369 93.9260 7.8686 -0.0088 0.2640 2.9683 2.5302 -484.1339 0.2681
6105.0 3.5444 3.4421 3.3228 95.5962 7.8686 -0.0057 0.2814 2.9432 2.5202 -484.1518 0.2584
6105.5 3.5613 3.4783 3.3654 90.4439 7.8575 0.0100 0.2703 2.8935 2.5298 -484.5156 0.2721
6106.0 3.5522 3.4584 3.3428 92.2275 7.8908 0.0131 0.2795 2.8114 2.5331 -484.5804 0.2663
6106.5 3.5692 3.4553 3.3367 92.3404 7.8908 0.0127 0.2807 2.7826 2.5492 -483.9018 0.2721
6107.0 3.5004 3.3762 3.2699 98.3988 7.8686 -0.0013 0.2799 2.7958 2.5414 -484.1953 0.2714
6107.5 3.5110 3.4124 3.3043 96.4173 7.8018 -0.0039 0.2860 2.8651 2.5399 -483.8929 0.2698
6108.0 3.5961 3.4672 3.3605 95.1719 7.8463 -0.0071 0.2629 2.9231 2.5274 -483.8984 0.2690
6108.5 3.6885 3.5423 3.4175 85.8864 7.8463 -0.0080 0.2689 2.9398 2.5278 -484.0089 0.2502
6109.0 3.6843 3.5891 3.4560 89.4531 7.8463 -0.0069 0.2510 2.9443 2.5373 -483.5089 0.2557
6109.5 3.5605 3.4596 3.3273 85.3768 7.8241 -0.0061 0.2577 2.9432 2.5394 -483.7578 0.2462
6110.0 3.4543 3.3498 3.2353 92.5674 7.8018 -0.0039 0.2533 2.9207 2.5416 -484.0446 0.2570
6110.5 3.4849 3.3647 3.2447 93.6996 7.8686 -0.0024 0.2677 2.8913 2.5408 -483.8125 0.2508
6111.0 3.4855 3.3853 3.2610 104.7679 7.8575 0.0018 0.2643 2.8855 2.5536 -484.0234 0.2543
6111.5 3.4879 3.3695 3.2489 104.1730 7.8241 0.0029 0.2678 2.8776 2.5556 -483.5625 0.2482
6112.0 3.5451 3.4121 3.2911 102.3617 7.8797 0.0039 0.2691 2.8694 2.5634 -483.7946 0.2588
6112.5 3.6263 3.5211 3.3788 94.0393 7.8018 0.0023 0.2775 2.8386 2.5652 -483.8672 0.2619
6113.0 3.6857 3.5764 3.4375 97.1818 7.8463 -0.0001 0.2673 2.8488 2.5630 -483.8304 0.2688
6113.5 3.5922 3.5165 3.3923 101.0315 7.8018 -0.0020 0.2604 2.8496 2.5569 -484.0938 0.2578
6114.0 3.5594 3.4609 3.3524 101.2295 7.8352 -0.0040 0.2543 2.8773 2.5443 -483.4732 0.2563
6114.5 3.5275 3.4206 3.3057 92.7370 7.8686 -0.0042 0.2581 2.8972 2.5410 -484.1161 0.2535
6115.0 3.4921 3.3773 3.2616 91.3783 7.8130 -0.0035 0.2498 2.9184 2.5440 -484.0938 0.2542
6115.5 3.4552 3.3572 3.2444 96.9266 7.8463 -0.0016 0.2515 2.9010 2.5551 -483.7500 0.2465
6116.0 3.4083 3.3344 3.2249 93.8695 7.8463 -0.0016 0.2596 2.8846 2.5552 -484.0089 0.2460
6116.5 3.3573 3.2464 3.1497 92.8502 7.8241 -0.0010 0.2731 2.8459 2.5582 -483.3984 0.2517
6117.0 3.4426 3.2708 3.1602 86.8490 7.8908 -0.0016 0.2648 2.8298 2.5566 -483.4821 0.2616
6117.5 3.5443 3.4463 3.3115 87.3017 7.8241 -0.0004 0.2612 2.8478 2.5624 -483.8438 0.2503
6118.0 3.6333 3.5095 3.3773 87.1037 7.8241 -0.0034 0.2526 2.9051 2.5537 -483.3661 0.2540
6118.5 3.5049 3.4211 3.2979 90.9535 7.8463 -0.0065 0.2541 2.9529 2.5426 -483.5625 0.2512
6119.0 3.4930 3.3774 3.2584 96.9267 7.8352 -0.0057 0.2453 2.9735 2.5242 -483.6071 0.2496
6119.5 3.4213 3.3291 3.2112 100.4086 7.8463 -0.0053 0.2484 2.9718 2.5141 -483.5234 0.2373
6120.0 3.4471 3.3162 3.2036 105.1358 7.8908 -0.0042 0.2413 2.9544 2.5135 -483.6875 0.2374
6120.5 3.5593 3.4473 3.3003 102.3332 7.8241 -0.0069 0.2433 2.9174 2.5277 -483.3672 0.2279
6121.0 3.6585 3.5353 3.3758 94.8883 7.8130 -0.0084 0.2411 2.9336 2.5346 -483.6429 0.2306
6121.5 3.6892 3.5594 3.4131 88.5475 7.8241 -0.0101 0.2520 2.9891 2.5400 -483.7188 0.2308
6122.0 3.6290 3.5356 3.3870 89.0006 7.8241 -0.0118 0.2572 3.0472 2.5405 -483.6250 0.2401
6122.5 3.5602 3.4381 3.3102 93.0481 7.8241 -0.0113 0.2650 3.0583 2.5392 -483.8661 0.2462
6123.0 3.5499 3.4172 3.2771 96.2188 7.8018 -0.0104 0.2670 3.0532 2.5300 -483.6250 0.2599
6123.5 3.5502 3.4492 3.2983 97.3511 7.8241 -0.0076 0.2603 3.0483 2.5275 -483.8482 0.2640
6124.0 3.4806 3.4012 3.2613 95.0866 7.8352 -0.0050 0.2489 3.0499 2.5318 -483.7589 0.2563
6124.5 3.4411 3.3222 3.1933 95.0867 7.8241 -0.0052 0.2516 3.0451 2.5320 -483.3359 0.2392
6125.0 3.4465 3.3257 3.1925 98.2566 7.8130 -0.0075 0.2591 3.0305 2.5282 -483.6250 0.2369
6125.5 3.5525 3.3915 3.2591 102.2197 7.8018 -0.0096 0.2635 2.9864 2.5322 -483.3047 0.2437
6126.0 3.6197 3.4936 3.3359 97.2654 7.8352 -0.0084 0.2680 2.9383 2.5453 -483.4464 0.2524
6126.5 3.7403 3.5832 3.4415 91.7458 7.8018 -0.0067 0.2749 2.9130 2.5500 -483.7422 0.2658
6127.0 3.6667 3.6125 3.4698 92.9919 7.8018 -0.0051 0.2845 2.9120 2.5450 -483.3929 0.2712
6127.5 3.5490 3.4425 3.3201 99.9273 7.8241 -0.0054 0.2767 2.9317 2.5317 -483.6250 0.2689
6128.0 3.4944 3.3537 3.2430 100.0125 7.8018 -0.0058 0.2723 2.9291 2.5308 -483.3571 0.2649
6128.5 3.5242 3.4037 3.2883 95.9921 7.8241 -0.0051 0.2688 2.8909 2.5449 -483.1563 0.2670
6129.0 3.5172 3.4302 3.3139 92.2277 7.8130 -0.0059 0.2683 2.8710 2.5531 -483.4107 0.2710
6129.5 3.4338 3.3254 3.2083 99.0781 7.8018 -0.0068 0.2555 2.8833 2.5502 -483.1094 0.2621
6130.0 3.3441 3.2344 3.1192 100.3803 7.8018 -0.0091 0.2598 2.9299 2.5365 -483.5089 0.2486
6130.5 3.3985 3.2608 3.1458 102.1635 7.8018 -0.0063 0.2681 2.9236 2.5437 -483.5313 0.2503
6131.0 3.4358 3.2963 3.1736 103.4652 7.8018 -0.0013 0.2855 2.9064 2.5658 -483.2500 0.2559
6131.5 3.4612 3.3319 3.2023 102.1068 7.8241 0.0015 0.2802 2.8840 2.5808 -483.6484 0.2720
6132.0 3.5015 3.3757 3.2359 101.1158 7.8018 -0.0007 0.2646 2.9115 2.5742 -483.3661 0.2647
6132.5 3.4542 3.3490 3.2206 93.4733 7.8241 -0.0040 0.2618 2.9142 2.5606 -483.3359 0.2564
6133.0 3.4027 3.2897 3.1689 95.2846 7.8241 -0.0070 0.2643 2.9436 2.5414 -483.2768 0.2584
6133.5 3.4067 3.2785 3.1602 96.0773 7.8463 -0.0064 0.2754 2.9396 2.5371 -482.9219 0.2624
6134.0 3.3519 3.2368 3.1236 99.4457 7.8463 -0.0053 0.2737 2.9340 2.5340 -483.0703 0.2683
