~VERSION INFORMATION
VERS.           1.2   :CWLS Log ASCII Standard - VERSION 1.2
WRAP.           NO    :One Line per depth step
PROD.  Schlumberger   :LAS Producer
PROG.  DLIS to ASCII 17C0-152                          :LAS Program name and version
CREA.        2013/10/21 20:50                          :LAS Creation date {YYYY/MM/DD hh:mm}
DLIS_CREA.  2013-Oct-21 08:39                          :DLIS Creation date and time {YYYY-MMM-DD hh:mm}
SOURCE.     9ec8b34d-aca5-43ef-91a8-8c41069c79cd       :DLIS File Name
#--------------------------------------------------
~WELL INFORMATION
#MNEM.UNIT      DATA             DESCRIPTION
#---- ------ --------------   -----------------------------
STRT .F      901.5000        :START DEPTH        # original; data subset to 5500-8000
STOP .F      7746.5000       :STOP DEPTH        # original; data subset to 5500-8000
STEP .F       0.5000         :STEP       
NULL .          -999.25      :NULL VALUE
COMP .                 COMPANY:  Bear Oil and Gas, Inc.             
WELL .                    WELL:  McGahan Farms 32 31                
FLD  .                   FIELD:  Wildcat                            
LOC  .                LOCATION:  SHL: SWNE 2563' FNL & 1423' FEL    
CNTY .                  COUNTY:  Laramie                            
STAT .                   STATE:  Wyoming                            
CTRY .                 COUNTRY:  United States                      
SRVC .         SERVICE COMPANY:  Schlumberger                       
LATI .DEG             LATITUDE:  41.309490 degrees                  
LONG .DEG            LONGITUDE:  -104.12429 degrees                 
API  .              API NUMBER:  49-021-21045                       
DATE .                LOG DATE:  21-Oct-2013
UWI  .          UNIQUE WELL ID:  49021210450000                     
#-----------------------------------------------------------------------------
~PARAMETER INFORMATION
#MNEM.UNIT    VALUE                      DESCRIPTION
#---- -----   --------------------       ------------------------
CN   .        Bear Oil and Gas  Inc.     :Company Name
WN   .        McGahan Farms 32 31        :Well Name
FN   .        Wildcat                    :Field Name
FL   .        SHL  SWNE 2563' FNL & 1423' FEL :Field Location
FL1  .        Section 31  Township 16N  Range 60W :Field Location, Line 1
COUN .        Laramie                    :County or Parish
STAT .        Wyoming                    :State or Province
NATI .        United States              :Nation
DATE .        21-Oct-2013                :Tools Above Rotary Table Date
APIN .        49-021-21045               :API Well Number
SECT .        31                         :Section
TOWN .        16N                        :Township
RANG .        60W                        :Range
DMF  .        KB                         :Drilling Measured From (Name of Drilling Elevation Reference)
LMF  .        KB                         :Logging Measured From (Name of Logging Elevation Reference)
PDAT .        GL                         :Permanent Datum
ENGI .        Max Pace                   :Engineer s Name
WITN .        Terry                      :Witness s Name
LATI .        41.309490 degrees          :Latitude
LONG .        -104.12429 degrees         :Longitude
LUL  .        Fort Morgan  CO            :Logging Unit Location
LUN  .        3022                       :Logging Unit Number
RUN  .        Run 1                      :Run Number
SON  .        CA0R-00056                 :Service Order Number
BHT  .DEGF     166.00000                 :Bottom Hole Temperature
BS   .IN         7.87500                 :Bit Size
MDEN .G/C3       2.65000                 :Matrix Density for Density Porosity
DFD  .LB/G       9.10000                 :Drilling Fluid Density
DFV  .S         63.00000                 :Drilling Fluid Viscosity
DFL  .C3         8.80000                 :Drilling Fluid Loss
RMFS .OHMM       1.24500                 :Resistivity of Mud Filtrate Sample
EKB  .F       5307.00000                 :Elevation of Kelly Bushing
EGL  .F       5295.00000                 :Elevation of Ground Level
BLI  .F       7730.00000                 :Bottom Log Interval
BSAL .PPM        0.00000                 :Borehole Salinity
FLEV .F          8.00000                 :Depth of Drilling Fluid Level to LMF (Log Measured From)
MCST .DEGF      61.00000                 :Mudcake Sample Temperature
MFST .DEGF      61.00000                 :Mud Filtrate Sample Temperature
MRT  .DEGF     166.00000                 :Maximum Recorded Temperature
MST  .DEGF      61.00000                 :Mud Sample Temperature
RMCS .OHMM       2.07500                 :Resistivity of Mud Cake Sample
RMS  .OHMM       1.66000                 :Resistivity of Mud Sample
RW   .OHMM       1.00000                 :Connate Water Resistivity
TDD  .F       7719.99951                 :Driller Total Depth
TDL  .F       7730.00000                 :Logger Total Depth
TLI  .F       1023.75000                 :Top Log Interval
HIDE .        Wildcat                    :Header Identifier
MATR .        SAND                       :Rock Matrix for Neutron Porosity Corrections
FNUM .           1.00000                 :F-Numerator for Formation Factor Formula
FEXP .           2.00000                 :Exponent "m" for Formation Factor Formula
DFT  .        Fresh Water                :Drilling Fluid Type
DFPH .           7.50000                 :Drilling Fluid pH
MCSS .        Calculated                 :Mudcake Sample Source
MFSS .        Calculated                 :Mud Filtrate Sample Source
FD   .G/C3       1.00000                 :Fluid Density
MSS  .        Active Tank                :Mud Sample Source
OS1  .                                   :Other Services Line 1
OS2  .                                   :Other Services Line 2
OS3  .                                   :Other Services Line 3
OS4  .                                   :Other Services Line 4
OS5  .                                   :Other Services Line 5
R1   .        Tool string run as per tool sketch :Remarks Line 1
R2   .        All Schlumberger depth control procedures followed :Remarks Line 2
R3   .        IDW used as primary depth reference :Remarks Line 3
R4   .        Z Chart used as secondary depth reference :Remarks Line 4
R5   .        Matrix Density zoned as per client request :Remarks Line 5
R6   .        Crew  Max Pace  Tyler Riter  Cody Bruns :Remarks Line 6
R7   .                                   :Remarks Line 7
R8   .                                   :Remarks Line 8
TCS  .        19 00 00                   :Time Circulation Stopped
TLAB .        06 35 50                   :Time Logger At Bottom
NMT  .        NOBARITE                   :HRDD Mud Type for Nuclear Devices
EPD  .C3         5295.000000             :Elevation of Permanent Datum above Mean Sea Level
APD  .F          12.000000               :Elevation of Depth Reference (LMF) above Permanent Datum
#-----------------------------------------------------------------------------
~CURVE INFORMATION
#MNEM.UNIT   API CODE                                  DESCRIPTION
#---- -----  --------                                  -----------------------
DEPT .F                                                :DEPTH (BOREHOLE) {F12.4}
AT10 .OHMM                                             :Array Induction Two Foot Resistivity A10 {F11.4}
AT30 .OHMM                                             :Array Induction Two Foot Resistivity A30 {F11.4}
AT90 .OHMM                                             :Array Induction Two Foot Resistivity A90 {F11.4}
DT   .US/F                                             :Delta-T (also called Slowness or Interval Transit Time) {F11.4}
GR   .GAPI                                             :Gamma Ray {F11.4}
HCAL .IN                                               :HRCC Caliper Calibrated {F11.4}
HDRA .G/C3                                             :Density Standoff Correction {F11.4}
NPHI .CFCF                                             :Thermal Neutron Porosity (original Ratio Method) in Selected Lithology {F11.4}
PEFZ .                                                 :Standard Resolution Formation Photoelectric Factor {F11.4}
RHOZ .G/C3                                             :Standard Resolution Formation Density {F11.4}
SP   .MV                                               :Spontaneous Potential {F11.4}
TNPH .CFCF                                             :Thermal Neutron Porosity (Ratio Method) in Selected Lithology {F11.4}
#-----------------------------------------------------------------------------
# 
#      DEPT        AF10       AF20       AF30       AF60       AF90       AO10       AO20       AO30       AO60       AO90       AT10       AT20       AT30       AT60       AT90     AHFCO60      AHMF      AHORT      AHORX      AHSCA     AHTCO10    AHTCO20    AHTCO30    AHTCO60    AHTCO90     AHTD1      AHTD2      AHTRT      AHTRX       CDF        CFTC       CNTC       CTEM       DCAL       DNPH       DPHZ       DSOZ        DT        ECGR        ED        GDEV        GR        GTEM       HCAL       HDRA       HDRB       HGR        HMIN       HMNO       HNPO       HPRA       HTNP       ITT         ND        NPHI       NPOR       PEFZ    PXND_HILT     RHOZ       RSOZ     RWA_HILT     RXO8       RXOZ        SP        SPAR       SPHI       STIT       TENS       TNPH     HTNP_SAN
#
~A  DEPT AT10 AT30 AT90 DT GR HCAL HDRA NPHI PEFZ RHOZ SP TNPH
# ...
6107.5000 3.7723 3.6359 3.4969 84.3268 101.8102 7.4273 -0.0024 0.2682 2.8649 2.5439 188.3036 0.2563
6108.0000 3.7412 3.5464 3.4167 84.1209 99.2402 7.8271 0.0012 0.2747 2.8341 2.5512 188.2083 0.2603
6108.5000 3.8409 3.6887 3.5440 84.0482 101.6875 7.9520 -0.0015 0.2791 2.8715 2.5435 187.8571 0.2569
6109.0000 3.9539 3.7977 3.6386 83.5512 100.7391 7.8770 -0.0061 0.2791 2.8832 2.5374 187.8750 0.2591
6109.5000 3.8449 3.7053 3.5626 83.5539 103.0951 7.8770 -0.0090 0.2693 2.9050 2.5335 188.1667 0.2668
6110.0000 3.7765 3.6338 3.5018 83.4321 102.3610 7.8520 -0.0059 0.2646 2.8689 2.5451 188.1429 0.2649
6110.5000 3.7765 3.6435 3.4955 84.5784 103.2176 7.8520 -0.0033 0.2678 2.8681 2.5447 188.2188 0.2634
6111.0000 3.7347 3.5984 3.4741 84.3205 100.9842 7.8770 -0.0008 0.2804 2.8470 2.5490 188.3438 0.2613
6111.5000 3.6881 3.5470 3.4210 84.2386 96.9148 7.9020 0.0008 0.2824 2.8378 2.5536 188.3214 0.2728
6112.0000 3.7395 3.5689 3.4375 84.5656 96.0587 7.9020 0.0003 0.2748 2.8289 2.5528 188.3542 0.2719
6112.5000 3.7484 3.6008 3.4611 83.8340 100.7088 7.9020 -0.0003 0.2565 2.8312 2.5500 188.4583 0.2666
6113.0000 3.7315 3.5775 3.4484 84.1099 101.5658 7.9020 -0.0041 0.2521 2.9031 2.5307 188.7054 0.2536
6113.5000 3.7132 3.5596 3.4344 83.8475 102.5141 7.9020 -0.0046 0.2631 2.9363 2.5265 188.6979 0.2477
6114.0000 3.7785 3.6258 3.4863 83.5834 103.5236 7.9020 -0.0050 0.2628 2.9528 2.5222 188.3229 0.2528
6114.5000 3.8436 3.7043 3.5420 83.7736 109.3059 7.9020 -0.0050 0.2669 2.9529 2.5207 188.0268 0.2483
6115.0000 3.8001 3.6889 3.5289 83.5267 106.4295 7.9270 -0.0059 0.2521 2.9533 2.5196 188.1042 0.2597
6115.5000 3.8068 3.6508 3.5134 83.5303 102.7283 7.9020 -0.0058 0.2557 2.9404 2.5214 188.3839 0.2521
6116.0000 3.8078 3.6600 3.5129 84.0391 97.5884 7.8770 -0.0026 0.2610 2.8545 2.5353 188.3646 0.2512
6116.5000 3.8392 3.6864 3.5386 83.6648 101.9327 7.9020 -0.0014 0.2567 2.8212 2.5353 188.2813 0.2544
6117.0000 3.8729 3.7037 3.5489 83.6446 100.7090 7.9020 -0.0011 0.2542 2.8026 2.5373 188.0804 0.2461
6117.5000 3.9260 3.7734 3.6187 83.6373 103.4928 7.9520 -0.0010 0.2529 2.8099 2.5432 187.9688 0.2415
6118.0000 3.8917 3.7647 3.6097 83.2398 100.3114 7.9145 -0.0030 0.2619 2.8518 2.5430 188.1250 0.2441
6118.5000 3.8197 3.6870 3.5440 83.3445 103.3091 7.9020 -0.0054 0.2648 2.8879 2.5413 188.3036 0.2526
6119.0000 3.7733 3.6345 3.4966 83.5778 99.4239 7.8770 -0.0084 0.2570 2.9123 2.5348 188.5714 0.2500
6119.5000 3.7166 3.5826 3.4390 84.1780 104.4718 7.8770 -0.0073 0.2636 2.8704 2.5435 188.6771 0.2516
6120.0000 3.6515 3.5377 3.4020 84.4007 108.3262 7.9020 -0.0075 0.2764 2.8940 2.5391 188.5179 0.2562
6120.5000 3.7319 3.5375 3.3969 84.0053 110.2841 7.9020 -0.0058 0.2715 2.9154 2.5395 187.7188 0.2679
6121.0000 3.8140 3.6643 3.5119 84.1367 103.2173 7.8770 -0.0039 0.2683 2.9272 2.5428 187.2292 0.2594
6121.5000 3.7663 3.6345 3.4768 83.8656 96.3650 7.9270 -0.0003 0.2482 2.8906 2.5600 187.6696 0.2604
6122.0000 3.7228 3.5619 3.4116 84.0628 98.5063 7.9145 0.0018 0.2616 2.8388 2.5751 188.0000 0.2489
6122.5000 3.7425 3.5725 3.4300 84.1645 104.2879 7.9520 0.0007 0.2712 2.7999 2.5766 188.1250 0.2550
6123.0000 3.8100 3.6702 3.5033 83.6916 106.7351 7.9270 -0.0034 0.2590 2.8300 2.5609 187.8661 0.2596
6123.5000 3.9169 3.7752 3.6131 83.6866 107.8058 7.9395 -0.0069 0.2636 2.9181 2.5367 188.1667 0.2453
6124.0000 3.8297 3.7223 3.5633 83.3310 107.5919 7.9020 -0.0093 0.2694 2.9978 2.5232 188.5625 0.2528
6124.5000 3.8006 3.6568 3.5093 83.7743 110.5287 7.9020 -0.0079 0.2850 2.9600 2.5288 188.5714 0.2609
6125.0000 3.7605 3.6355 3.4928 84.2123 108.6014 7.9270 -0.0041 0.2801 2.8795 2.5518 188.5625 0.2739
6125.5000 3.7214 3.5824 3.4542 84.3031 106.0317 7.9520 -0.0004 0.2637 2.7959 2.5667 188.7054 0.2678
6126.0000 3.7340 3.5783 3.4537 84.3155 106.2152 8.0020 0.0018 0.2700 2.7784 2.5759 188.6458 0.2574
6126.5000 3.8312 3.6853 3.5576 83.7629 111.5687 7.9270 -0.0005 0.2598 2.7885 2.5691 188.3214 0.2641
6127.0000 3.9544 3.8073 3.6774 83.6119 106.6741 7.9270 -0.0030 0.2609 2.8477 2.5624 188.2292 0.2513
6127.5000 3.9086 3.7680 3.6258 83.4746 103.6762 7.9020 -0.0070 0.2450 2.9451 2.5418 188.5357 0.2513
6128.0000 3.8227 3.6888 3.5538 83.5261 101.9325 7.9020 -0.0072 0.2633 2.9643 2.5373 188.5625 0.2392
6128.5000 3.7978 3.6677 3.5253 84.6263 104.2574 7.9020 -0.0048 0.2601 2.9385 2.5425 188.5982 0.2572
6129.0000 3.7230 3.5861 3.4640 84.6599 102.7584 7.9020 -0.0017 0.2694 2.8726 2.5559 188.9271 0.2492
6129.5000 3.6431 3.5017 3.3641 84.7048 96.6397 7.9020 -0.0025 0.2536 2.8811 2.5534 189.1696 0.2548
6130.0000 3.7473 3.5711 3.4230 84.8147 97.7102 7.9270 -0.0033 0.2475 2.8800 2.5523 189.1146 0.2454
6130.5000 3.7538 3.6142 3.4378 84.2302 97.7106 7.9270 -0.0040 0.2460 2.8788 2.5500 188.9375 0.2414
6131.0000 3.7802 3.6380 3.4789 84.0668 102.1160 7.9270 -0.0015 0.2525 2.8460 2.5578 188.7292 0.2383
6131.5000 3.7134 3.5912 3.4363 84.3654 103.6149 7.9270 -0.0001 0.2626 2.8080 2.5599 188.8214 0.2462
6132.0000 3.6777 3.5207 3.3771 84.2565 101.8096 7.9270 0.0009 0.2752 2.7840 2.5594 189.0104 0.2555
6132.5000 3.6337 3.4926 3.3521 85.1312 96.4870 7.9270 -0.0008 0.2877 2.7866 2.5496 189.1429 0.2693
6133.0000 3.5906 3.4552 3.3187 85.4370 101.4124 7.9270 -0.0029 0.2923 2.8307 2.5380 189.2083 0.2785
6133.5000 3.5843 3.4263 3.3021 85.0308 106.3078 7.9270 -0.0054 0.2795 2.8868 2.5268 189.1696 0.2781
6134.0000 3.7369 3.5756 3.4343 84.2742 107.5925 7.9270 -0.0058 0.2530 2.8941 2.5291 188.9792 0.2673
6134.5000 3.9067 3.7463 3.5737 84.1920 98.7519 7.9020 -0.0057 0.2571 2.8795 2.5361 188.9554 0.2490
6135.0000 3.8196 3.7013 3.5358 82.9844 97.5889 7.9270 -0.0048 0.2669 2.8389 2.5422 189.0729 0.2524
6135.5000 3.7245 3.5663 3.4099 84.1512 102.3003 7.9270 -0.0033 0.2840 2.8009 2.5434 189.0446 0.2555
6136.0000 3.7232 3.5533 3.4045 84.3932 106.9493 7.9520 -0.0014 0.2785 2.7758 2.5440 189.1979 0.2678
6136.5000 3.6896 3.5530 3.3970 84.4091 108.0201 7.9520 0.0023 0.2689 2.7985 2.5557 189.1518 0.2665
6137.0000 3.6221 3.5081 3.3528 84.6895 107.3471 7.9395 0.0034 0.2673 2.8746 2.5623 189.3229 0.2698
6137.5000 3.6009 3.4533 3.3007 84.3591 110.2537 7.9270 0.0044 0.2682 2.9312 2.5670 189.2857 0.2657
6138.0000 3.6631 3.5175 3.3588 84.5814 108.5402 7.9770 0.0020 0.2763 2.9449 2.5546 189.1771 0.2604
6138.5000 3.6907 3.5552 3.3963 84.4153 108.5401 7.9270 -0.0001 0.2645 2.9307 2.5422 189.1607 0.2660
6139.0000 3.6789 3.5192 3.3704 84.3653 104.4713 7.9270 -0.0024 0.2694 2.9344 2.5319 189.3333 0.2557
6139.5000 3.6858 3.5073 3.3639 84.6488 108.3260 7.9270 -0.0041 0.2700 2.9752 2.5225 189.1518 0.2610
6140.0000 3.7593 3.5975 3.4441 84.4425 106.8578 7.9020 -0.0046 0.2846 2.9853 2.5184 189.1979 0.2580
6140.5000 3.8149 3.6689 3.5143 83.8716 103.4317 7.9270 -0.0068 0.2742 2.9763 2.5122 189.0268 0.2722
6141.0000 3.8595 3.7254 3.5710 84.0555 99.4238 7.9270 -0.0074 0.2616 2.9235 2.5156 189.0000 0.2632
6141.5000 3.8051 3.6729 3.5209 83.9948 95.3549 7.9520 -0.0076 0.2557 2.8854 2.5167 188.8125 0.2563
6142.0000 3.7795 3.6341 3.4837 84.3847 91.5005 7.9520 -0.0039 0.2493 2.8335 2.5269 188.7917 0.2493
6142.5000 3.7319 3.6076 3.4611 85.2079 96.1507 7.9270 -0.0009 0.2574 2.7746 2.5359 188.6161 0.2433
6143.0000 3.8105 3.6370 3.4899 84.0839 97.4356 7.9270 0.0002 0.2439 2.7352 2.5439 188.6146 0.2524
6143.5000 3.9298 3.8097 3.6356 83.5421 105.1449 7.9270 -0.0016 0.2505 2.7625 2.5403 188.6042 0.2384
6144.0000 4.0090 3.8845 3.7254 83.5273 99.7608 7.9520 -0.0023 0.2595 2.8164 2.5361 188.6786 0.2411
6144.5000 3.8113 3.7238 3.5813 82.9075 107.0418 7.9520 -0.0005 0.2697 2.8914 2.5347 188.9063 0.2449
6145.0000 3.7552 3.6307 3.5067 84.2376 100.6169 7.9895 0.0026 0.2698 2.9344 2.5363 188.7411 0.2588
6145.5000 3.6465 3.5393 3.4130 85.1276 99.3933 7.9770 0.0054 0.2603 2.9555 2.5369 188.9063 0.2663
6146.0000 3.6442 3.5285 3.4103 84.7848 94.2535 8.0020 0.0126 0.2656 2.9644 2.5486 189.0446 0.2609
6146.5000 3.7891 3.6404 3.5132 84.4641 99.9438 7.9770 0.0146 0.2612 2.9242 2.5597 189.1146 0.2632
6147.0000 3.9436 3.7766 3.6467 83.7021 104.8384 7.9520 0.0134 0.2694 2.8398 2.5678 188.9732 0.2539
6147.5000 3.8829 3.8136 3.6795 83.6207 109.7642 7.9520 0.0073 0.2767 2.7760 2.5629 189.0446 0.2583
