~VERSION INFORMATION
VERS.           2.0   :CWLS Log ASCII Standard - VERSION 2.0
WRAP.           NO    :One Line per depth step
PROD.  Schlumberger   :LAS Producer
PROG.  DLIS to ASCII 19C2-270                          :LAS Program name and version
CREA.        2013/09/21 19:52                          :LAS Creation date {YYYY/MM/DD hh:mm}
DLIS_CREA.  2013-Sep-21 19:47                          :DLIS Creation date and time {YYYY-MMM-DD hh:mm}
SOURCE.     49-021-21035_McGahan Farms 42-31_Run_PEX_Mainpass.dlis  :DLIS File Name
FILE-ID.     MaxWell_3Dlis                             :File Identification Number
#--------------------------------------------------
~WELL INFORMATION
#MNEM.UNIT      DATA             DESCRIPTION
#---- ------ --------------   -----------------------------
STRT .F      1000.5          :START DEPTH        # original; data subset to 5500-8000
STOP .F      7716.5          :STOP DEPTH        # original; data subset to 5500-8000
STEP .F       0.5            :STEP     
NULL .          -999.25      :NULL VALUE
COMP .        Bear Oil & Gas, Inc                      :COMPANY
WELL .        McGahan Farms 42-31                      :WELL
FLD  .        Wildcat                                  :FIELD
LOC  .        Lat/Long: 41.3098/-104.1197              :LOCATION
CNTY .        Laramie                                  :COUNTY
STAT .        Wyoming                                  :STATE
CTRY .        USA                                      :COUNTRY
API  .        49-021-21035                             :API NUMBER
UWI  .        49021210350000                           :UNIQUE WELL ID
DATE .        21-Sep-2013                              :LOG DATE {DD-MMM-YYYY}
SRVC .        Schlumberger                             :SERVICE COMPANY
LATI .DEG     41.309800 degrees                        :LATITUDE
LONG .DEG     -104.11970 degrees                       :LONGITUDE
GDAT .                                                 :GeoDetic Datum
SECT .        31                                       :Section
RANG .        60W                                      :Range
TOWN .        16N                                      :Township
#-----------------------------------------------------------------------------
~PARAMETER INFORMATION
#MNEM.UNIT    VALUE                      DESCRIPTION
#---- -----   --------------------       ------------------------
CN   .        Bear Oil & Gas  Inc        :Company Name
WN   .        McGahan Farms 42-31        :Well Name
FN   .        Wildcat                    :Field Name
FL   .        Lat/Long  41.3098/-104.1197 :Field Location
FL1  .        SHL   2375' FNL X 190' FEL SENE :Field Location, Line 1
COUN .        Laramie                    :County or Parish
STAT .        Wyoming                    :State or Province
NATI .        USA                        :Nation
DATE .        21-Sep-2013                :Tools Above Rotary Table Date
APIN .        49-021-21035               :API Well Number
SECT .        31                         :Section
TOWN .        16N                        :Township
RANG .        60W                        :Range
DMF  .        KB                         :Drilling Measured From (Name of Drilling Elevation Reference)
LMF  .        KB                         :Logging Measured From (Name of Logging Elevation Reference)
PDAT .        GL                         :Permanent Datum
ENGI .        Arvin Shi                  :Engineer s Name
WITN .        Terry Eittreim             :Witness s Name
LATI .        41.309800 degrees          :Latitude
LONG .        -104.11970 degrees         :Longitude
LUL  .        Fort Morgan                :Logging Unit Location
LUN  .        3022                       :Logging Unit Number
RUN  .        Run 1                      :Run Number
SON  .        C6VJ-00079                 :Service Order Number
BHT  .DEGF     175.00000                 :Bottom Hole Temperature
BS   .IN         7.87500                 :Bit Size
MDEN .G/C3       2.65000                 :Matrix Density for Density Porosity
DFD  .LB/G       9.20000                 :Drilling Fluid Density
DFV  .S         80.00000                 :Drilling Fluid Viscosity
DFL  .C3      -999.25000                 :Drilling Fluid Loss
RMFS .OHMM       0.96000                 :Resistivity of Mud Filtrate Sample
EKB  .F       5307.00000                 :Elevation of Kelly Bushing
EGL  .F       5295.00000                 :Elevation of Ground Level
BLI  .F       7700.00000                 :Bottom Log Interval
BSAL .PPM     3275.14868                 :Borehole Salinity
FLEV .F          8.00000                 :Depth of Drilling Fluid Level to LMF (Log Measured From)
MCST .DEGF      98.00000                 :Mudcake Sample Temperature
MFST .DEGF      98.00000                 :Mud Filtrate Sample Temperature
MRT  .DEGF     175.00000                 :Maximum Recorded Temperature
MST  .DEGF      98.00000                 :Mud Sample Temperature
RMCS .OHMM       1.60000                 :Resistivity of Mud Cake Sample
RMS  .OHMM       1.28000                 :Resistivity of Mud Sample
RW   .OHMM       1.00000                 :Connate Water Resistivity
TDD  .F       7697.00000                 :Driller Total Depth
TDL  .F       7700.00000                 :Logger Total Depth
TLI  .F       1018.00000                 :Top Log Interval
HIDE .        Wildcat                    :Header Identifier
MATR .        SAND                       :Rock Matrix for Neutron Porosity Corrections
FNUM .           1.00000                 :F-Numerator for Formation Factor Formula
FEXP .           2.00000                 :Exponent "m" for Formation Factor Formula
DFT  .        Chemical Gel               :Drilling Fluid Type
DFPH .        -999.25000                 :Drilling Fluid pH
MCSS .        Calculated                 :Mudcake Sample Source
MFSS .        Calculated                 :Mud Filtrate Sample Source
FD   .G/C3       1.00000                 :Fluid Density
MSS  .        Flowline                   :Mud Sample Source
OS1  .                                   :Other Services Line 1
OS2  .                                   :Other Services Line 2
OS3  .                                   :Other Services Line 3
OS4  .                                   :Other Services Line 4
OS5  .                                   :Other Services Line 5
R1   .                                   :Remarks Line 1
R2   .                                   :Remarks Line 2
R3   .                                   :Remarks Line 3
R4   .                                   :Remarks Line 4
R5   .                                   :Remarks Line 5
R6   .                                   :Remarks Line 6
R7   .                                   :Remarks Line 7
R8   .                                   :Remarks Line 8
TCS  .        11 00 00                   :Time Circulation Stopped
TLAB .        17 20 49                   :Time Logger At Bottom
NMT  .        NOBARITE                   :HRDD Mud Type for Nuclear Devices
EPD  .C3         5295.000000             :Elevation of Permanent Datum above Mean Sea Level
APD  .F          12.000000               :Elevation of Depth Reference (LMF) above Permanent Datum
#-----------------------------------------------------------------------------
~CURVE INFORMATION
#MNEM.UNIT   API CODE                                  DESCRIPTION
#---- -----  --------                                  -----------------------
DEPT .F                                                :DEPTH (BOREHOLE) {F10.1}
AT10 .OHMM                                             :Array Induction Two Foot Resistivity A10 {F11.4}
AT30 .OHMM                                             :Array Induction Two Foot Resistivity A30 {F11.4}
AT90 .OHMM                                             :Array Induction Two Foot Resistivity A90 {F11.4}
GR   .GAPI                                             :Gamma Ray {F11.4}
HCAL .IN                                               :HRCC Caliper Calibrated {F11.4}
HDRA .G/C3                                             :Density Standoff Correction {F11.4}
NPHI .CFCF                                             :Thermal Neutron Porosity (original Ratio Method) in Selected Lithology {F11.4}
PEFZ .                                                 :Standard Resolution Formation Photoelectric Factor {F11.4}
RHOZ .G/C3                                             :Standard Resolution Formation Density {F11.4}
SP   .MV                                               :Spontaneous Potential {F11.4}
TNPH .CFCF                                             :Thermal Neutron Porosity (Ratio Method) in Selected Lithology {F11.4}
#-----------------------------------------------------------------------------
# 
#     DEPT       AF10       AF20       AF30       AF60       AF90       AO10       AO20       AO30       AO60       AO90       AT10       AT20       AT30       AT60       AT90     AHFCO60      AHMF      AHORT      AHORX      AHSCA     AHTCO10    AHTCO20    AHTCO30    AHTCO60    AHTCO90     AHTD1      AHTD2      AHTRT      AHTRX       CDF        CFTC       CNTC       CTEM       DCAL       DNPH       DPHZ       DSOZ       ECGR        ED        GDEV        GR        GTEM       HCAL       HDRA       HDRB       HGR        HMIN       HMNO       HNPO       HPRA       HTNP        ND        NPHI       NPOR       PEFZ    PXND_HILT     RHOZ       RSOZ     RWA_HILT     RXO8       RXOZ        SP        SPAR       STIT       TENS       TNPH     HTNP_SAN
#
~A  DEPT AT10 AT30 AT90 GR HCAL HDRA NPHI PEFZ RHOZ SP TNPH
# ...
7529.0 2.1111 1.8883 1.7929 130.2962 7.8512 0.0088 0.3240 2.6164 2.3887 -326.1484 0.3105
7529.5 2.1153 1.8978 1.8461 133.1583 7.9722 0.0120 0.3223 2.5481 2.3997 -326.0536 0.2983
7530.0 2.5540 2.2142 2.0924 132.4782 8.0161 0.0085 0.2929 2.5033 2.4139 -326.0313 0.2889
7530.5 3.0068 2.6111 2.3976 119.1874 8.0711 0.0066 0.2699 2.5015 2.4277 -326.0268 0.2754
7531.0 3.1902 2.7347 2.4423 119.8679 8.0381 0.0030 0.2580 2.5784 2.4309 -325.9018 0.2716
7531.5 3.0896 2.6810 2.4148 115.5607 8.0601 0.0044 0.2700 2.6249 2.4387 -326.0859 0.2640
7532.0 3.0201 2.6590 2.3956 121.9088 8.0161 -0.0015 0.2750 2.6166 2.4356 -326.4554 0.2692
7532.5 3.0312 2.6571 2.3832 124.4018 7.9502 -0.0011 0.2682 2.5700 2.4371 -326.6719 0.2661
7533.0 2.7884 2.4633 2.1939 126.4422 7.9722 0.0073 0.2563 2.5193 2.4493 -327.0000 0.2548
7533.5 2.5156 2.1967 1.9550 124.9122 7.8622 0.0120 0.2604 2.4702 2.4264 -327.2768 0.2536
7534.0 1.9511 1.8790 1.7262 147.6392 7.8402 0.0316 0.3233 2.4128 2.4057 -327.2500 0.2707
7534.5 1.5690 1.6212 1.5130 170.5364 7.8842 0.0507 0.3275 2.3674 2.3940 -327.2411 0.3229
7535.0 1.7927 1.6904 1.5689 185.7531 8.1151 0.0810 0.3052 2.3681 2.4315 -327.3984 0.3053
7535.5 2.2695 2.1438 1.9669 166.2006 8.0161 0.0989 0.2449 2.3887 2.4514 -327.7857 0.2692
7536.0 2.0732 2.0323 1.8957 159.3994 7.8952 0.1097 0.2703 2.3874 2.4607 -328.0089 0.2427
7536.5 1.9013 1.8099 1.6733 170.9051 8.0601 0.0903 0.3032 2.3535 2.4462 -328.0625 0.2606
7537.0 2.5153 2.1837 2.1003 177.7057 7.8842 0.0656 0.3155 2.3322 2.4947 -327.9609 0.2693
7537.5 3.8823 3.5530 3.4043 157.2456 7.8732 0.0311 0.2665 2.3549 2.5380 -328.0804 0.2528
7538.0 6.7840 6.3546 6.7745 103.9991 7.8402 0.0240 0.1986 2.4121 2.6035 -328.5625 0.1970
7538.5 10.2662 9.0821 8.1260 64.5531 7.8402 0.0365 0.1277 2.4850 2.5817 -327.5804 0.1448
7539.0 8.6856 7.0422 7.1477 44.9152 7.8402 0.0839 0.1161 2.5352 2.5081 -325.8516 0.1234
7539.5 3.8760 4.2583 4.1543 61.4645 7.8402 0.1461 0.1949 2.5526 2.4295 -324.6607 0.1500
7540.0 2.6974 2.5859 2.6716 81.1307 7.9941 0.1886 0.2959 2.5395 2.4298 -324.0268 0.2399
7540.5 2.0785 2.0125 1.9666 101.3637 8.0381 0.1885 0.3526 2.5637 2.4883 -323.9453 0.3316
7541.0 2.2031 2.0102 1.9448 109.7519 7.8842 0.1681 0.3348 2.6310 2.5406 -324.4107 0.3447
7541.5 2.1924 2.1216 2.0257 119.4715 8.3019 0.1473 0.3060 2.6945 2.5464 -325.3594 0.3174
7542.0 2.5016 2.5772 2.4111 115.9859 7.9612 0.1390 0.3030 2.7098 2.5425 -328.1071 0.3068
7542.5 3.5247 3.3945 3.0847 109.4112 7.3785 0.1198 0.2936 2.6550 2.5424 -334.2411 0.2813
7543.0 5.9282 5.2619 4.4674 87.7899 7.7963 0.0854 0.2519 2.5304 2.5310 -343.3906 0.2352
7543.5 13.0038 9.1218 7.1830 76.5968 7.5544 0.0432 0.2139 2.3644 2.5055 -348.6071 0.1898
7544.0 19.1714 12.0463 9.1936 59.1408 7.7853 0.0133 0.1675 2.1929 2.4861 -351.1339 0.1594
7544.5 23.1243 18.0474 13.2269 50.6110 7.5544 0.0013 0.1331 2.1003 2.5001 -355.2266 0.1302
7545.0 43.4745 31.2295 26.5515 35.9604 7.5984 0.0095 0.1142 2.0830 2.5263 -358.3929 0.1060
7545.5 55.6407 46.5882 31.7037 28.4792 7.4885 0.0111 0.1095 2.0866 2.5288 -361.2946 0.1002
7546.0 44.4595 51.9492 37.8744 26.2974 7.4665 0.0102 0.1077 2.0429 2.5040 -364.3594 0.0977
7546.5 33.3325 42.1336 38.0052 25.1638 7.4555 0.0036 0.0963 1.9185 2.4879 -366.5446 0.0962
7547.0 26.8859 30.1396 30.2191 26.8640 7.4225 0.0017 0.0975 1.8110 2.4800 -368.0547 0.0947
7547.5 20.8712 26.7562 26.6964 29.8111 7.4665 0.0028 0.1098 1.7662 2.4727 -369.1429 0.1095
7548.0 19.5658 22.8632 22.6604 33.4384 7.5984 0.0170 0.1318 1.8145 2.4443 -369.7321 0.1308
7548.5 18.8903 20.2471 20.0487 34.0335 7.8073 0.0472 0.1568 1.8833 2.4208 -369.2422 0.1474
7549.0 18.9933 18.7556 20.7538 32.4466 7.8842 0.0817 0.1754 1.9147 2.4265 -368.3036 0.1519
7549.5 21.4613 20.6318 19.8680 30.7181 7.9502 0.0819 0.1758 1.9000 2.4369 -367.2891 0.1516
7550.0 22.8195 23.1416 20.5021 31.3697 7.9722 0.0536 0.1598 1.8647 2.4425 -365.6429 0.1525
7550.5 23.3171 23.2889 23.0411 31.3697 7.6644 0.0187 0.1459 1.8434 2.4307 -363.2411 0.1498
7551.0 22.1478 21.5127 21.9278 32.3615 7.6424 0.0076 0.1514 1.8625 2.4266 -359.7768 0.1459
7551.5 20.1356 16.1186 16.7682 36.2721 7.6424 0.0131 0.1537 1.9092 2.4267 -356.6250 0.1539
7552.0 14.3140 12.5244 11.9911 41.9399 7.7413 0.0230 0.1658 1.9954 2.4376 -351.2857 0.1670
7552.5 8.1389 8.2947 8.0713 51.9713 7.8183 0.0261 0.1982 2.1407 2.4337 -344.5078 0.1897
7553.0 5.7819 5.5334 5.0063 65.8571 7.8622 0.0383 0.2356 2.3381 2.4441 -338.7232 0.2169
7553.5 6.9401 5.3278 4.7390 71.9775 7.8842 0.0556 0.2638 2.4835 2.4642 -337.9464 0.2374
7554.0 9.3564 8.5385 6.5454 70.1640 7.8842 0.0581 0.2509 2.4903 2.4806 -339.4531 0.2347
7554.5 20.9818 18.0731 10.6245 53.5012 7.8622 0.0367 0.2380 2.3820 2.4809 -338.2768 0.2182
7555.0 18.7028 18.4740 11.6439 47.3807 7.8842 0.0088 0.1999 2.2540 2.4439 -335.8359 0.2128
7555.5 12.8942 14.7966 9.3740 52.0563 7.9282 0.0135 0.1673 2.2050 2.4165 -332.6875 0.1854
7556.0 5.3512 5.4275 4.0138 82.4340 7.8842 0.0476 0.1796 2.2716 2.4034 -328.4643 0.1936
7556.5 3.0497 2.9234 2.6251 114.0870 8.1920 0.0994 0.2378 2.4393 2.4269 -326.0391 0.2348
7557.0 2.3601 2.2571 2.2532 139.5626 8.1480 0.1444 0.3247 2.6258 2.4797 -325.3828 0.3058
7557.5 2.3379 2.3697 2.3204 133.6688 8.3019 0.1661 0.3497 2.7418 2.5155 -325.1875 0.3397
7558.0 2.6424 2.5768 2.6192 124.9410 8.3679 0.1662 0.3426 2.7825 2.5240 -325.0781 0.3185
7558.5 2.8446 2.8782 2.9380 119.7264 8.0821 0.1652 0.3054 2.8076 2.5256 -324.9911 0.3118
7559.0 2.7913 2.7616 2.7958 125.7907 8.0161 0.1763 0.3009 2.8553 2.5299 -325.3047 0.2954
7559.5 2.6067 2.5207 2.5199 134.6036 8.1261 0.1989 0.2970 2.8932 2.5359 -325.8929 0.3159
7560.0 2.4394 2.3473 2.3467 136.4175 7.9941 0.2130 0.3090 2.8445 2.5216 -326.0536 0.3166
7560.5 2.3447 2.1191 2.0505 139.3924 7.9941 0.2197 0.3132 2.7440 2.5169 -326.3750 0.2981
7561.0 2.4744 2.3260 2.2253 130.7777 8.0601 0.2082 0.3153 2.6561 2.5071 -327.2109 0.2775
7561.5 2.7390 2.7670 2.5774 126.2438 8.0161 0.1899 0.3135 2.6179 2.5151 -328.1786 0.2644
7562.0 3.4791 3.4245 3.1254 121.2851 7.9831 0.1545 0.2861 2.6380 2.5343 -329.2500 0.2510
7562.5 4.6622 4.7827 4.2428 114.9375 7.7523 0.0983 0.2315 2.6768 2.5387 -330.9018 0.2130
7563.0 8.9526 6.9148 5.8380 99.0683 8.0161 0.0438 0.1571 2.7009 2.5414 -333.7946 0.1624
7563.5 16.8885 9.6784 8.0240 72.2890 8.0161 0.0063 0.1210 2.6121 2.5258 -336.6172 0.1277
7564.0 16.4161 10.0836 8.4587 53.4729 8.0491 -0.0010 0.1203 2.4608 2.5393 -337.4196 0.1240
7564.5 11.2467 8.8752 8.0003 57.1571 7.9062 -0.0035 0.1534 2.3607 2.5484 -337.0313 0.1358
7565.0 10.1270 9.1035 8.1256 77.8152 7.9502 -0.0037 0.1743 2.3403 2.5701 -336.8750 0.1621
7565.5 10.1903 11.4126 10.3089 100.4850 7.9502 -0.0013 0.1789 2.3600 2.5904 -337.8359 0.1696
7566.0 14.0720 16.5968 14.6403 100.4848 7.9502 0.0131 0.1682 2.3395 2.6147 -339.8214 0.1665
7566.5 17.0486 22.0354 18.6511 89.8300 7.9282 0.0156 0.1577 2.3077 2.6022 -342.8672 0.1583
7567.0 18.4254 20.2198 16.1216 78.4386 7.8622 0.0153 0.1613 2.3253 2.5934 -346.2589 0.1536
7567.5 22.6318 21.2348 16.8315 71.1275 7.8512 -0.0044 0.1516 2.4564 2.5815 -349.0703 0.1505
7568.0 30.9138 32.4973 21.7010 56.1652 7.8842 -0.0050 0.1381 2.6386 2.5867 -352.9821 0.1328
7568.5 61.9257 49.2512 31.5094 36.9238 7.8183 -0.0060 0.1275 2.7111 2.5573 -355.9554 0.1234
7569.0 103.7395 71.6114 46.2517 20.3749 7.7853 0.0015 0.1223 2.5373 2.4990 -359.0703 0.1183
7569.5 99.9823 107.7729 75.4097 16.2943 7.7523 0.0018 0.1181 2.2471 2.4398 -362.9375 0.1125
7570.0 93.3376 160.9325 129.2091 15.5008 7.7523 0.0114 0.1141 2.0180 2.4145 -365.7188 0.1087
7570.5 93.2259 209.6409 200.9313 15.0474 7.7743 0.0221 0.1150 1.9227 2.4097 -367.7500 0.1091
7571.0 94.4100 184.6931 232.3793 16.4076 7.7743 0.0276 0.1146 1.9033 2.4071 -368.8125 0.1115
7571.5 93.8797 148.9322 214.2208 15.6142 7.7523 0.0284 0.1143 1.8926 2.4103 -369.7500 0.1127
7572.0 92.5919 133.4039 139.1715 19.0146 7.7083 0.0311 0.1139 1.9009 2.4215 -370.2656 0.1132
7572.5 91.3673 119.0982 116.7850 21.2816 7.7083 0.0309 0.1190 1.9065 2.4355 -371.1518 0.1098
7573.0 92.3099 105.6569 96.1460 23.4635 7.6863 0.0304 0.1222 1.9103 2.4385 -373.5781 0.1124
