~VERSION INFORMATION
VERS.           1.2   :CWLS Log ASCII Standard - VERSION 1.2
WRAP.           NO    :One Line per depth step
PROD.  Schlumberger   :LAS Producer
PROG.  DLIS to ASCII 17C0-152                          :LAS Program name and version
CREA.        2013/08/16 09:04                          :LAS Creation date {YYYY/MM/DD hh:mm}
DLIS_CREA.  2013-Aug-16 00:16                          :DLIS Creation date and time {YYYY-MMM-DD hh:mm}
SOURCE.     960568ea-4174-41e0-a405-0f32a02141a6       :DLIS File Name
#--------------------------------------------------
~WELL INFORMATION
#MNEM.UNIT      DATA             DESCRIPTION
#---- ------ --------------   -----------------------------
STRT .F      457.0000        :START DEPTH        # original; data subset to 5500-8000
STOP .F      7701.0000       :STOP DEPTH        # original; data subset to 5500-8000
STEP .F       0.5000         :STEP       
NULL .          -999.25      :NULL VALUE
COMP .                 COMPANY:  Bear Oil & Gas, Inc.               
WELL .                    WELL:  Fornstrom 13-32A                   
FLD  .                   FIELD:  Wildcat                            
LOC  .                LOCATION:  SHL: NWSW 1925' FSL & 540" FWL     
CNTY .                  COUNTY:  Laramie                            
STAT .                   STATE:  Wyoming                            
CTRY .                 COUNTRY:  United States                      
SRVC .         SERVICE COMPANY:  Schlumberger                       
LATI .DEG             LATITUDE:  41.307320 degrees                  
LONG .DEG            LONGITUDE:  -104.11715 degrees                 
API  .              API NUMBER:  49-021-21022                       
DATE .                LOG DATE:  15-Aug-2013
UWI  .          UNIQUE WELL ID:  49021210220000                     
#-----------------------------------------------------------------------------
~PARAMETER INFORMATION
#MNEM.UNIT    VALUE                      DESCRIPTION
#---- -----   --------------------       ------------------------
CN   .        Bear Oil & Gas  Inc.       :Company Name
WN   .        Fornstrom 13-32A           :Well Name
FN   .        Wildcat                    :Field Name
FL   .        SHL  NWSW 1925' FSL & 540  FWL :Field Location
FL1  .        Sec. 32  T. 16N  R. 60W    :Field Location, Line 1
COUN .        Laramie                    :County or Parish
STAT .        Wyoming                    :State or Province
NATI .        United States              :Nation
DATE .        15-Aug-2013                :Tools Above Rotary Table Date
APIN .        49-021-21022               :API Well Number
SECT .        32                         :Section
TOWN .        16N                        :Township
RANG .        60W                        :Range
DMF  .        KB                         :Drilling Measured From (Name of Drilling Elevation Reference)
LMF  .        KB                         :Logging Measured From (Name of Logging Elevation Reference)
PDAT .        GL                         :Permanent Datum
ENGI .        Max Pace                   :Engineer s Name
WITN .        Tery Eittreim              :Witness s Name
LATI .        41.307320 degrees          :Latitude
LONG .        -104.11715 degrees         :Longitude
LUL  .        Fort Morgan  CO            :Logging Unit Location
LUN  .        3030                       :Logging Unit Number
RUN  .        Run 1                      :Run Number
SON  .        CA0R-00040                 :Service Order Number
BHT  .DEGF     168.00000                 :Bottom Hole Temperature
BS   .IN         7.87500                 :Bit Size
MDEN .G/C3       2.65000                 :Matrix Density for Density Porosity
DFD  .LB/G       8.80000                 :Drilling Fluid Density
DFV  .S         36.00000                 :Drilling Fluid Viscosity
DFL  .C3         5.00000                 :Drilling Fluid Loss
RMFS .OHMM       1.11000                 :Resistivity of Mud Filtrate Sample
EKB  .F       5298.00000                 :Elevation of Kelly Bushing
EGL  .F       5286.00000                 :Elevation of Ground Level
BLI  .F       7687.00000                 :Bottom Log Interval
BSAL .PPM     3295.90967                 :Borehole Salinity
FLEV .F          8.00000                 :Depth of Drilling Fluid Level to LMF (Log Measured From)
MCST .DEGF      84.00000                 :Mudcake Sample Temperature
MFST .DEGF      84.00000                 :Mud Filtrate Sample Temperature
MRT  .DEGF     168.00000                 :Maximum Recorded Temperature
MST  .DEGF      84.00000                 :Mud Sample Temperature
RMCS .OHMM       1.85000                 :Resistivity of Mud Cake Sample
RMS  .OHMM       1.48000                 :Resistivity of Mud Sample
RW   .OHMM       1.00000                 :Connate Water Resistivity
TDD  .F       7680.00000                 :Driller Total Depth
TDL  .F       7687.00000                 :Logger Total Depth
TLI  .F       1026.25000                 :Top Log Interval
HIDE .        Wildcat                    :Header Identifier
MATR .        SAND                       :Rock Matrix for Neutron Porosity Corrections
FNUM .           1.00000                 :F-Numerator for Formation Factor Formula
FEXP .           2.00000                 :Exponent "m" for Formation Factor Formula
DFT  .        Fresh Water                :Drilling Fluid Type
DFPH .           8.50000                 :Drilling Fluid pH
MCSS .        Calculated                 :Mudcake Sample Source
MFSS .        Calculated                 :Mud Filtrate Sample Source
FD   .G/C3       1.00000                 :Fluid Density
MSS  .        Active Tank                :Mud Sample Source
OS1  .                                   :Other Services Line 1
OS2  .                                   :Other Services Line 2
OS3  .                                   :Other Services Line 3
OS4  .                                   :Other Services Line 4
OS5  .                                   :Other Services Line 5
R1   .                                   :Remarks Line 1
R2   .                                   :Remarks Line 2
R3   .                                   :Remarks Line 3
R4   .                                   :Remarks Line 4
R5   .                                   :Remarks Line 5
R6   .                                   :Remarks Line 6
R7   .                                   :Remarks Line 7
R8   .                                   :Remarks Line 8
TCS  .        14 00 00                   :Time Circulation Stopped
TLAB .        22 20 59                   :Time Logger At Bottom
NMT  .        NOBARITE                   :HRDD Mud Type for Nuclear Devices
EPD  .F         5286.000000              :Elevation of Permanent Datum above Mean Sea Level
APD  .F          12.000000               :Elevation of Depth Reference (LMF) above Permanent Datum
#-----------------------------------------------------------------------------
~CURVE INFORMATION
#MNEM.UNIT   API CODE                                  DESCRIPTION
#---- -----  --------                                  -----------------------
DEPT .F                                                :DEPTH (BOREHOLE) {F12.4}
AT10 .OHMM                                             :Array Induction Two Foot Resistivity A10 {F11.4}
AT30 .OHMM                                             :Array Induction Two Foot Resistivity A30 {F11.4}
AT90 .OHMM                                             :Array Induction Two Foot Resistivity A90 {F11.4}
GR   .GAPI                                             :Gamma Ray {F11.4}
HCAL .IN                                               :HRCC Caliper Calibrated {F11.4}
HDRA .G/C3                                             :Density Standoff Correction {F11.4}
NPHI .CFCF                                             :Thermal Neutron Porosity (original Ratio Method) in Selected Lithology {F11.4}
PEFZ .                                                 :Standard Resolution Formation Photoelectric Factor {F11.4}
RHOZ .G/C3                                             :Standard Resolution Formation Density {F11.4}
SP   .MV                                               :Spontaneous Potential {F11.4}
TNPH .CFCF                                             :Thermal Neutron Porosity (Ratio Method) in Selected Lithology {F11.4}
#-----------------------------------------------------------------------------
# 
#      DEPT        AF10       AF20       AF30       AF60       AF90       AO10       AO20       AO30       AO60       AO90       AT10       AT20       AT30       AT60       AT90     AHFCO60      AHMF      AHORT      AHORX      AHSCA     AHTCO10    AHTCO20    AHTCO30    AHTCO60    AHTCO90     AHTD1      AHTD2      AHTRT      AHTRX       CDF        CFTC       CNTC       CTEM       DCAL       DNPH       DPHZ       DSOZ       ECGR        ED        GDEV        GR        GTEM       HCAL       HDRA       HDRB       HGR        HMIN       HMNO       HNPO       HPRA       HTNP        ND        NPHI       NPOR       PEFZ    PXND_HILT     RHOZ       RSOZ     RWA_HILT     RXO8       RXOZ        SP        SPAR       STIT       TENS       TNPH     HTNP_SAN
#
~A  DEPT AT10 AT30 AT90 GR HCAL HDRA NPHI PEFZ RHOZ SP TNPH
# ...
6788.5000 5.6827 5.3808 5.0283 118.7952 7.6680 -0.0032 0.2233 3.7414 2.5308 58.4688 0.2107
6789.0000 5.0845 4.8007 4.5723 122.0653 7.6680 -0.0055 0.2105 3.7195 2.5378 58.4107 0.2018
6789.5000 4.5776 4.3527 4.1089 137.9639 7.6680 -0.0069 0.2444 3.7110 2.5412 58.5469 0.1902
6790.0000 4.7526 4.4674 4.2217 131.8467 7.6911 -0.0058 0.2535 3.7333 2.5310 58.6429 0.2222
6790.5000 5.6223 5.0371 4.7074 128.5765 7.6680 -0.0055 0.2691 3.7905 2.5157 58.3594 0.2278
6791.0000 6.4200 5.9226 5.4059 120.0972 7.6449 -0.0045 0.2619 3.8445 2.5016 57.9375 0.2455
6791.5000 7.4398 6.8085 6.2171 122.5808 7.6449 -0.0059 0.2618 3.8841 2.4947 57.7109 0.2445
6792.0000 7.4899 6.8748 6.3169 119.2804 7.6449 -0.0044 0.2630 3.8779 2.4966 57.4732 0.2444
6792.5000 7.3627 6.7788 6.2776 114.1927 7.6680 -0.0007 0.2546 3.8685 2.5126 57.4219 0.2455
6793.0000 7.1654 6.6611 6.2233 111.7092 7.6449 -0.0012 0.2604 3.8594 2.5170 57.4911 0.2333
6793.5000 6.9931 6.5341 6.1120 109.9225 7.6680 -0.0040 0.2440 3.9090 2.5142 57.3672 0.2388
6794.0000 6.8908 6.5129 6.1107 112.6778 7.6680 -0.0087 0.2231 3.9476 2.5048 57.3661 0.2256
6794.5000 6.6925 6.3121 5.9319 116.8568 7.6449 -0.0097 0.2096 3.9807 2.5076 57.5703 0.1987
6795.0000 6.4915 6.0949 5.7412 115.2517 7.6449 -0.0086 0.2149 3.9388 2.5118 57.8125 0.1953
6795.5000 6.5519 6.1329 5.7528 112.9819 7.6449 -0.0084 0.2232 3.8883 2.4999 58.2500 0.2018
6796.0000 6.5604 6.1213 5.7096 113.8898 7.6680 -0.0079 0.2334 3.8014 2.4860 58.6641 0.2150
6796.5000 6.4051 5.9719 5.5715 119.8555 7.6449 -0.0031 0.2610 3.7277 2.4746 58.8750 0.2286
6797.0000 6.2649 5.8350 5.4388 131.8757 7.6449 0.0020 0.2648 3.6802 2.4740 58.7589 0.2539
6797.5000 6.1543 5.7555 5.3602 140.9008 7.6449 0.0036 0.2765 3.6440 2.4860 58.7344 0.2477
6798.0000 5.8779 5.5321 5.1615 143.4143 7.6449 0.0031 0.2601 3.6196 2.5091 59.0089 0.2464
6798.5000 5.6538 5.2456 4.9080 135.7540 7.6449 0.0011 0.2564 3.5532 2.5305 59.0078 0.2377
6799.0000 5.6622 5.2323 4.8891 124.8215 7.6680 0.0012 0.2324 3.5497 2.5385 58.6484 0.2287
6799.5000 5.7982 5.3548 4.9873 118.6740 7.6449 -0.0012 0.2221 3.5719 2.5363 58.4107 0.2024
6800.0000 5.8006 5.4259 5.0582 118.2799 7.6680 -0.0029 0.2236 3.6493 2.5317 58.2813 0.1989
6800.5000 6.0895 5.6378 5.1969 117.5836 7.6680 -0.0032 0.2287 3.6944 2.5290 58.2054 0.1999
6801.0000 6.5524 5.8993 5.4403 120.9757 7.6449 -0.0032 0.2405 3.6891 2.5230 58.2969 0.2031
6801.5000 5.9402 5.7535 5.3160 124.0336 7.6680 -0.0030 0.2425 3.6126 2.5169 58.3661 0.2189
6802.0000 5.2471 4.8005 4.5171 128.9700 7.6449 -0.0018 0.2388 3.4988 2.5189 58.2813 0.2223
6802.5000 5.0256 4.5804 4.3215 124.8513 7.6680 -0.0035 0.2231 3.4730 2.5173 58.3125 0.2176
6803.0000 5.7888 5.4161 5.0456 115.2223 7.6680 -0.0040 0.2069 3.5215 2.5238 58.2031 0.2001
6803.5000 6.4855 5.9418 5.5746 111.4976 7.6449 -0.0077 0.2079 3.6479 2.5133 58.2946 0.1949
6804.0000 6.4537 5.9283 5.5264 115.4035 7.6680 -0.0070 0.2104 3.6896 2.5142 58.3047 0.1937
6804.5000 6.2115 5.8258 5.4392 123.5797 7.6449 -0.0067 0.2166 3.7376 2.5052 58.2679 0.1965
6805.0000 5.7951 5.2978 4.9671 124.1243 7.6680 -0.0057 0.2106 3.7299 2.5041 58.2188 0.2005
6805.5000 5.1923 4.8872 4.6391 130.8773 7.6449 -0.0065 0.2126 3.6855 2.4983 58.1719 0.1910
6806.0000 4.5973 4.3491 4.1068 139.6587 7.6218 -0.0047 0.2198 3.5397 2.5117 58.2589 0.1985
6806.5000 4.9037 4.3409 4.1082 147.8348 7.6218 -0.0022 0.2252 3.4272 2.5265 58.2946 0.2006
6807.0000 5.9422 5.5198 5.0917 139.1742 7.6218 -0.0020 0.2279 3.4866 2.5285 57.8984 0.1977
6807.5000 7.6135 6.8051 6.1551 125.5479 7.6218 -0.0052 0.2210 3.7203 2.5063 57.5156 0.2037
6808.0000 8.0044 7.2639 6.5154 111.6488 7.6449 -0.0049 0.2146 3.9434 2.4877 57.3036 0.1995
6808.5000 7.7446 6.9041 6.2959 109.8922 7.6680 -0.0057 0.2098 4.0423 2.4824 57.3828 0.1938
6809.0000 7.1763 6.6737 6.1050 120.1275 7.6449 -0.0051 0.2082 3.9488 2.4908 57.5089 0.1909
6809.5000 6.3705 6.0422 5.6058 129.4239 7.6680 -0.0058 0.2047 3.7726 2.4979 57.3906 0.1930
6810.0000 5.3115 5.0519 4.7615 132.6644 7.6449 0.0006 0.2027 3.6653 2.4957 57.4107 0.1880
6810.5000 6.9049 5.9903 5.6207 123.8825 7.6449 0.0112 0.2158 3.7455 2.4949 57.0859 0.1788
6811.0000 8.3045 7.8580 7.1438 111.1944 7.6449 0.0087 0.2177 4.0192 2.4915 56.6250 0.1816
6811.5000 9.5072 9.0023 8.2546 106.0163 7.6449 0.0027 0.2049 4.2662 2.5014 56.5156 0.1744
6812.0000 8.7407 8.4948 7.9451 101.8676 7.6449 -0.0089 0.1862 4.4322 2.5086 56.4196 0.1691
6812.5000 8.8979 8.2810 7.8085 102.2010 7.6449 -0.0093 0.1737 4.4912 2.5159 55.9141 0.1602
6813.0000 9.1174 8.4914 8.1059 101.6555 7.6449 -0.0072 0.1703 4.4926 2.5243 55.1563 0.1566
6813.5000 9.3915 8.8651 8.4852 97.8098 7.6449 -0.0066 0.1666 4.5146 2.5230 54.1071 0.1519
6814.0000 10.5172 9.5908 9.0301 93.2373 7.6449 -0.0063 0.1658 4.5325 2.5180 53.7143 0.1489
6814.5000 8.6377 8.7021 8.2011 96.9318 7.6449 -0.0081 0.1819 4.5199 2.5071 54.9609 0.1582
6815.0000 7.0513 6.6321 6.3923 121.8837 7.6449 -0.0090 0.2132 4.4092 2.4962 56.3036 0.1811
6815.5000 5.9196 5.7311 5.5076 142.6573 7.6680 -0.0092 0.2330 4.3045 2.4766 56.5781 0.2220
6816.0000 7.6727 6.6069 6.3104 146.5936 7.6680 -0.0102 0.2310 4.3311 2.4539 55.2422 0.2258
6816.5000 9.5465 9.0403 8.3669 125.7599 7.6449 -0.0110 0.2041 4.4429 2.4533 53.4643 0.1906
6817.0000 11.6736 11.0304 10.0483 114.6461 7.6680 -0.0107 0.1876 4.5959 2.4698 52.1953 0.1634
6817.5000 11.7172 11.1180 10.1667 104.8956 7.6449 -0.0081 0.1737 4.6737 2.4958 51.7679 0.1549
6818.0000 11.1585 10.3798 9.5747 99.3241 7.6449 -0.0028 0.1628 4.6934 2.5206 50.9531 0.1482
6818.5000 10.2978 9.7660 9.1174 88.8163 7.6449 0.0005 0.1591 4.6148 2.5392 50.8036 0.1435
6819.0000 9.4562 9.0879 8.5927 92.6926 7.6680 0.0018 0.1560 4.5449 2.5451 51.8203 0.1459
6819.5000 8.5796 8.3104 7.9181 107.1066 7.6449 -0.0012 0.1798 4.5444 2.5253 52.6786 0.1541
6820.0000 9.0399 8.6839 8.1957 120.2787 7.6449 -0.0022 0.1929 4.5732 2.5110 52.8203 0.1762
6820.5000 9.1857 8.8905 8.3637 114.0710 7.6449 -0.0028 0.2012 4.6253 2.5032 51.8125 0.1826
6821.0000 9.2166 8.7600 8.3003 111.2846 7.6449 -0.0007 0.1933 4.6333 2.5121 51.1953 0.1798
6821.5000 9.8611 9.3258 8.8057 100.8682 7.6449 -0.0016 0.1812 4.6887 2.5119 50.2589 0.1673
6822.0000 10.3225 9.7307 9.2759 93.9941 7.6449 -0.0011 0.1695 4.6630 2.5246 48.0625 0.1508
6822.5000 10.3104 9.6427 9.2480 77.4909 7.6218 -0.0018 0.1427 4.6470 2.5278 45.9688 0.1419
6823.0000 10.2670 9.6569 9.3060 77.7328 7.6449 -0.0010 0.1487 4.6102 2.5241 46.0089 0.1295
6823.5000 10.1478 9.6821 9.3364 88.2106 7.6449 -0.0009 0.1673 4.5886 2.5091 47.3482 0.1409
6824.0000 9.2272 8.8786 8.5744 92.8436 7.6449 -0.0002 0.1869 4.5703 2.5075 47.4766 0.1520
6824.5000 7.9387 7.6561 7.4020 82.6389 7.6218 -0.0022 0.1702 4.6365 2.5096 46.4196 0.1601
6825.0000 6.9600 6.6141 6.4436 75.3104 7.6449 -0.0023 0.1504 4.6800 2.5186 46.5703 0.1477
6825.5000 6.4438 6.1825 5.9720 85.3033 7.6449 -0.0044 0.1674 4.7530 2.5079 48.8906 0.1469
6826.0000 6.5101 6.0701 5.8258 110.0436 7.6449 -0.0045 0.1936 4.7249 2.5035 50.5982 0.1678
6826.5000 7.1654 6.5415 6.2235 112.4963 7.6565 -0.0079 0.1998 4.7481 2.4884 49.9063 0.1836
6827.0000 7.6972 7.2715 6.7511 101.7769 7.6334 -0.0091 0.1936 4.7286 2.4787 50.1696 0.1767
6827.5000 8.3868 7.8157 7.3343 99.5057 7.6449 -0.0090 0.2048 4.6758 2.4722 51.2188 0.1775
6828.0000 7.7902 7.5102 7.0580 107.7122 7.6449 -0.0062 0.2192 4.5978 2.4805 50.9643 0.1925
6828.5000 7.6131 7.1456 6.7960 108.6813 7.6449 -0.0039 0.2082 4.5987 2.4987 48.0625 0.1880
6829.0000 7.0337 6.7064 6.4280 80.1860 7.6449 0.0006 0.1740 4.6829 2.5267 44.2500 0.1643
6829.5000 7.8017 7.1319 6.8600 64.5605 7.6449 0.0026 0.1634 4.8191 2.5360 41.5000 0.1442
6830.0000 9.1473 8.6065 8.2462 64.8027 7.6218 0.0029 0.1683 4.8712 2.5313 39.4643 0.1445
6830.5000 11.2015 10.3866 9.9204 83.5477 7.6449 -0.0011 0.1786 4.8822 2.5057 38.6641 0.1525
6831.0000 10.8066 10.2601 9.8757 88.2715 7.6449 -0.0035 0.1733 4.8226 2.4839 37.8839 0.1660
6831.5000 10.2757 9.5369 9.2601 92.9047 7.6565 -0.0055 0.1779 4.8167 2.4577 37.3516 0.1678
6832.0000 9.9729 9.2967 9.0808 102.5037 7.6449 -0.0062 0.1962 4.8242 2.4389 38.6607 0.1739
6832.5000 9.7366 9.1612 8.9672 113.6777 7.6911 -0.0075 0.2091 4.8819 2.4287 38.7422 0.1868
