~VERSION INFORMATION
VERS.           1.2   :CWLS Log ASCII Standard - VERSION 1.2
WRAP.           NO    :One Line per depth step
PROD.  Schlumberger   :LAS Producer
PROG.  DLIS to ASCII 17C0-152                          :LAS Program name and version
CREA.        2013/08/16 09:04                          :LAS Creation date {YYYY/MM/DD hh:mm}
DLIS_CREA.  2013-Aug-16 00:16                          :DLIS Creation date and time {YYYY-MMM-DD hh:mm}
SOURCE.     960568ea-4174-41e0-a405-0f32a02141a6       :DLIS File Name
#--------------------------------------------------
~WELL INFORMATION
#MNEM.UNIT      DATA             DESCRIPTION
#---- ------ --------------   -----------------------------
STRT .F      457.0000        :START DEPTH        # original; data subset to 5500-8000
STOP .F      7701.0000       :STOP DEPTH        # original; data subset to 5500-8000
STEP .F       0.5000         :STEP       
NULL .          -999.25      :NULL VALUE
COMP .                 COMPANY:  Bear Oil & Gas, Inc.               
WELL .                    WELL:  Fornstrom 13-32A                   
FLD  .                   FIELD:  Wildcat                            
LOC  .                LOCATION:  SHL: NWSW 1925' FSL & 540" FWL     
CNTY .                  COUNTY:  Laramie                            
STAT .                   STATE:  Wyoming                            
CTRY .                 COUNTRY:  United States                      
SRVC .         SERVICE COMPANY:  Schlumberger                       
LATI .DEG             LATITUDE:  41.307320 degrees                  
LONG .DEG            LONGITUDE:  -104.11715 degrees                 
API  .              API NUMBER:  49-021-21022                       
DATE .                LOG DATE:  15-Aug-2013
UWI  .          UNIQUE WELL ID:  49021210220000                     
#-----------------------------------------------------------------------------
~PARAMETER INFORMATION
#MNEM.UNIT    VALUE                      DESCRIPTION
#---- -----   --------------------       ------------------------
CN   .        Bear Oil & Gas  Inc.       :Company Name
WN   .        Fornstrom 13-32A           :Well Name
FN   .        Wildcat                    :Field Name
FL   .        SHL  NWSW 1925' FSL & 540  FWL :Field Location
FL1  .        Sec. 32  T. 16N  R. 60W    :Field Location, Line 1
COUN .        Laramie                    :County or Parish
STAT .        Wyoming                    :State or Province
NATI .        United States              :Nation
DATE .        15-Aug-2013                :Tools Above Rotary Table Date
APIN .        49-021-21022               :API Well Number
SECT .        32                         :Section
TOWN .        16N                        :Township
RANG .        60W                        :Range
DMF  .        KB                         :Drilling Measured From (Name of Drilling Elevation Reference)
LMF  .        KB                         :Logging Measured From (Name of Logging Elevation Reference)
PDAT .        GL                         :Permanent Datum
ENGI .        Max Pace                   :Engineer s Name
WITN .        Tery Eittreim              :Witness s Name
LATI .        41.307320 degrees          :Latitude
LONG .        -104.11715 degrees         :Longitude
LUL  .        Fort Morgan  CO            :Logging Unit Location
LUN  .        3030                       :Logging Unit Number
RUN  .        Run 1                      :Run Number
SON  .        CA0R-00040                 :Service Order Number
BHT  .DEGF     168.00000                 :Bottom Hole Temperature
BS   .IN         7.87500                 :Bit Size
MDEN .G/C3       2.65000                 :Matrix Density for Density Porosity
DFD  .LB/G       8.80000                 :Drilling Fluid Density
DFV  .S         36.00000                 :Drilling Fluid Viscosity
DFL  .C3         5.00000                 :Drilling Fluid Loss
RMFS .OHMM       1.11000                 :Resistivity of Mud Filtrate Sample
EKB  .F       5298.00000                 :Elevation of Kelly Bushing
EGL  .F       5286.00000                 :Elevation of Ground Level
BLI  .F       7687.00000                 :Bottom Log Interval
BSAL .PPM     3295.90967                 :Borehole Salinity
FLEV .F          8.00000                 :Depth of Drilling Fluid Level to LMF (Log Measured From)
MCST .DEGF      84.00000                 :Mudcake Sample Temperature
MFST .DEGF      84.00000                 :Mud Filtrate Sample Temperature
MRT  .DEGF     168.00000                 :Maximum Recorded Temperature
MST  .DEGF      84.00000                 :Mud Sample Temperature
RMCS .OHMM       1.85000                 :Resistivity of Mud Cake Sample
RMS  .OHMM       1.48000                 :Resistivity of Mud Sample
RW   .OHMM       1.00000                 :Connate Water Resistivity
TDD  .F       7680.00000                 :Driller Total Depth
TDL  .F       7687.00000                 :Logger Total Depth
TLI  .F       1026.25000                 :Top Log Interval
HIDE .        Wildcat                    :Header Identifier
MATR .        SAND                       :Rock Matrix for Neutron Porosity Corrections
FNUM .           1.00000                 :F-Numerator for Formation Factor Formula
FEXP .           2.00000                 :Exponent "m" for Formation Factor Formula
DFT  .        Fresh Water                :Drilling Fluid Type
DFPH .           8.50000                 :Drilling Fluid pH
MCSS .        Calculated                 :Mudcake Sample Source
MFSS .        Calculated                 :Mud Filtrate Sample Source
FD   .G/C3       1.00000                 :Fluid Density
MSS  .        Active Tank                :Mud Sample Source
OS1  .                                   :Other Services Line 1
OS2  .                                   :Other Services Line 2
OS3  .                                   :Other Services Line 3
OS4  .                                   :Other Services Line 4
OS5  .                                   :Other Services Line 5
R1   .                                   :Remarks Line 1
R2   .                                   :Remarks Line 2
R3   .                                   :Remarks Line 3
R4   .                                   :Remarks Line 4
R5   .                                   :Remarks Line 5
R6   .                                   :Remarks Line 6
R7   .                                   :Remarks Line 7
R8   .                                   :Remarks Line 8
TCS  .        14 00 00                   :Time Circulation Stopped
TLAB .        22 20 59                   :Time Logger At Bottom
NMT  .        NOBARITE                   :HRDD Mud Type for Nuclear Devices
EPD  .F         5286.000000              :Elevation of Permanent Datum above Mean Sea Level
APD  .F          12.000000               :Elevation of Depth Reference (LMF) above Permanent Datum
#-----------------------------------------------------------------------------
~CURVE INFORMATION
#MNEM.UNIT   API CODE                                  DESCRIPTION
#---- -----  --------                                  -----------------------
DEPT .F                                                :DEPTH (BOREHOLE) {F12.4}
AT10 .OHMM                                             :Array Induction Two Foot Resistivity A10 {F11.4}
AT30 .OHMM                                             :Array Induction Two Foot Resistivity A30 {F11.4}
AT90 .OHMM                                             :Array Induction Two Foot Resistivity A90 {F11.4}
GR   .GAPI                                             :Gamma Ray {F11.4}
HCAL .IN                                               :HRCC Caliper Calibrated {F11.4}
HDRA .G/C3                                             :Density Standoff Correction {F11.4}
NPHI .CFCF                                             :Thermal Neutron Porosity (original Ratio Method) in Selected Lithology {F11.4}
PEFZ .                                                 :Standard Resolution Formation Photoelectric Factor {F11.4}
RHOZ .G/C3                                             :Standard Resolution Formation Density {F11.4}
SP   .MV                                               :Spontaneous Potential {F11.4}
TNPH .CFCF                                             :Thermal Neutron Porosity (Ratio Method) in Selected Lithology {F11.4}
#-----------------------------------------------------------------------------
# 
#      DEPT        AF10       AF20       AF30       AF60       AF90       AO10       AO20       AO30       AO60       AO90       AT10       AT20       AT30       AT60       AT90     AHFCO60      AHMF      AHORT      AHORX      AHSCA     AHTCO10    AHTCO20    AHTCO30    AHTCO60    AHTCO90     AHTD1      AHTD2      AHTRT      AHTRX       CDF        CFTC       CNTC       CTEM       DCAL       DNPH       DPHZ       DSOZ       ECGR        ED        GDEV        GR        GTEM       HCAL       HDRA       HDRB       HGR        HMIN       HMNO       HNPO       HPRA       HTNP        ND        NPHI       NPOR       PEFZ    PXND_HILT     RHOZ       RSOZ     RWA_HILT     RXO8       RXOZ        SP        SPAR       STIT       TENS       TNPH     HTNP_SAN
#
~A  DEPT AT10 AT30 AT90 GR HCAL HDRA NPHI PEFZ RHOZ SP TNPH
# ...
6079.0000 3.8218 3.6280 3.5081 98.3850 7.8761 -0.0086 0.2906 2.9542 2.5478 54.4063 0.2687
6079.5000 3.8288 3.6273 3.5046 97.5068 7.8876 -0.0089 0.2807 2.9755 2.5437 54.2143 0.2781
6080.0000 3.6926 3.5662 3.4331 97.6883 7.8992 -0.0059 0.2779 2.9754 2.5403 54.0781 0.2786
6080.5000 3.3014 3.1737 3.0655 103.3814 7.8876 -0.0024 0.2718 2.9761 2.5278 54.1964 0.2845
6081.0000 2.9617 2.8299 2.7379 105.3195 7.8761 0.0024 0.2814 2.9708 2.5288 54.4375 0.2819
6081.5000 2.9414 2.7612 2.6737 103.1998 7.8876 0.0049 0.3059 2.9803 2.5407 54.7054 0.2837
6082.0000 2.9697 2.8083 2.7004 104.2903 7.8761 0.0025 0.3115 2.9927 2.5608 55.0156 0.2978
6082.5000 2.9737 2.8487 2.7331 102.3519 7.8876 0.0002 0.3121 2.9788 2.5742 55.2946 0.3007
6083.0000 2.9857 2.8237 2.7002 107.4395 7.8761 -0.0028 0.3075 2.9756 2.5662 55.3750 0.3015
6083.5000 3.0398 2.8357 2.7118 107.0761 7.8992 -0.0028 0.3008 2.9905 2.5513 55.1607 0.2971
6084.0000 3.1865 3.0033 2.8381 112.8298 7.8992 -0.0036 0.2942 3.0044 2.5453 54.9219 0.2947
6084.5000 3.4058 3.1576 2.9953 115.0095 7.8761 -0.0046 0.2712 3.0071 2.5517 54.7054 0.2841
6085.0000 3.1916 3.0875 2.9277 113.4651 7.8761 -0.0023 0.2697 3.0278 2.5519 54.8438 0.2648
6085.5000 3.0778 2.8878 2.7614 114.4948 7.8530 -0.0034 0.2683 3.0286 2.5481 55.3393 0.2716
6086.0000 2.9749 2.7967 2.6680 105.0472 7.8299 -0.0049 0.2670 3.0111 2.5407 55.5000 0.2676
6086.5000 3.1147 2.9122 2.7805 106.7431 7.8299 -0.0068 0.2788 2.9448 2.5502 55.3036 0.2541
6087.0000 3.1758 2.9908 2.8552 104.5629 7.8299 -0.0061 0.2878 2.9317 2.5541 55.2031 0.2572
6087.5000 3.2004 3.0110 2.8741 110.1346 7.8299 -0.0054 0.3069 2.9811 2.5548 55.2500 0.2754
6088.0000 3.2147 3.0168 2.8782 113.6167 7.8530 -0.0058 0.3028 3.0583 2.5500 55.2656 0.3034
6088.5000 3.1589 2.9895 2.8511 110.5285 7.8299 -0.0062 0.3003 3.1031 2.5455 55.2679 0.2966
6089.0000 3.0824 2.9054 2.7797 113.1932 7.8299 -0.0017 0.3002 3.0857 2.5403 55.3516 0.2934
6089.5000 2.9916 2.8323 2.7071 110.3469 7.8067 -0.0007 0.3003 3.0481 2.5352 55.5982 0.2960
6090.0000 3.0574 2.8715 2.7401 112.4660 7.8299 -0.0003 0.3014 2.9959 2.5385 55.5859 0.2920
6090.5000 3.1131 2.9482 2.7992 111.2856 7.8299 -0.0048 0.2945 2.9668 2.5432 55.4911 0.2880
6091.0000 3.1540 2.9835 2.8337 119.2189 7.8299 -0.0060 0.2963 2.9695 2.5475 55.2188 0.2852
6091.5000 3.1537 2.9731 2.8254 117.0994 7.8299 -0.0046 0.2912 3.0042 2.5542 55.2500 0.2927
6092.0000 3.1593 2.9739 2.8293 115.1307 7.8299 -0.0014 0.2827 3.0429 2.5688 55.1953 0.2836
6092.5000 3.1137 2.9486 2.8101 110.5886 7.8299 0.0014 0.2995 3.0204 2.5796 55.1161 0.2760
6093.0000 3.0621 2.8748 2.7538 115.8577 7.8183 0.0017 0.3041 2.9712 2.5776 54.9922 0.2889
6093.5000 3.0699 2.8682 2.7463 117.4018 7.8067 -0.0012 0.3164 2.9447 2.5639 55.2946 0.2953
6094.0000 3.0550 2.8746 2.7493 114.9191 7.8067 -0.0051 0.2899 2.9772 2.5485 55.2969 0.3058
6094.5000 3.0279 2.8294 2.7028 107.1063 7.8067 -0.0069 0.2951 3.0022 2.5400 55.1429 0.2850
6095.0000 2.9021 2.7624 2.6405 105.3198 7.8299 -0.0065 0.2882 2.9874 2.5337 54.8438 0.2933
6095.5000 2.7855 2.6236 2.5095 103.6241 7.8299 -0.0019 0.3002 2.9321 2.5427 54.9643 0.2885
6096.0000 2.6657 2.5133 2.3996 107.0158 7.7952 0.0013 0.3015 2.9197 2.5506 55.0625 0.3004
6096.5000 2.6529 2.4765 2.3620 108.7117 7.8299 0.0034 0.3034 2.9511 2.5652 55.1250 0.2968
6097.0000 2.7537 2.5441 2.4232 110.3465 7.8299 0.0003 0.3017 3.0456 2.5607 54.8281 0.2965
6097.5000 2.8107 2.6331 2.4980 110.1650 7.7836 -0.0030 0.3007 3.1330 2.5480 54.8304 0.2925
6098.0000 2.8600 2.6726 2.5328 109.1954 7.8299 -0.0059 0.3105 3.1507 2.5292 55.0469 0.2860
6098.5000 2.9270 2.7274 2.5847 106.3494 7.7836 -0.0049 0.2988 3.0734 2.5296 55.1518 0.2915
6099.0000 3.0315 2.8290 2.6658 102.5033 7.7605 -0.0036 0.2918 2.9668 2.5423 55.3125 0.2818
6099.5000 3.1639 2.9507 2.7903 104.1990 7.8299 -0.0043 0.2789 2.9390 2.5500 55.3839 0.2814
6100.0000 3.1890 2.9878 2.8321 102.1704 7.8299 -0.0054 0.2795 2.9887 2.5438 55.4063 0.2732
6100.5000 3.2410 3.0265 2.8759 106.9850 7.8299 -0.0069 0.2653 3.0399 2.5380 55.0893 0.2739
6101.0000 3.2621 3.0679 2.9195 105.0773 7.8183 -0.0054 0.2627 3.0591 2.5328 55.0938 0.2555
6101.5000 3.2281 3.0378 2.9009 108.8019 7.8299 -0.0067 0.2689 3.0254 2.5323 55.2232 0.2524
6102.0000 3.2250 3.0392 2.9064 104.4109 7.8299 -0.0066 0.2818 2.9832 2.5328 55.5000 0.2570
6102.5000 3.2475 3.0692 2.9362 106.0770 7.8067 -0.0070 0.2801 2.9269 2.5421 55.4464 0.2720
6103.0000 3.2353 3.0581 2.9293 108.7112 7.8299 -0.0052 0.2740 2.8865 2.5518 55.1563 0.2735
6103.5000 3.2300 3.0432 2.9225 112.6178 7.8299 -0.0029 0.2798 2.8519 2.5607 55.1071 0.2701
6104.0000 3.2701 3.0804 2.9574 108.4994 7.8067 -0.0018 0.2919 2.8201 2.5631 55.0156 0.2746
6104.5000 3.2633 3.0998 2.9722 104.0476 7.8067 0.0008 0.2995 2.8082 2.5705 55.2031 0.2791
6105.0000 3.2332 3.0443 2.9306 102.3517 7.8067 0.0009 0.2998 2.8181 2.5665 55.2679 0.2878
6105.5000 3.2851 3.0615 2.9441 106.9240 7.7952 0.0009 0.2951 2.8448 2.5630 55.0859 0.2891
6106.0000 3.3370 3.1523 3.0176 107.0457 7.7836 -0.0006 0.2915 2.8562 2.5560 55.0268 0.2845
6106.5000 3.3609 3.1833 3.0550 107.1669 7.7836 -0.0033 0.2978 2.9157 2.5443 55.1786 0.2818
6107.0000 3.3800 3.1901 3.0532 102.1099 7.8299 -0.0044 0.2995 2.9535 2.5412 55.2969 0.2851
6107.5000 3.5213 3.2943 3.1566 104.7439 7.7836 -0.0066 0.2905 2.9867 2.5378 55.3482 0.2859
6108.0000 3.6674 3.4516 3.3061 103.6541 7.8067 -0.0051 0.2716 2.9487 2.5532 55.0156 0.2768
6108.5000 3.7903 3.5711 3.4074 105.3195 7.8299 -0.0048 0.2613 2.9309 2.5599 54.8672 0.2671
6109.0000 3.6512 3.5223 3.3649 101.7161 7.7836 -0.0039 0.2667 2.9114 2.5615 54.8929 0.2613
6109.5000 3.5939 3.4082 3.2614 97.9310 7.8067 -0.0034 0.2665 2.8864 2.5585 54.8672 0.2640
6110.0000 3.6519 3.4497 3.3174 92.8739 7.8067 -0.0027 0.2751 2.8503 2.5591 54.9911 0.2620
6110.5000 3.7766 3.5697 3.4291 91.4205 7.8067 -0.0036 0.2758 2.8319 2.5571 54.9844 0.2640
6111.0000 3.8718 3.6632 3.5200 91.6323 7.7836 0.0003 0.2862 2.8554 2.5488 54.7679 0.2663
6111.5000 3.9753 3.7728 3.6193 99.6270 7.8067 -0.0017 0.2921 2.8939 2.5401 54.2969 0.2737
6112.0000 4.0551 3.8455 3.6923 100.8684 7.8299 0.0002 0.2872 2.8873 2.5495 54.2232 0.2799
6112.5000 4.0369 3.8453 3.6997 104.1996 7.8067 -0.0053 0.2841 2.8791 2.5556 54.1953 0.2804
6113.0000 4.0292 3.8447 3.7063 97.8703 7.7952 -0.0055 0.2633 2.8675 2.5560 54.3214 0.2779
6113.5000 4.0255 3.8391 3.6992 105.1077 7.8299 -0.0067 0.2620 2.8647 2.5477 54.4141 0.2587
6114.0000 3.9889 3.8220 3.6893 105.3801 7.8299 -0.0060 0.2562 2.8454 2.5444 54.4732 0.2550
6114.5000 3.9502 3.7689 3.6379 110.9826 7.8530 -0.0048 0.2673 2.8357 2.5450 54.5781 0.2559
6115.0000 3.9566 3.7754 3.6383 101.8378 7.8414 -0.0024 0.2717 2.8342 2.5548 54.7946 0.2620
6115.5000 3.9723 3.7758 3.6382 98.1737 7.8530 0.0004 0.2698 2.8441 2.5686 54.6786 0.2602
6116.0000 3.8472 3.7100 3.5840 93.2071 7.8414 0.0014 0.2790 2.8206 2.5765 54.8906 0.2608
6116.5000 3.7409 3.5546 3.4336 95.5691 7.8299 -0.0034 0.2819 2.8529 2.5570 55.1172 0.2718
6117.0000 3.7750 3.5487 3.4277 99.8690 7.7836 -0.0076 0.2747 2.8365 2.5405 54.9464 0.2763
6117.5000 3.8244 3.6554 3.5058 93.2074 7.8067 -0.0065 0.2507 2.7879 2.5469 54.5859 0.2648
6118.0000 3.8409 3.6729 3.5355 93.3886 7.8067 -0.0031 0.2536 2.7222 2.5635 54.6518 0.2409
6118.5000 3.7674 3.5813 3.4615 95.3871 7.7836 -0.0027 0.2680 2.7476 2.5638 55.2344 0.2471
6119.0000 3.7493 3.5606 3.4248 107.1364 7.7836 -0.0055 0.2801 2.8441 2.5467 55.5357 0.2616
6119.5000 3.7315 3.5507 3.4065 109.1352 7.7836 -0.0084 0.2799 2.9383 2.5313 55.2031 0.2702
6120.0000 3.6976 3.5069 3.3704 102.3519 7.7605 -0.0080 0.2703 2.9611 2.5326 54.8125 0.2687
6120.5000 3.7201 3.5234 3.3896 94.5090 7.7374 -0.0045 0.2769 2.9285 2.5474 54.4375 0.2648
6121.0000 3.7200 3.5352 3.3905 91.1176 7.7605 -0.0030 0.2787 2.9056 2.5487 54.4018 0.2717
6121.5000 3.7255 3.5323 3.3884 96.5381 7.7836 -0.0021 0.2713 2.8715 2.5487 54.6250 0.2713
6122.0000 3.7296 3.5437 3.3984 96.7502 7.7836 -0.0046 0.2722 2.8567 2.5414 54.7768 0.2604
6122.5000 3.7110 3.5422 3.3978 96.0229 7.7721 -0.0051 0.2679 2.8335 2.5477 54.8125 0.2606
6123.0000 3.6561 3.4653 3.3222 98.1128 7.7836 -0.0064 0.2840 2.8322 2.5499 55.1339 0.2579
