~VERSION INFORMATION
VERS.           1.2   :CWLS Log ASCII Standard - VERSION 1.2
WRAP.           NO    :One Line per depth step
PROD.  Schlumberger   :LAS Producer
PROG.  DLIS to ASCII 17C0-152                          :LAS Program name and version
CREA.        2013/10/21 20:50                          :LAS Creation date {YYYY/MM/DD hh:mm}
DLIS_CREA.  2013-Oct-21 08:39                          :DLIS Creation date and time {YYYY-MMM-DD hh:mm}
SOURCE.     9ec8b34d-aca5-43ef-91a8-8c41069c79cd       :DLIS File Name
#--------------------------------------------------
~WELL INFORMATION
#MNEM.UNIT      DATA             DESCRIPTION
#---- ------ --------------   -----------------------------
STRT .F      901.5000        :START DEPTH        # original; data subset to 5500-8000
STOP .F      7746.5000       :STOP DEPTH        # original; data subset to 5500-8000
STEP .F       0.5000         :STEP       
NULL .          -999.25      :NULL VALUE
COMP .                 COMPANY:  Bear Oil and Gas, Inc.             
WELL .                    WELL:  McGahan Farms 32 31                
FLD  .                   FIELD:  Wildcat                            
LOC  .                LOCATION:  SHL: SWNE 2563' FNL & 1423' FEL    
CNTY .                  COUNTY:  Laramie                            
STAT .                   STATE:  Wyoming                            
CTRY .                 COUNTRY:  United States                      
SRVC .         SERVICE COMPANY:  Schlumberger                       
LATI .DEG             LATITUDE:  41.309490 degrees                  
LONG .DEG            LONGITUDE:  -104.12429 degrees                 
API  .              API NUMBER:  49-021-21045                       
DATE .                LOG DATE:  21-Oct-2013
UWI  .          UNIQUE WELL ID:  49021210450000                     
#-----------------------------------------------------------------------------
~PARAMETER INFORMATION
#MNEM.UNIT    VALUE                      DESCRIPTION
#---- -----   --------------------       ------------------------
CN   .        Bear Oil and Gas  Inc.     :Company Name
WN   .        McGahan Farms 32 31        :Well Name
FN   .        Wildcat                    :Field Name
FL   .        SHL  SWNE 2563' FNL & 1423' FEL :Field Location
FL1  .        Section 31  Township 16N  Range 60W :Field Location, Line 1
COUN .        Laramie                    :County or Parish
STAT .        Wyoming                    :State or Province
NATI .        United States              :Nation
DATE .        21-Oct-2013                :Tools Above Rotary Table Date
APIN .        49-021-21045               :API Well Number
SECT .        31                         :Section
TOWN .        16N                        :Township
RANG .        60W                        :Range
DMF  .        KB                         :Drilling Measured From (Name of Drilling Elevation Reference)
LMF  .        KB                         :Logging Measured From (Name of Logging Elevation Reference)
PDAT .        GL                         :Permanent Datum
ENGI .        Max Pace                   :Engineer s Name
WITN .        Terry                      :Witness s Name
LATI .        41.309490 degrees          :Latitude
LONG .        -104.12429 degrees         :Longitude
LUL  .        Fort Morgan  CO            :Logging Unit Location
LUN  .        3022                       :Logging Unit Number
RUN  .        Run 1                      :Run Number
SON  .        CA0R-00056                 :Service Order Number
BHT  .DEGF     166.00000                 :Bottom Hole Temperature
BS   .IN         7.87500                 :Bit Size
MDEN .G/C3       2.65000                 :Matrix Density for Density Porosity
DFD  .LB/G       9.10000                 :Drilling Fluid Density
DFV  .S         63.00000                 :Drilling Fluid Viscosity
DFL  .C3         8.80000                 :Drilling Fluid Loss
RMFS .OHMM       1.24500                 :Resistivity of Mud Filtrate Sample
EKB  .F       5307.00000                 :Elevation of Kelly Bushing
EGL  .F       5295.00000                 :Elevation of Ground Level
BLI  .F       7730.00000                 :Bottom Log Interval
BSAL .PPM        0.00000                 :Borehole Salinity
FLEV .F          8.00000                 :Depth of Drilling Fluid Level to LMF (Log Measured From)
MCST .DEGF      61.00000                 :Mudcake Sample Temperature
MFST .DEGF      61.00000                 :Mud Filtrate Sample Temperature
MRT  .DEGF     166.00000                 :Maximum Recorded Temperature
MST  .DEGF      61.00000                 :Mud Sample Temperature
RMCS .OHMM       2.07500                 :Resistivity of Mud Cake Sample
RMS  .OHMM       1.66000                 :Resistivity of Mud Sample
RW   .OHMM       1.00000                 :Connate Water Resistivity
TDD  .F       7719.99951                 :Driller Total Depth
TDL  .F       7730.00000                 :Logger Total Depth
TLI  .F       1023.75000                 :Top Log Interval
HIDE .        Wildcat                    :Header Identifier
MATR .        SAND                       :Rock Matrix for Neutron Porosity Corrections
FNUM .           1.00000                 :F-Numerator for Formation Factor Formula
FEXP .           2.00000                 :Exponent "m" for Formation Factor Formula
DFT  .        Fresh Water                :Drilling Fluid Type
DFPH .           7.50000                 :Drilling Fluid pH
MCSS .        Calculated                 :Mudcake Sample Source
MFSS .        Calculated                 :Mud Filtrate Sample Source
FD   .G/C3       1.00000                 :Fluid Density
MSS  .        Active Tank                :Mud Sample Source
OS1  .                                   :Other Services Line 1
OS2  .                                   :Other Services Line 2
OS3  .                                   :Other Services Line 3
OS4  .                                   :Other Services Line 4
OS5  .                                   :Other Services Line 5
R1   .        Tool string run as per tool sketch :Remarks Line 1
R2   .        All Schlumberger depth control procedures followed :Remarks Line 2
R3   .        IDW used as primary depth reference :Remarks Line 3
R4   .        Z Chart used as secondary depth reference :Remarks Line 4
R5   .        Matrix Density zoned as per client request :Remarks Line 5
R6   .        Crew  Max Pace  Tyler Riter  Cody Bruns :Remarks Line 6
R7   .                                   :Remarks Line 7
R8   .                                   :Remarks Line 8
TCS  .        19 00 00                   :Time Circulation Stopped
TLAB .        06 35 50                   :Time Logger At Bottom
NMT  .        NOBARITE                   :HRDD Mud Type for Nuclear Devices
EPD  .C3         5295.000000             :Elevation of Permanent Datum above Mean Sea Level
APD  .F          12.000000               :Elevation of Depth Reference (LMF) above Permanent Datum
#-----------------------------------------------------------------------------
~CURVE INFORMATION
#MNEM.UNIT   API CODE                                  DESCRIPTION
#---- -----  --------                                  -----------------------
DEPT .F                                                :DEPTH (BOREHOLE) {F12.4}
AT10 .OHMM                                             :Array Induction Two Foot Resistivity A10 {F11.4}
AT30 .OHMM                                             :Array Induction Two Foot Resistivity A30 {F11.4}
AT90 .OHMM                                             :Array Induction Two Foot Resistivity A90 {F11.4}
DT   .US/F                                             :Delta-T (also called Slowness or Interval Transit Time) {F11.4}
GR   .GAPI                                             :Gamma Ray {F11.4}
HCAL .IN                                               :HRCC Caliper Calibrated {F11.4}
HDRA .G/C3                                             :Density Standoff Correction {F11.4}
NPHI .CFCF                                             :Thermal Neutron Porosity (original Ratio Method) in Selected Lithology {F11.4}
PEFZ .                                                 :Standard Resolution Formation Photoelectric Factor {F11.4}
RHOZ .G/C3                                             :Standard Resolution Formation Density {F11.4}
SP   .MV                                               :Spontaneous Potential {F11.4}
TNPH .CFCF                                             :Thermal Neutron Porosity (Ratio Method) in Selected Lithology {F11.4}
#-----------------------------------------------------------------------------
# 
#      DEPT        AF10       AF20       AF30       AF60       AF90       AO10       AO20       AO30       AO60       AO90       AT10       AT20       AT30       AT60       AT90     AHFCO60      AHMF      AHORT      AHORX      AHSCA     AHTCO10    AHTCO20    AHTCO30    AHTCO60    AHTCO90     AHTD1      AHTD2      AHTRT      AHTRX       CDF        CFTC       CNTC       CTEM       DCAL       DNPH       DPHZ       DSOZ        DT        ECGR        ED        GDEV        GR        GTEM       HCAL       HDRA       HDRB       HGR        HMIN       HMNO       HNPO       HPRA       HTNP       ITT         ND        NPHI       NPOR       PEFZ    PXND_HILT     RHOZ       RSOZ     RWA_HILT     RXO8       RXOZ        SP        SPAR       SPHI       STIT       TENS       TNPH     HTNP_SAN
#
~A  DEPT AT10 AT30 AT90 DT GR HCAL HDRA NPHI PEFZ RHOZ SP TNPH
# ...
6833.5000 7.7903 7.2297 6.5308 65.4400 61.9794 7.7771 -0.0054 0.1117 4.7303 2.5849 204.2891 0.0907
6834.0000 6.6713 5.8661 5.3419 67.5694 68.3426 7.7521 -0.0007 0.1310 4.6023 2.5950 205.3839 0.1128
6834.5000 6.4678 5.9495 5.3570 69.5488 73.6964 7.7771 0.0036 0.1448 4.5150 2.5871 206.0625 0.1315
6835.0000 5.0744 5.4267 5.0596 74.3401 84.0975 7.7771 0.0164 0.1693 4.4124 2.5906 207.0313 0.1460
6835.5000 4.3513 4.6511 4.3194 73.0832 84.4952 7.7521 0.0156 0.1620 4.3109 2.5802 207.1161 0.1520
6836.0000 4.6948 4.3703 4.1494 71.1050 74.2162 7.7021 0.0140 0.1325 4.3055 2.6015 206.7109 0.1164
6836.5000 6.1362 6.2544 5.4717 67.9910 61.4591 7.7771 0.0050 0.0888 4.3871 2.6252 205.8516 0.0893
6837.0000 8.7818 8.1852 7.1161 65.2492 58.6141 7.7521 0.0062 0.0919 4.4987 2.6555 206.5893 0.0798
6837.5000 7.3770 7.2808 6.6265 66.1249 59.0424 7.7521 0.0069 0.0981 4.5768 2.6719 207.3828 0.0880
6838.0000 7.3705 6.5751 6.1122 64.7238 56.0445 7.7521 0.0073 0.0900 4.6116 2.6784 207.9453 0.0894
6838.5000 7.2333 7.1086 6.5250 65.6483 59.2261 7.7521 0.0155 0.0939 4.6560 2.6731 208.0804 0.0904
6839.0000 6.5436 6.2585 5.8178 68.6362 74.8583 7.7521 0.0329 0.1221 4.6390 2.6534 208.6250 0.1109
6839.5000 4.6907 4.6198 4.3922 73.8071 96.9762 7.8021 0.0481 0.1699 4.5387 2.6307 208.8750 0.1408
6840.0000 3.6535 3.8964 3.6815 78.3620 107.1333 7.8271 0.0471 0.1911 4.4195 2.6291 208.3516 0.1613
6840.5000 3.8559 3.8387 3.6691 75.0405 99.4241 7.7771 0.0295 0.1762 4.3156 2.6162 207.2031 0.1530
6841.0000 4.6667 4.5203 4.1698 76.1841 81.5587 7.7521 0.0237 0.1593 4.3638 2.6255 205.7500 0.1302
6841.5000 5.1921 5.0765 4.7080 69.9778 62.0711 7.7771 0.0239 0.1287 4.4614 2.6190 204.8438 0.1232
6842.0000 6.1226 5.7232 5.4150 66.3381 54.3007 7.7771 0.0353 0.1192 4.6351 2.6428 204.2344 0.1029
6842.5000 7.8075 7.6721 6.6507 69.6097 51.7614 7.7771 0.0323 0.1062 4.7541 2.6506 203.5625 0.0978
6843.0000 7.1531 7.1089 6.4390 66.0334 55.1878 7.7771 0.0215 0.1014 4.7858 2.6526 204.1094 0.0967
6843.5000 6.8077 6.5456 6.3056 65.5470 57.1459 7.7771 0.0145 0.1003 4.7503 2.6622 204.0469 0.0957
6844.0000 7.2013 6.9961 6.5795 69.6598 61.0005 7.7771 0.0064 0.0990 4.6338 2.6540 205.0982 0.0940
6844.5000 7.0344 6.8533 6.5147 67.6730 63.9676 7.8021 0.0056 0.1091 4.5668 2.6516 205.4453 0.0942
6845.0000 6.8680 6.6024 6.1890 68.9128 59.2871 7.7771 -0.0035 0.1098 4.5818 2.6243 204.8929 0.1006
6845.5000 7.2925 7.1036 6.5446 68.4319 53.0769 7.7646 -0.0067 0.1028 4.6558 2.6102 203.7109 0.0949
6846.0000 7.7502 7.5692 7.0000 68.1753 50.1402 7.7771 -0.0083 0.1050 4.7200 2.6020 203.1172 0.0903
6846.5000 7.5090 7.1777 6.8322 66.8774 52.2817 7.7521 -0.0073 0.1099 4.6976 2.6056 203.7679 0.0921
6847.0000 7.6260 7.3748 7.0204 67.0132 53.1383 7.7771 -0.0073 0.1086 4.6908 2.6078 203.3984 0.0953
6847.5000 7.7918 7.8032 7.4305 67.9516 47.5093 7.7771 -0.0072 0.1131 4.6785 2.6111 204.0982 0.0997
6848.0000 6.9999 7.0829 6.8462 68.9050 53.0771 7.7771 -0.0059 0.1246 4.6395 2.6172 205.0938 0.1099
6848.5000 6.4181 6.0924 5.9773 69.7444 55.1572 7.7771 -0.0052 0.1353 4.6442 2.6193 205.5313 0.1186
6849.0000 6.4129 6.1200 6.0572 69.4993 60.7557 7.7771 -0.0046 0.1290 4.6896 2.6221 204.3125 0.1161
6849.5000 7.3851 7.0108 6.9217 66.7724 49.8344 7.7521 -0.0061 0.1029 4.7840 2.6184 203.2813 0.1053
6850.0000 9.2395 8.2647 7.9371 66.1261 47.1422 7.7521 -0.0042 0.0900 4.7166 2.6303 203.1797 0.0889
6850.5000 8.4335 8.1229 7.8423 66.4530 47.9983 7.7521 -0.0048 0.0910 4.6517 2.6294 204.3304 0.0865
6851.0000 7.3847 6.9853 6.8048 68.1960 56.7782 7.7521 -0.0032 0.1247 4.4911 2.6404 205.8672 0.0914
6851.5000 6.8612 6.5875 6.3074 69.1882 61.9176 7.7771 -0.0043 0.1394 4.4379 2.6428 206.7054 0.1151
6852.0000 7.2473 6.9371 6.5960 69.3403 57.4208 7.7771 -0.0031 0.1368 4.3698 2.6563 206.7422 0.1205
6852.5000 7.6090 7.4106 6.9532 69.3693 53.5971 7.7521 -0.0036 0.1207 4.3660 2.6566 207.0000 0.1188
6853.0000 6.6888 6.4406 5.9972 69.5443 60.4192 7.7771 -0.0047 0.1249 4.3319 2.6479 207.5893 0.1180
6853.5000 5.7532 5.5128 5.0598 71.9094 73.0538 7.7771 -0.0062 0.1434 4.2873 2.6320 207.8594 0.1296
6854.0000 5.1151 4.8473 4.5505 75.2691 84.0669 7.7771 -0.0062 0.1604 4.2009 2.6271 208.0078 0.1434
6854.5000 4.8235 4.7231 4.4332 75.6575 88.1357 7.7271 -0.0059 0.1625 4.2039 2.6270 208.0804 0.1504
6855.0000 5.5133 5.0468 4.7418 73.5370 77.2142 7.7521 -0.0043 0.1485 4.2911 2.6363 207.5781 0.1341
6855.5000 6.4287 6.1674 5.6964 72.2611 67.8832 7.7521 -0.0030 0.1277 4.4984 2.6392 206.2969 0.1128
6856.0000 8.0074 7.3678 6.8488 69.8256 53.7499 7.7771 -0.0016 0.1222 4.6948 2.6377 205.1607 0.1004
6856.5000 8.2469 7.6180 7.1296 67.4052 55.9523 7.7771 -0.0022 0.1168 4.8198 2.6301 204.2266 0.1050
6857.0000 8.6426 7.9766 7.5045 66.8979 50.1707 7.8021 -0.0039 0.1100 4.8220 2.6246 203.6339 0.1025
6857.5000 8.7943 8.3486 7.8623 66.2444 47.6008 7.7896 -0.0032 0.0951 4.6802 2.6350 203.8906 0.0996
6858.0000 8.5968 8.3315 7.8367 66.9913 50.0485 7.8021 -0.0012 0.0947 4.4930 2.6464 205.0781 0.0958
6858.5000 7.4072 7.4322 7.0230 70.0725 64.1821 7.7771 0.0005 0.1200 4.3223 2.6490 206.4643 0.1025
6859.0000 6.4898 6.2866 6.0135 72.6372 82.1701 7.8271 0.0004 0.1456 4.1920 2.6414 207.4297 0.1244
6859.5000 5.5229 5.5622 5.3498 74.8673 90.4910 7.8021 -0.0005 0.1609 4.1259 2.6345 207.7679 0.1415
6860.0000 5.9801 5.8168 5.5816 74.5546 90.0627 7.8021 -0.0032 0.1509 4.2137 2.6257 207.4063 0.1342
6860.5000 6.9539 6.5109 6.2234 71.1362 76.3574 7.8021 -0.0047 0.1322 4.3811 2.6216 206.6797 0.1149
6861.0000 8.2396 7.5680 7.1997 68.7751 67.0267 7.8271 -0.0037 0.1200 4.4795 2.6251 206.0313 0.1071
6861.5000 8.5193 8.0046 7.5501 68.2665 64.2736 7.8271 -0.0008 0.1077 4.4128 2.6310 206.1339 0.1092
6862.0000 7.3749 7.4112 7.1387 71.3601 75.8375 7.8021 0.0011 0.1230 4.2422 2.6319 206.9219 0.1131
6862.5000 6.5076 6.3031 6.1542 72.3218 83.7607 7.8396 0.0002 0.1471 4.1279 2.6251 207.8750 0.1279
6863.0000 6.5865 6.0418 5.8429 72.0448 87.1871 7.8271 -0.0024 0.1518 4.1769 2.6159 207.6339 0.1372
6863.5000 7.0239 6.8142 6.5669 73.0025 83.5469 7.8021 -0.0034 0.1422 4.2640 2.6109 207.0547 0.1300
6864.0000 6.2959 6.5157 6.2185 73.6756 90.8279 7.8146 -0.0014 0.1484 4.2980 2.6113 207.3516 0.1237
6864.5000 5.8301 5.5718 5.3886 73.5144 95.9445 7.8021 -0.0017 0.1639 4.2993 2.6032 207.7679 0.1363
6865.0000 6.3599 5.8216 5.6253 74.1486 92.5182 7.8021 -0.0036 0.1648 4.3650 2.6012 207.6250 0.1442
6865.5000 6.7487 6.6569 6.1683 72.2018 80.5262 7.7771 -0.0037 0.1387 4.3971 2.6156 206.9688 0.1323
6866.0000 7.2778 7.1871 6.6848 70.9327 71.3099 7.7771 0.0008 0.1295 4.3225 2.6469 207.1339 0.1177
6866.5000 6.5831 6.4749 6.1411 71.1044 77.6424 7.7771 0.0010 0.1349 4.2121 2.6548 207.8281 0.1207
6867.0000 6.5155 6.1835 5.8729 72.2027 81.7111 7.7771 -0.0026 0.1408 4.1687 2.6438 207.6250 0.1300
6867.5000 6.3938 6.0201 5.9911 72.2212 85.5658 7.7771 -0.0073 0.1503 4.1804 2.6277 207.2422 0.1285
6868.0000 6.6217 6.1765 5.8225 70.5336 79.6922 7.7896 -0.0072 0.1414 4.2301 2.6242 207.0625 0.1281
6868.5000 6.8472 6.2717 6.0045 68.7850 67.2719 7.7771 -0.0053 0.1286 4.3096 2.6230 206.3750 0.1173
6869.0000 6.9409 6.7552 5.9294 69.4623 59.7767 7.7771 -0.0034 0.1119 4.3746 2.6211 205.1719 0.1108
6869.5000 6.6500 7.0018 6.4098 70.8773 63.2031 7.7771 0.0016 0.1148 4.3450 2.6336 205.4911 0.1066
6870.0000 5.8081 6.2100 5.6988 71.5759 74.7668 7.7771 0.0016 0.1260 4.2266 2.6274 206.9688 0.1175
6870.5000 5.3902 5.3066 4.9643 75.2731 91.0729 7.7771 0.0007 0.1510 4.0727 2.6136 207.9844 0.1348
6871.0000 4.8986 4.5628 4.3042 77.7144 108.8158 7.7521 -0.0031 0.1715 3.8474 2.5885 208.7734 0.1532
6871.5000 4.2775 4.1748 3.9905 78.7299 127.4464 7.7521 -0.0021 0.1921 3.5709 2.5851 208.9911 0.1619
6872.0000 4.1595 4.1369 3.9299 80.0192 134.0538 7.7771 0.0022 0.1936 3.2523 2.6031 209.0781 0.1805
6872.5000 4.2353 4.0721 3.9776 78.5855 130.7498 7.8021 0.0051 0.1829 2.9856 2.6114 208.2232 0.1750
6873.0000 4.3245 4.1525 3.9743 77.7081 128.3939 7.7771 0.0044 0.1893 2.7961 2.5996 206.5078 0.1537
6873.5000 4.4248 4.1860 4.0126 75.4826 119.8284 7.7771 0.0004 0.1878 2.6952 2.5681 203.9219 0.1544
6874.0000 4.4945 4.2395 4.0512 75.1842 115.8517 7.7771 -0.0026 0.1878 2.6835 2.5457 201.7143 0.1552
