~VERSION INFORMATION
VERS.           1.2   :CWLS Log ASCII Standard - VERSION 1.2
WRAP.           NO    :One Line per depth step
PROD.  Schlumberger   :LAS Producer
PROG.  DLIS to ASCII 17C0-152                          :LAS Program name and version
CREA.        2013/11/03 06:14                          :LAS Creation date {YYYY/MM/DD hh:mm}
DLIS_CREA.  2013-Nov-02 20:25                          :DLIS Creation date and time {YYYY-MMM-DD hh:mm}
SOURCE.     36f617ea-a8f9-4f31-9cfe-b4906ac6e0fc       :DLIS File Name
#--------------------------------------------------
~WELL INFORMATION
#MNEM.UNIT      DATA             DESCRIPTION
#---- ------ --------------   -----------------------------
STRT .F      1000.5000       :START DEPTH        # original; data subset to 5500-8000
STOP .F      7745.0000       :STOP DEPTH        # original; data subset to 5500-8000
STEP .F       0.5000         :STEP       
NULL .          -999.25      :NULL VALUE
COMP .                 COMPANY:  Bear Oil & Gas, Inc.               
WELL .                    WELL:  Marquardt 34-31                    
FLD  .                   FIELD:  Wildcat                            
LOC  .                LOCATION:  SWSE, Sec. 31, T16N, R60W          
CNTY .                  COUNTY:  Laramie                            
STAT .                   STATE:  Wyoming                            
CTRY .                 COUNTRY:                                     
SRVC .         SERVICE COMPANY:  Schlumberger                       
LATI .DEG             LATITUDE:  41.305550 degrees                  
LONG .DEG            LONGITUDE:  -104.12401 degrees                 
API  .              API NUMBER:  49-021-21046-0000                  
DATE .                LOG DATE:  02-Nov-2013
UWI  .          UNIQUE WELL ID:                                     
#-----------------------------------------------------------------------------
~PARAMETER INFORMATION
#MNEM.UNIT    VALUE                      DESCRIPTION
#---- -----   --------------------       ------------------------
CN   .        Bear Oil & Gas  Inc.       :Company Name
WN   .        Marquardt 34-31            :Well Name
FN   .        Wildcat                    :Field Name
FL   .        SWSE  Sec. 31  T16N  R60W  :Field Location
FL1  .        SHL  1265' FSL X 1340' FEL :Field Location, Line 1
COUN .        Laramie                    :County or Parish
STAT .        Wyoming                    :State or Province
NATI .                                   :Nation
DATE .        02-Nov-2013                :Tools Above Rotary Table Date
APIN .        49-021-21046-0000          :API Well Number
SECT .        31                         :Section
TOWN .        16N                        :Township
RANG .        60W                        :Range
DMF  .        KB                         :Drilling Measured From (Name of Drilling Elevation Reference)
LMF  .        KB                         :Logging Measured From (Name of Logging Elevation Reference)
PDAT .        GL                         :Permanent Datum
ENGI .        Heather Hoffman            :Engineer s Name
WITN .        Terry Eittreim             :Witness s Name
LATI .        41.305550 degrees          :Latitude
LONG .        -104.12401 degrees         :Longitude
LUL  .        Fort Morgan  CO            :Logging Unit Location
LUN  .        2135                       :Logging Unit Number
RUN  .        PEX BHC AIT                :Run Number
SON  .        CQQL-00004                 :Service Order Number
BHT  .DEGF     185.00000                 :Bottom Hole Temperature
BS   .IN         7.87500                 :Bit Size
MDEN .G/C3       2.65000                 :Matrix Density for Density Porosity
DFD  .LB/G       9.10000                 :Drilling Fluid Density
DFV  .S         82.00000                 :Drilling Fluid Viscosity
DFL  .C3      -999.25000                 :Drilling Fluid Loss
RMFS .OHMM       1.18400                 :Resistivity of Mud Filtrate Sample
EKB  .F       10594.00000                :Elevation of Kelly Bushing
EGL  .F       5291.00000                 :Elevation of Ground Level
BLI  .F       7724.00000                 :Bottom Log Interval
BSAL .PPM        0.00000                 :Borehole Salinity
FLEV .F         50.00000                 :Depth of Drilling Fluid Level to LMF (Log Measured From)
MCST .DEGF      85.00000                 :Mudcake Sample Temperature
MFST .DEGF      85.00000                 :Mud Filtrate Sample Temperature
MRT  .DEGF     185.00000                 :Maximum Recorded Temperature
MST  .DEGF      85.00000                 :Mud Sample Temperature
RMCS .OHMM       1.77600                 :Resistivity of Mud Cake Sample
RMS  .OHMM       1.48000                 :Resistivity of Mud Sample
RW   .OHMM       1.00000                 :Connate Water Resistivity
TDD  .F       7719.99951                 :Driller Total Depth
TDL  .F       7724.00000                 :Logger Total Depth
TLI  .F       1024.00000                 :Top Log Interval
HIDE .        Wildcat                    :Header Identifier
MATR .        SAND                       :Rock Matrix for Neutron Porosity Corrections
FNUM .           1.00000                 :F-Numerator for Formation Factor Formula
FEXP .           2.00000                 :Exponent "m" for Formation Factor Formula
DFT  .        WATER                      :Drilling Fluid Type
DFPH .        -999.25000                 :Drilling Fluid pH
MCSS .        Calculated                 :Mudcake Sample Source
MFSS .        Calculated                 :Mud Filtrate Sample Source
FD   .G/C3       1.00000                 :Fluid Density
MSS  .        Active Tank                :Mud Sample Source
OS1  .                                   :Other Services Line 1
OS2  .                                   :Other Services Line 2
OS3  .                                   :Other Services Line 3
OS4  .                                   :Other Services Line 4
OS5  .                                   :Other Services Line 5
R1   .                                   :Remarks Line 1
R2   .                                   :Remarks Line 2
R3   .                                   :Remarks Line 3
R4   .                                   :Remarks Line 4
R5   .                                   :Remarks Line 5
R6   .                                   :Remarks Line 6
R7   .                                   :Remarks Line 7
R8   .        This is first run in hole. :Remarks Line 8
TCS  .        09 55 00                   :Time Circulation Stopped
TLAB .        20 18 33                   :Time Logger At Bottom
NMT  .        NOBARITE                   :HRDD Mud Type for Nuclear Devices
EPD  .C3         5291.000000             :Elevation of Permanent Datum above Mean Sea Level
APD  .F         5303.000000              :Elevation of Depth Reference (LMF) above Permanent Datum
#-----------------------------------------------------------------------------
~CURVE INFORMATION
#MNEM.UNIT   API CODE                                  DESCRIPTION
#---- -----  --------                                  -----------------------
DEPT .F                                                :DEPTH (BOREHOLE) {F12.4}
AT10 .OHMM                                             :Array Induction Two Foot Resistivity A10 {F11.4}
AT30 .OHMM                                             :Array Induction Two Foot Resistivity A30 {F11.4}
AT90 .OHMM                                             :Array Induction Two Foot Resistivity A90 {F11.4}
DT   .US/F                                             :Delta-T (also called Slowness or Interval Transit Time) {F11.4}
GR   .GAPI                                             :Gamma Ray {F11.4}
HCAL .IN                                               :HRCC Caliper Calibrated {F11.4}
HDRA .G/C3                                             :Density Standoff Correction {F11.4}
NPHI .CFCF                                             :Thermal Neutron Porosity (original Ratio Method) in Selected Lithology {F11.4}
PEFZ .                                                 :Standard Resolution Formation Photoelectric Factor {F11.4}
RHOZ .G/C3                                             :Standard Resolution Formation Density {F11.4}
SP   .MV                                               :Spontaneous Potential {F11.4}
TNPH .CFCF                                             :Thermal Neutron Porosity (Ratio Method) in Selected Lithology {F11.4}
#-----------------------------------------------------------------------------
# 
#      DEPT        AF10       AF20       AF30       AF60       AF90       AO10       AO20       AO30       AO60       AO90       AT10       AT20       AT30       AT60       AT90     AHFCO60      AHMF      AHORT      AHORX      AHSCA     AHTCO10    AHTCO20    AHTCO30    AHTCO60    AHTCO90     AHTD1      AHTD2      AHTRT      AHTRX       CDF        CFTC       CNTC       CTEM       DCAL       DNPH       DPHZ       DSOZ        DT        ECGR        ED        GDEV        GR        GTEM       HCAL       HDRA       HDRB       HGR        HMIN       HMNO       HNPO       HPRA       HTNP       ITT         ND        NPHI       NPOR       PEFZ    PXND_HILT     RHOZ       RSOZ     RWA_HILT     RXO8       RXOZ        SP        SPAR       SPHI       STIT       TENS       TNPH     HTNP_SAN
#
~A  DEPT AT10 AT30 AT90 DT GR HCAL HDRA NPHI PEFZ RHOZ SP TNPH
# ...
6820.5000 10.2107 9.9897 9.4988 75.0753 111.1991 7.6695 0.0041 0.1774 4.9297 2.4910 -218.6250 0.1497
6821.0000 9.4915 9.2414 8.7766 74.4025 107.2321 7.6695 0.0029 0.1679 4.9280 2.4921 -218.5893 0.1605
6821.5000 10.7514 10.1424 9.6498 74.6814 108.3486 7.6472 -0.0012 0.1647 4.9661 2.4836 -219.3929 0.1464
6822.0000 11.9956 11.9431 11.2389 75.5575 110.2001 7.6695 -0.0053 0.1632 5.0636 2.4717 -219.0313 0.1403
6822.5000 13.9948 13.9549 13.0351 72.9193 115.6071 7.6695 -0.0071 0.1524 5.0992 2.4730 -218.8304 0.1395
6823.0000 13.8749 13.7441 12.9702 71.6189 99.5620 7.6472 -0.0055 0.1429 5.0972 2.4916 -219.0859 0.1242
6823.5000 13.6370 13.8112 13.0690 69.3109 84.0464 7.6918 -0.0024 0.1235 5.0655 2.5089 -219.0536 0.1206
6824.0000 13.4527 13.5669 12.9507 69.8841 88.3658 7.6695 -0.0020 0.1465 5.0801 2.4974 -218.2109 0.1260
6824.5000 13.2903 13.3980 12.7734 73.2821 113.6387 7.6695 -0.0021 0.1583 5.0556 2.4763 -216.2411 0.1526
6825.0000 13.2846 13.2024 12.6781 75.7597 126.0690 7.6472 -0.0043 0.1695 5.0693 2.4547 -214.6429 0.1514
6825.5000 12.3882 13.2211 12.5298 77.5513 131.1533 7.6584 -0.0044 0.1700 5.0527 2.4525 -213.4375 0.1530
6826.0000 11.4611 11.8294 11.4214 76.7496 135.6199 7.6472 -0.0050 0.1796 5.0661 2.4487 -211.1429 0.1516
6826.5000 10.6431 10.3340 10.0524 77.5070 153.9278 7.6918 -0.0002 0.1821 5.0236 2.4654 -209.4609 0.1629
6827.0000 12.7310 12.4771 12.0092 78.4062 167.0928 7.6695 0.0043 0.1820 5.0613 2.4828 -208.4286 0.1626
6827.5000 14.4560 14.9198 14.2258 78.4625 178.9060 7.6472 0.0076 0.1689 5.1362 2.5010 -207.7422 0.1623
6828.0000 14.2700 13.4872 12.7289 77.3235 177.3194 7.6584 0.0063 0.1537 5.2044 2.5037 -206.9196 0.1571
6828.5000 11.3519 10.5166 10.0015 76.3400 194.0110 7.6472 0.0036 0.1564 5.1631 2.4998 -206.3438 0.1548
6829.0000 6.7805 7.2234 6.9587 81.2259 222.3986 7.6695 0.0037 0.1980 4.9951 2.5101 -204.5536 0.1636
6829.5000 5.0932 4.8138 4.7017 81.4959 223.8082 7.6472 0.0041 0.2244 4.6819 2.5325 -202.6563 0.1821
6830.0000 4.5268 4.5183 4.3373 79.9793 174.6740 7.6695 0.0024 0.2056 4.4385 2.5561 -202.6696 0.1698
6830.5000 6.5604 5.5170 5.2382 75.9427 96.1528 7.6695 0.0008 0.1373 4.3347 2.5821 -204.5089 0.1303
6831.0000 8.5104 7.9430 7.1769 67.4652 52.5142 7.6695 -0.0009 0.0917 4.4707 2.5939 -207.0859 0.0901
6831.5000 11.3389 10.1712 8.9353 63.7691 41.6997 7.6918 0.0014 0.0768 4.5677 2.6091 -207.5536 0.0758
6832.0000 8.9237 8.8466 8.0088 64.7374 50.6921 7.6695 0.0035 0.0912 4.6255 2.6106 -206.2109 0.0783
6832.5000 6.9297 6.6429 6.1780 67.0900 61.6536 7.6918 0.0047 0.1101 4.5162 2.6091 -203.6339 0.0942
6833.0000 6.3754 6.0245 5.5946 68.9968 70.8221 7.6695 0.0085 0.1207 4.4458 2.6120 -202.9141 0.1095
6833.5000 5.7585 5.4962 5.1892 72.1434 74.5245 7.6918 0.0066 0.1369 4.3406 2.5979 -201.3036 0.1225
6834.0000 5.0471 4.9573 4.6489 74.2867 81.8123 7.6918 0.0060 0.1657 4.3316 2.5888 -201.2500 0.1371
6834.5000 4.3518 4.2581 3.9932 73.0699 80.1670 7.6695 0.0003 0.1602 4.3810 2.5724 -201.6250 0.1441
6835.0000 6.4517 5.1322 4.8495 70.4295 71.2335 7.6695 0.0017 0.1293 4.5050 2.5920 -202.9375 0.1130
6835.5000 8.1195 7.6540 6.5913 67.8014 57.7155 7.6584 0.0023 0.0905 4.5874 2.6125 -202.9643 0.0888
6836.0000 8.6232 8.2037 7.2279 65.8810 56.0696 7.6918 0.0018 0.0953 4.5954 2.6233 -201.6696 0.0803
6836.5000 8.0004 7.2329 6.6257 65.9031 61.9177 7.6918 -0.0001 0.1015 4.5423 2.6198 -200.7031 0.0914
6837.0000 7.7268 6.9256 6.3756 65.8234 61.5651 7.6918 -0.0018 0.0913 4.5722 2.6085 -200.4018 0.0932
6837.5000 7.6832 7.4253 6.6802 66.8817 62.0354 7.6695 0.0021 0.0951 4.5668 2.6117 -200.3750 0.0893
6838.0000 5.9509 5.8321 5.3302 69.4126 68.8238 7.6695 0.0143 0.1128 4.5482 2.6164 -199.5357 0.1051
6838.5000 4.4819 4.3573 4.0912 74.1823 81.0489 7.7141 0.0221 0.1564 4.4295 2.6270 -199.5000 0.1208
6839.0000 3.9338 3.8787 3.6620 76.8556 89.8354 7.7029 0.0228 0.1783 4.3400 2.6250 -200.2143 0.1460
6839.5000 4.3005 4.0627 3.7906 76.1810 87.5428 7.7364 0.0158 0.1746 4.3466 2.6112 -201.4531 0.1494
6840.0000 5.3952 5.1234 4.7761 74.8934 83.5460 7.6806 0.0151 0.1631 4.4359 2.6083 -202.9107 0.1343
6840.5000 5.7948 5.3421 4.9754 69.8059 66.0610 7.6695 0.0104 0.1338 4.6050 2.5933 -202.9464 0.1256
6841.0000 6.5377 5.9420 5.3634 67.7837 58.0680 7.6806 0.0059 0.1150 4.7232 2.5906 -203.7656 0.1072
6841.5000 7.6668 7.3191 6.2697 68.6086 53.6894 7.6695 0.0061 0.1024 4.7470 2.5956 -203.8304 0.0957
6842.0000 7.1080 6.7223 6.3841 65.0310 63.3283 7.6695 0.0083 0.1027 4.6236 2.6127 -203.5859 0.0952
6842.5000 7.0263 6.7995 6.6689 67.8364 63.3284 7.6695 0.0073 0.1147 4.5043 2.6226 -203.6518 0.1007
6843.0000 7.4646 7.1782 6.7600 68.9479 66.7667 7.6695 0.0008 0.1146 4.4340 2.6194 -202.7946 0.1051
6843.5000 6.9694 6.8523 6.4784 69.1479 59.9489 7.6695 -0.0029 0.1247 4.5049 2.6085 -202.7422 0.1040
6844.0000 6.8777 6.5251 6.1455 68.9042 58.3031 7.6695 -0.0048 0.1185 4.5547 2.6003 -203.2411 0.1107
6844.5000 7.2594 7.1483 6.6407 68.9726 49.8396 7.6584 -0.0046 0.1126 4.5884 2.5991 -204.1563 0.1003
6845.0000 7.5761 7.4027 6.9957 68.6770 47.8416 7.6695 0.0001 0.1045 4.5866 2.6190 -204.4196 0.0942
6845.5000 7.3083 7.0599 6.6955 67.1037 49.0170 7.6695 0.0038 0.1098 4.6109 2.6447 -204.0938 0.0929
6846.0000 7.5726 7.3223 6.9116 67.5665 48.0767 7.6695 0.0105 0.1049 4.6398 2.6663 -204.6875 0.0988
6846.5000 7.5774 7.5737 7.1635 68.1128 49.8397 7.6918 0.0087 0.1033 4.5803 2.6625 -203.5391 0.0950
6847.0000 6.8854 6.7676 6.4738 69.2684 51.5442 7.6918 0.0048 0.1084 4.5317 2.6420 -201.9286 0.0987
6847.5000 6.0929 5.8769 5.6384 69.9483 53.6601 7.6918 -0.0037 0.1230 4.5492 2.6163 -201.9531 0.1024
6848.0000 6.8365 6.2505 6.0242 69.6529 50.2514 7.6695 -0.0034 0.1183 4.6482 2.6138 -203.2232 0.1073
6848.5000 7.7671 7.5360 7.1967 67.4168 41.4942 7.6472 0.0011 0.1117 4.7429 2.6265 -204.0000 0.0952
6849.0000 9.3643 8.6852 8.1304 66.3497 39.1431 7.6695 0.0042 0.0992 4.7090 2.6385 -204.0625 0.0906
6849.5000 8.2345 8.3238 7.7863 67.4100 45.3144 7.6472 0.0060 0.1093 4.6154 2.6466 -202.9018 0.0930
6850.0000 7.3989 7.1126 6.7760 68.7293 55.6584 7.6695 0.0034 0.1173 4.4786 2.6392 -201.3281 0.1058
6850.5000 6.9821 6.5630 6.3102 69.4616 62.8874 7.6918 0.0037 0.1206 4.4127 2.6448 -200.7321 0.1115
6851.0000 7.1794 6.9281 6.4721 69.6498 63.6513 7.6695 0.0028 0.1188 4.4027 2.6478 -200.7891 0.1115
6851.5000 7.0473 6.8153 6.3281 69.5779 68.1184 7.6695 0.0048 0.1233 4.4161 2.6601 -200.1071 0.1093
6852.0000 6.1480 5.8474 5.4629 71.1351 69.5582 7.6472 0.0035 0.1394 4.3976 2.6516 -199.4297 0.1205
6852.5000 5.4112 5.1793 4.7889 74.3057 76.8459 7.6918 0.0037 0.1582 4.3061 2.6448 -199.5357 0.1394
6853.0000 4.8596 4.7632 4.4537 76.8392 82.7232 7.7141 0.0042 0.1749 4.1974 2.6386 -200.1696 0.1522
6853.5000 4.7924 4.6530 4.3641 75.0916 82.9879 7.6806 0.0037 0.1742 4.1330 2.6352 -200.7422 0.1574
6854.0000 6.0244 5.3210 4.9974 73.2813 76.4054 7.6918 0.0025 0.1540 4.1689 2.6355 -201.7679 0.1386
6854.5000 7.2341 6.7449 6.1691 70.3793 62.2114 7.6695 0.0007 0.1225 4.2851 2.6346 -202.5859 0.1148
6855.0000 8.2615 7.7712 7.1555 67.8757 51.8670 7.6695 0.0001 0.1089 4.4612 2.6328 -203.3571 0.0981
6855.5000 8.5691 7.9106 7.4201 66.7985 45.9901 7.6472 0.0015 0.1001 4.5913 2.6367 -203.9286 0.0947
6856.0000 8.6792 8.0690 7.6934 66.5800 44.1388 7.6584 0.0025 0.0998 4.6328 2.6394 -204.0156 0.0896
6856.5000 8.4038 8.0512 7.7158 68.5218 52.8373 7.6918 0.0064 0.0913 4.5760 2.6539 -202.9732 0.0941
6857.0000 7.1365 7.1880 6.9239 71.6468 61.9764 7.6695 0.0069 0.1082 4.4643 2.6592 -201.5703 0.0961
6857.5000 6.1324 5.9906 5.8848 73.8201 75.2003 7.6695 0.0052 0.1314 4.3420 2.6538 -200.3750 0.1146
6858.0000 5.4652 5.4772 5.3458 75.2088 85.5441 7.6918 0.0050 0.1614 4.2509 2.6492 -199.9766 0.1317
6858.5000 6.0491 5.7173 5.5593 74.2277 86.7786 7.7141 0.0039 0.1624 4.2334 2.6414 -200.5000 0.1434
6859.0000 6.8009 6.5541 6.2667 71.6653 81.1363 7.6918 0.0080 0.1459 4.3332 2.6530 -201.2768 0.1283
6859.5000 8.0306 7.7533 7.3376 69.1426 66.0026 7.6695 0.0066 0.1253 4.4749 2.6519 -201.9219 0.1133
6860.0000 8.6211 7.9001 7.4151 68.2452 61.0360 7.6918 0.0086 0.1104 4.6067 2.6567 -201.9821 0.1040
