~VERSION INFORMATION
VERS.           2.0   :CWLS Log ASCII Standard - VERSION 2.0
WRAP.           NO    :One Line per depth step
PROD.  Schlumberger   :LAS Producer
PROG.  DLIS to ASCII 19C2-270                          :LAS Program name and version
CREA.        2013/08/28 17:00                          :LAS Creation date {YYYY/MM/DD hh:mm}
DLIS_CREA.  2013-Aug-28 16:23                          :DLIS Creation date and time {YYYY-MMM-DD hh:mm}
SOURCE.     Bear_Oil_Marquardt_43_31_Main_DLIS.dlis    :DLIS File Name
FILE-ID.     MaxWell_5Dlis                             :File Identification Number
#--------------------------------------------------
~WELL INFORMATION
#MNEM.UNIT      DATA             DESCRIPTION
#---- ------ --------------   -----------------------------
STRT .F      1000.5          :START DEPTH        # original; data subset to 5500-8000
STOP .F      7710.0          :STOP DEPTH        # original; data subset to 5500-8000
STEP .F       0.5            :STEP     
NULL .          -999.25      :NULL VALUE
COMP .        Bear Oil and Gas, Inc.                   :COMPANY
WELL .        Marquardt 43 31                          :WELL
FLD  .        Wildcat                                  :FIELD
LOC  .        NESE 1627' FSL & 170' FEL                :LOCATION
CNTY .        Laramie                                  :COUNTY
STAT .        Wyoming                                  :STATE
CTRY .        United States                            :COUNTRY
API  .        049-021-21034                            :API NUMBER
UWI  .        049021210340000                          :UNIQUE WELL ID
DATE .        28-Aug-2013                              :LOG DATE {DD-MMM-YYYY}
SRVC .        Schlumberger                             :SERVICE COMPANY
LATI .DEG     41.306700 degrees                        :LATITUDE
LONG .DEG     -104.11980 degrees                       :LONGITUDE
GDAT .                                                 :GeoDetic Datum
SECT .        31                                       :Section
RANG .        60W                                      :Range
TOWN .        16N                                      :Township
#-----------------------------------------------------------------------------
~PARAMETER INFORMATION
#MNEM.UNIT    VALUE                      DESCRIPTION
#---- -----   --------------------       ------------------------
CN   .        Bear Oil and Gas  Inc.     :Company Name
WN   .        Marquardt 43 31            :Well Name
FN   .        Wildcat                    :Field Name
FL   .        NESE 1627' FSL & 170' FEL  :Field Location
FL1  .        Sec. 31  T. 16N  R. 60W    :Field Location, Line 1
COUN .        Laramie                    :County or Parish
STAT .        Wyoming                    :State or Province
NATI .        United States              :Nation
DATE .        28-Aug-2013                :Tools Above Rotary Table Date
APIN .        049-021-21034              :API Well Number
SECT .        31                         :Section
TOWN .        16N                        :Township
RANG .        60W                        :Range
DMF  .        KB                         :Drilling Measured From (Name of Drilling Elevation Reference)
LMF  .        KB                         :Logging Measured From (Name of Logging Elevation Reference)
PDAT .        GL                         :Permanent Datum
ENGI .        Max Pace                   :Engineer s Name
WITN .        Terry Eittreim             :Witness s Name
LATI .        41.306700 degrees          :Latitude
LONG .        -104.11980 degrees         :Longitude
LUL  .        Fort Morgan  CO            :Logging Unit Location
LUN  .        3022                       :Logging Unit Number
RUN  .        Run 1                      :Run Number
SON  .        CA0R-00043                 :Service Order Number
BHT  .DEGF     166.00000                 :Bottom Hole Temperature
BS   .IN         7.87500                 :Bit Size
MDEN .G/C3       2.65000                 :Matrix Density for Density Porosity
DFD  .LB/G       8.90000                 :Drilling Fluid Density
DFV  .S         65.00000                 :Drilling Fluid Viscosity
DFL  .C3         9.00000                 :Drilling Fluid Loss
RMFS .OHMM       1.11000                 :Resistivity of Mud Filtrate Sample
EKB  .F       5298.00000                 :Elevation of Kelly Bushing
EGL  .F       5286.00000                 :Elevation of Ground Level
BLI  .F       7686.00000                 :Bottom Log Interval
BSAL .PPM     3335.81519                 :Borehole Salinity
FLEV .F          8.00000                 :Depth of Drilling Fluid Level to LMF (Log Measured From)
MCST .DEGF      83.00000                 :Mudcake Sample Temperature
MFST .DEGF      83.00000                 :Mud Filtrate Sample Temperature
MRT  .DEGF     166.00000                 :Maximum Recorded Temperature
MST  .DEGF      83.00000                 :Mud Sample Temperature
RMCS .OHMM       1.85000                 :Resistivity of Mud Cake Sample
RMS  .OHMM       1.48000                 :Resistivity of Mud Sample
RW   .OHMM       1.00000                 :Connate Water Resistivity
TDD  .F       7680.00000                 :Driller Total Depth
TDL  .F       7686.00000                 :Logger Total Depth
TLI  .F       1025.00000                 :Top Log Interval
HIDE .        Wildcat                    :Header Identifier
MATR .        SAND                       :Rock Matrix for Neutron Porosity Corrections
FNUM .           1.00000                 :F-Numerator for Formation Factor Formula
FEXP .           2.00000                 :Exponent "m" for Formation Factor Formula
DFT  .        WATER                      :Drilling Fluid Type
DFPH .           8.00000                 :Drilling Fluid pH
MCSS .        Calculated                 :Mudcake Sample Source
MFSS .        Calculated                 :Mud Filtrate Sample Source
FD   .G/C3       1.00000                 :Fluid Density
MSS  .        Active Tank                :Mud Sample Source
OS1  .                                   :Other Services Line 1
OS2  .                                   :Other Services Line 2
OS3  .                                   :Other Services Line 3
OS4  .                                   :Other Services Line 4
OS5  .                                   :Other Services Line 5
R1   .                                   :Remarks Line 1
R2   .                                   :Remarks Line 2
R3   .                                   :Remarks Line 3
R4   .                                   :Remarks Line 4
R5   .                                   :Remarks Line 5
R6   .                                   :Remarks Line 6
R7   .                                   :Remarks Line 7
R8   .                                   :Remarks Line 8
TCS  .        05 00 00                   :Time Circulation Stopped
TLAB .        14 30 25                   :Time Logger At Bottom
NMT  .        NOBARITE                   :HRDD Mud Type for Nuclear Devices
EPD  .F         5286.000000              :Elevation of Permanent Datum above Mean Sea Level
APD  .F          12.000000               :Elevation of Depth Reference (LMF) above Permanent Datum
#-----------------------------------------------------------------------------
~CURVE INFORMATION
#MNEM.UNIT   API CODE                                  DESCRIPTION
#---- -----  --------                                  -----------------------
DEPT .F                                                :DEPTH (BOREHOLE) {F10.1}
AT10 .OHMM                                             :Array Induction Two Foot Resistivity A10 {F11.4}
AT30 .OHMM                                             :Array Induction Two Foot Resistivity A30 {F11.4}
AT90 .OHMM                                             :Array Induction Two Foot Resistivity A90 {F11.4}
GR   .GAPI                                             :Gamma Ray {F11.4}
HCAL .IN                                               :HRCC Caliper Calibrated {F11.4}
HDRA .G/C3                                             :Density Standoff Correction {F11.4}
NPHI .CFCF                                             :Thermal Neutron Porosity (original Ratio Method) in Selected Lithology {F11.4}
PEFZ .                                                 :Standard Resolution Formation Photoelectric Factor {F11.4}
RHOZ .G/C3                                             :Standard Resolution Formation Density {F11.4}
SP   .MV                                               :Spontaneous Potential {F11.4}
TNPH .CFCF                                             :Thermal Neutron Porosity (Ratio Method) in Selected Lithology {F11.4}
#-----------------------------------------------------------------------------
# 
#     DEPT       AF10       AF20       AF30       AF60       AF90       AO10       AO20       AO30       AO60       AO90       AT10       AT20       AT30       AT60       AT90     AHFCO60      AHMF      AHORT      AHORX      AHSCA     AHTCO10    AHTCO20    AHTCO30    AHTCO60    AHTCO90     AHTD1      AHTD2      AHTRT      AHTRX       CDF        CFTC       CNTC       CTEM       DCAL       DNPH       DPHZ       DSOZ       ECGR        ED        GDEV        GR        GTEM       HCAL       HDRA       HDRB       HGR        HMIN       HMNO       HNPO       HPRA       HTNP        ND        NPHI       NPOR       PEFZ    PXND_HILT     RHOZ       RSOZ     RWA_HILT     RXO8       RXOZ        SP        SPAR       STIT       TENS       TNPH     HTNP_SAN
#
~A  DEPT AT10 AT30 AT90 GR HCAL HDRA NPHI PEFZ RHOZ SP TNPH
# ...
5636.5 1.4662 1.4117 1.3932 128.7240 8.1369 0.2202 0.3855 3.3201 2.5249 -77.8438 0.3658
5637.0 1.5890 1.4986 1.4714 130.8425 8.0913 0.1765 0.3874 3.2088 2.4205 -78.0268 0.3700
5637.5 1.6779 1.5843 1.5604 125.2237 7.8859 0.2030 0.4188 3.1994 2.4013 -78.2917 0.3867
5638.0 1.6541 1.5632 1.5414 118.7398 8.2054 0.2347 0.4679 3.1175 2.3686 -78.2321 0.3959
5638.5 1.5958 1.5324 1.5137 113.5956 8.5020 0.2556 0.4754 3.0008 2.3526 -78.0000 0.4165
5639.0 1.5301 1.4839 1.4671 117.7016 8.1597 0.2499 0.4703 2.9397 2.3572 -77.6518 0.4387
5639.5 1.4826 1.4409 1.4392 119.8200 8.7074 0.2454 0.4200 2.9926 2.3953 -77.7708 0.4479
5640.0 1.4210 1.3863 1.3697 118.0045 8.6161 0.2419 0.4290 3.0647 2.4230 -77.8125 0.4114
5640.5 1.3952 1.3661 1.3417 109.8354 8.2738 0.2472 0.3965 3.0851 2.4342 -77.6786 0.4082
5641.0 1.4141 1.3935 1.3576 105.6427 8.4107 0.2554 0.4138 3.0334 2.4324 -77.6979 0.3700
5641.5 1.4477 1.4310 1.3901 105.6427 8.6846 0.2680 0.3844 2.9755 2.4309 -77.7411 0.3851
5642.0 1.5058 1.4783 1.4316 109.7054 8.8215 0.2867 0.4137 2.9237 2.4224 -77.8646 0.3641
5642.5 1.5453 1.5136 1.4701 111.1744 9.0725 0.2986 0.4257 2.8724 2.3803 -78.1071 0.3944
5643.0 1.5748 1.5786 1.5362 118.7392 8.9356 0.2844 0.4510 2.8138 2.3345 -78.0625 0.4105
5643.5 1.6068 1.6116 1.5765 114.8494 8.7530 0.2638 0.4351 2.8058 2.3482 -77.8750 0.4292
5644.0 1.6738 1.6559 1.6115 117.5727 8.3195 0.2584 0.3916 2.8689 2.4023 -77.9375 0.4085
5644.5 1.5423 1.5486 1.5251 110.7862 8.3195 0.2625 0.3434 2.9167 2.4168 -77.8929 0.3769
5645.0 1.4310 1.4162 1.3947 113.6388 8.8899 0.2582 0.3385 2.8437 2.3684 -77.8750 0.3537
5645.5 1.3514 1.3608 1.3564 119.3014 9.1181 0.2385 0.3489 2.7402 2.3034 -77.7054 0.3495
5646.0 1.3081 1.3200 1.3260 116.1027 9.2094 0.2235 0.3998 2.6806 2.2948 -77.5938 0.3567
5646.5 1.2726 1.2801 1.2825 121.2465 9.0268 0.2129 0.4463 2.7335 2.3173 -77.5804 0.3880
5647.0 1.2569 1.2498 1.2324 115.0224 8.7758 0.2145 0.4662 2.8193 2.3468 -77.5938 0.3986
5647.5 1.2759 1.2542 1.2323 120.4683 9.1638 0.2347 0.4252 2.8679 2.3609 -77.5729 0.4199
5648.0 1.2835 1.2607 1.2334 113.5091 9.0953 0.2559 0.3749 2.8551 2.3271 -77.9107 0.4222
5648.5 1.2950 1.2765 1.2439 114.0704 8.9356 0.2733 0.3726 2.7637 2.2815 -77.6875 0.3908
5649.0 1.3123 1.2832 1.2498 108.1923 8.0000 0.2916 0.3826 2.6892 2.2683 -77.4196 0.3693
5649.5 1.3206 1.2904 1.2580 108.4949 8.3195 0.3110 0.3852 2.6498 2.3074 -77.2083 0.3455
5650.0 1.3154 1.2876 1.2532 102.4869 8.7758 0.3157 0.3888 2.6876 2.3501 -77.1339 0.3445
5650.5 1.3172 1.3063 1.2711 106.8525 8.4336 0.3003 0.4092 2.7731 2.3637 -77.0625 0.3664
5651.0 1.3454 1.3162 1.2831 105.3397 8.6161 0.2686 0.4179 2.8553 2.3507 -77.1563 0.3853
5651.5 1.3703 1.3326 1.2950 114.1579 8.3879 0.2457 0.4157 2.8960 2.3546 -76.9464 0.3979
5652.0 1.3741 1.3345 1.2950 115.0657 8.5477 0.2192 0.4124 2.8997 2.3540 -76.7917 0.3908
5652.5 1.3665 1.3268 1.2849 116.7947 8.5248 0.1976 0.4318 2.9077 2.3624 -76.8839 0.3914
5653.0 1.3676 1.3181 1.2773 115.1950 8.3651 0.1711 0.4364 2.9049 2.3625 -77.0104 0.3996
5653.5 1.3703 1.3189 1.2731 106.1178 8.0913 0.1542 0.4415 2.8914 2.3722 -76.9464 0.4069
5654.0 1.3732 1.3163 1.2688 107.4152 8.1826 0.1554 0.4167 2.8757 2.3749 -76.8750 0.4210
5654.5 1.3708 1.3186 1.2685 113.4668 8.1369 0.1709 0.4104 2.8754 2.3692 -76.8125 0.4046
5655.0 1.3723 1.3213 1.2693 122.9758 8.2738 0.1912 0.3980 2.8840 2.3678 -76.8438 0.3985
5655.5 1.3800 1.3282 1.2689 124.7905 8.2510 0.1945 0.3950 2.9171 2.3611 -76.8333 0.3793
5656.0 1.3931 1.3525 1.2989 124.7472 8.5477 0.1912 0.3853 2.9657 2.3771 -76.8661 0.3663
5656.5 1.4193 1.3594 1.3141 122.8019 8.7302 0.1809 0.4089 3.0206 2.3833 -76.7589 0.3632
5657.0 1.4422 1.3677 1.3223 125.2231 7.7262 0.1713 0.4596 3.0321 2.3973 -76.5625 0.3907
5657.5 1.5819 1.4640 1.4170 126.5200 8.2966 0.1634 0.4412 3.0183 2.4172 -76.5729 0.4179
5658.0 1.7419 1.6554 1.5812 128.6380 7.8859 0.1574 0.3871 2.9918 2.4372 -76.5982 0.3968
5658.5 1.8848 1.7727 1.7175 127.2551 7.8631 0.1631 0.3248 2.9548 2.4736 -76.3958 0.3417
5659.0 1.8771 1.7851 1.7335 125.6990 7.9087 0.1553 0.3319 2.9032 2.4790 -76.6250 0.3003
5659.5 1.9271 1.8387 1.7847 127.3414 7.9201 0.1436 0.3596 2.8795 2.4709 -77.0521 0.3169
5660.0 2.0014 1.9318 1.8507 119.3442 8.0913 0.1543 0.3744 2.9129 2.4672 -77.2768 0.3383
5660.5 2.0101 1.9507 1.8537 115.7141 8.2738 0.1943 0.3565 2.9453 2.4702 -77.5000 0.3576
5661.0 1.9975 1.9466 1.8635 111.9535 7.9544 0.2485 0.3376 2.9264 2.4743 -77.5446 0.3574
5661.5 1.9953 1.9684 1.9028 112.8611 8.2282 0.2759 0.3173 2.8468 2.4439 -77.6250 0.3364
5662.0 1.9956 1.9850 1.9291 112.0821 8.4564 0.2932 0.2996 2.7671 2.4189 -77.6042 0.3167
5662.5 1.9790 2.0121 1.9807 112.0825 8.5477 0.3082 0.3127 2.7063 2.4213 -77.4018 0.2959
5663.0 1.9795 2.0385 2.0350 112.9471 8.4792 0.3092 0.3275 2.6760 2.4336 -77.1458 0.3016
5663.5 2.0822 2.0982 2.1305 109.4894 8.5477 0.2967 0.3360 2.6767 2.4630 -77.2232 0.3105
5664.0 2.1781 2.1865 2.2280 113.2499 8.4107 0.2714 0.3253 2.7029 2.4833 -77.4479 0.3224
5664.5 2.2516 2.2758 2.3234 118.4369 8.5020 0.2548 0.3074 2.7426 2.4980 -77.4554 0.3176
5665.0 2.1551 2.1723 2.2250 122.3702 8.1141 0.2657 0.3103 2.7850 2.4984 -77.2292 0.3177
5665.5 2.0773 2.0944 2.1280 120.5549 8.3651 0.2886 0.3093 2.7962 2.4687 -77.3571 0.3167
5666.0 1.9955 2.0493 2.1068 122.6735 8.5477 0.3182 0.3262 2.7660 2.4472 -77.3333 0.3197
5666.5 1.9353 1.9939 2.0154 125.0509 8.2966 0.3257 0.3292 2.7144 2.4304 -77.1250 0.3257
5667.0 1.8754 1.8993 1.9071 124.6188 8.3651 0.3012 0.3627 2.7011 2.4196 -76.8854 0.3197
5667.5 1.8244 1.8256 1.7969 123.0186 8.5705 0.2622 0.3717 2.7292 2.4254 -76.8958 0.3340
5668.0 1.8692 1.8205 1.7901 127.6004 8.4336 0.2257 0.3726 2.8046 2.4346 -77.1429 0.3508
5668.5 1.8892 1.8652 1.8161 120.0356 8.0000 0.2186 0.3704 2.8796 2.4693 -77.3021 0.3655
5669.0 1.9337 1.9043 1.8079 117.7022 8.4336 0.2507 0.3590 2.9393 2.5164 -77.3036 0.3497
5669.5 1.9236 1.9051 1.8672 109.2304 8.3651 0.2656 0.3474 2.9504 2.5172 -77.0625 0.3532
5670.0 1.9132 1.8755 1.8477 119.8205 8.9128 0.2724 0.3343 2.9306 2.5132 -76.7679 0.3326
5670.5 1.8790 1.8448 1.8214 129.1999 8.4107 0.2428 0.3061 2.8914 2.4883 -76.5938 0.3303
5671.0 1.8056 1.7673 1.7495 136.9802 8.2738 0.2076 0.3268 2.8251 2.4831 -76.3750 0.3004
5671.5 1.6690 1.6047 1.6069 146.3598 8.2738 0.1715 0.3341 2.7473 2.4758 -76.1161 0.3147
5672.0 1.6068 1.5462 1.5397 146.3601 8.0228 0.1460 0.3755 2.7156 2.4630 -76.4643 0.3238
5672.5 1.8561 1.7768 1.7426 138.8389 8.4564 0.1482 0.3737 2.7756 2.4704 -77.1771 0.3388
5673.0 2.0964 2.0362 1.9547 122.8028 7.9544 0.1521 0.3543 2.8792 2.4684 -77.4018 0.3496
5673.5 2.1821 2.1280 2.0357 114.2009 7.9544 0.1502 0.3365 2.9362 2.4621 -77.2917 0.3449
5674.0 2.1803 2.1086 2.0200 109.1002 7.9544 0.1350 0.3049 2.9300 2.4595 -77.2054 0.3290
5674.5 2.2028 2.1011 2.0342 116.2752 8.0000 0.1290 0.3119 2.9141 2.4519 -77.0729 0.2991
5675.0 2.2742 2.1700 2.1017 113.6817 7.9315 0.1459 0.3120 2.9337 2.4486 -77.1146 0.3062
5675.5 2.3355 2.2531 2.1890 125.4820 8.2282 0.1703 0.3084 2.9479 2.4526 -77.2054 0.3030
5676.0 2.4183 2.3486 2.2895 116.4055 7.9544 0.1842 0.3021 2.9520 2.4876 -77.2604 0.2962
5676.5 2.4399 2.3761 2.3235 119.4309 7.9544 0.1680 0.3072 2.9387 2.5197 -77.3125 0.2942
5677.0 2.3431 2.2972 2.2563 111.4347 8.1255 0.1494 0.3201 2.9409 2.5141 -77.1458 0.3065
5677.5 2.3248 2.2472 2.2155 114.5461 8.0000 0.1469 0.3208 2.9496 2.5046 -76.9821 0.3230
5678.0 2.2906 2.2263 2.2193 120.0790 8.2966 0.1618 0.3240 2.9585 2.4927 -76.9375 0.3175
5678.5 2.2998 2.2061 2.1817 118.0910 8.0456 0.1683 0.3238 2.9577 2.4936 -76.9583 0.3223
5679.0 2.2673 2.2037 2.1801 115.9734 8.2738 0.1626 0.3519 2.9472 2.4860 -77.0893 0.3171
5679.5 2.2771 2.2021 2.1798 110.5272 8.0456 0.1652 0.3459 2.9568 2.4807 -76.9583 0.3431
5680.0 2.2869 2.2498 2.2198 115.3681 7.9087 0.1830 0.3455 2.9653 2.4903 -77.0625 0.3364
5680.5 2.2441 2.1992 2.1735 113.5956 8.1826 0.1911 0.3145 2.9756 2.4730 -77.2396 0.3302
5681.0 2.2187 2.1598 2.1368 107.1548 8.1597 0.1869 0.2981 2.9752 2.4813 -77.4107 0.3115
5681.5 2.1985 2.1191 2.0951 105.0798 8.1369 0.1656 0.3080 2.9870 2.4731 -77.3021 0.3031
