~VERSION INFORMATION
VERS.           1.2   :CWLS Log ASCII Standard - VERSION 1.2
WRAP.           NO    :One Line per depth step
PROD.  Schlumberger   :LAS Producer
PROG.  DLIS to ASCII 17C0-152                          :LAS Program name and version
CREA.        2013/10/21 20:50                          :LAS Creation date {YYYY/MM/DD hh:mm}
DLIS_CREA.  2013-Oct-21 08:39                          :DLIS Creation date and time {YYYY-MMM-DD hh:mm}
SOURCE.     9ec8b34d-aca5-43ef-91a8-8c41069c79cd       :DLIS File Name
#--------------------------------------------------
~WELL INFORMATION
#MNEM.UNIT      DATA             DESCRIPTION
#---- ------ --------------   -----------------------------
STRT .F      901.5000        :START DEPTH        # original; data subset to 5500-8000
STOP .F      7746.5000       :STOP DEPTH        # original; data subset to 5500-8000
STEP .F       0.5000         :STEP       
NULL .          -999.25      :NULL VALUE
COMP .                 COMPANY:  Bear Oil and Gas, Inc.             
WELL .                    WELL:  McGahan Farms 32 31                
FLD  .                   FIELD:  Wildcat                            
LOC  .                LOCATION:  SHL: SWNE 2563' FNL & 1423' FEL    
CNTY .                  COUNTY:  Laramie                            
STAT .                   STATE:  Wyoming                            
CTRY .                 COUNTRY:  United States                      
SRVC .         SERVICE COMPANY:  Schlumberger                       
LATI .DEG             LATITUDE:  41.309490 degrees                  
LONG .DEG            LONGITUDE:  -104.12429 degrees                 
API  .              API NUMBER:  49-021-21045                       
DATE .                LOG DATE:  21-Oct-2013
UWI  .          UNIQUE WELL ID:  49021210450000                     
#-----------------------------------------------------------------------------
~PARAMETER INFORMATION
#MNEM.UNIT    VALUE                      DESCRIPTION
#---- -----   --------------------       ------------------------
CN   .        Bear Oil and Gas  Inc.     :Company Name
WN   .        McGahan Farms 32 31        :Well Name
FN   .        Wildcat                    :Field Name
FL   .        SHL  SWNE 2563' FNL & 1423' FEL :Field Location
FL1  .        Section 31  Township 16N  Range 60W :Field Location, Line 1
COUN .        Laramie                    :County or Parish
STAT .        Wyoming                    :State or Province
NATI .        United States              :Nation
DATE .        21-Oct-2013                :Tools Above Rotary Table Date
APIN .        49-021-21045               :API Well Number
SECT .        31                         :Section
TOWN .        16N                        :Township
RANG .        60W                        :Range
DMF  .        KB                         :Drilling Measured From (Name of Drilling Elevation Reference)
LMF  .        KB                         :Logging Measured From (Name of Logging Elevation Reference)
PDAT .        GL                         :Permanent Datum
ENGI .        Max Pace                   :Engineer s Name
WITN .        Terry                      :Witness s Name
LATI .        41.309490 degrees          :Latitude
LONG .        -104.12429 degrees         :Longitude
LUL  .        Fort Morgan  CO            :Logging Unit Location
LUN  .        3022                       :Logging Unit Number
RUN  .        Run 1                      :Run Number
SON  .        CA0R-00056                 :Service Order Number
BHT  .DEGF     166.00000                 :Bottom Hole Temperature
BS   .IN         7.87500                 :Bit Size
MDEN .G/C3       2.65000                 :Matrix Density for Density Porosity
DFD  .LB/G       9.10000                 :Drilling Fluid Density
DFV  .S         63.00000                 :Drilling Fluid Viscosity
DFL  .C3         8.80000                 :Drilling Fluid Loss
RMFS .OHMM       1.24500                 :Resistivity of Mud Filtrate Sample
EKB  .F       5307.00000                 :Elevation of Kelly Bushing
EGL  .F       5295.00000                 :Elevation of Ground Level
BLI  .F       7730.00000                 :Bottom Log Interval
BSAL .PPM        0.00000                 :Borehole Salinity
FLEV .F          8.00000                 :Depth of Drilling Fluid Level to LMF (Log Measured From)
MCST .DEGF      61.00000                 :Mudcake Sample Temperature
MFST .DEGF      61.00000                 :Mud Filtrate Sample Temperature
MRT  .DEGF     166.00000                 :Maximum Recorded Temperature
MST  .DEGF      61.00000                 :Mud Sample Temperature
RMCS .OHMM       2.07500                 :Resistivity of Mud Cake Sample
RMS  .OHMM       1.66000                 :Resistivity of Mud Sample
RW   .OHMM       1.00000                 :Connate Water Resistivity
TDD  .F       7719.99951                 :Driller Total Depth
TDL  .F       7730.00000                 :Logger Total Depth
TLI  .F       1023.75000                 :Top Log Interval
HIDE .        Wildcat                    :Header Identifier
MATR .        SAND                       :Rock Matrix for Neutron Porosity Corrections
FNUM .           1.00000                 :F-Numerator for Formation Factor Formula
FEXP .           2.00000                 :Exponent "m" for Formation Factor Formula
DFT  .        Fresh Water                :Drilling Fluid Type
DFPH .           7.50000                 :Drilling Fluid pH
MCSS .        Calculated                 :Mudcake Sample Source
MFSS .        Calculated                 :Mud Filtrate Sample Source
FD   .G/C3       1.00000                 :Fluid Density
MSS  .        Active Tank                :Mud Sample Source
OS1  .                                   :Other Services Line 1
OS2  .                                   :Other Services Line 2
OS3  .                                   :Other Services Line 3
OS4  .                                   :Other Services Line 4
OS5  .                                   :Other Services Line 5
R1   .        Tool string run as per tool sketch :Remarks Line 1
R2   .        All Schlumberger depth control procedures followed :Remarks Line 2
R3   .        IDW used as primary depth reference :Remarks Line 3
R4   .        Z Chart used as secondary depth reference :Remarks Line 4
R5   .        Matrix Density zoned as per client request :Remarks Line 5
R6   .        Crew  Max Pace  Tyler Riter  Cody Bruns :Remarks Line 6
R7   .                                   :Remarks Line 7
R8   .                                   :Remarks Line 8
TCS  .        19 00 00                   :Time Circulation Stopped
TLAB .        06 35 50                   :Time Logger At Bottom
NMT  .        NOBARITE                   :HRDD Mud Type for Nuclear Devices
EPD  .C3         5295.000000             :Elevation of Permanent Datum above Mean Sea Level
APD  .F          12.000000               :Elevation of Depth Reference (LMF) above Permanent Datum
#-----------------------------------------------------------------------------
~CURVE INFORMATION
#MNEM.UNIT   API CODE                                  DESCRIPTION
#---- -----  --------                                  -----------------------
DEPT .F                                                :DEPTH (BOREHOLE) {F12.4}
AT10 .OHMM                                             :Array Induction Two Foot Resistivity A10 {F11.4}
AT30 .OHMM                                             :Array Induction Two Foot Resistivity A30 {F11.4}
AT90 .OHMM                                             :Array Induction Two Foot Resistivity A90 {F11.4}
DT   .US/F                                             :Delta-T (also called Slowness or Interval Transit Time) {F11.4}
GR   .GAPI                                             :Gamma Ray {F11.4}
HCAL .IN                                               :HRCC Caliper Calibrated {F11.4}
HDRA .G/C3                                             :Density Standoff Correction {F11.4}
NPHI .CFCF                                             :Thermal Neutron Porosity (original Ratio Method) in Selected Lithology {F11.4}
PEFZ .                                                 :Standard Resolution Formation Photoelectric Factor {F11.4}
RHOZ .G/C3                                             :Standard Resolution Formation Density {F11.4}
SP   .MV                                               :Spontaneous Potential {F11.4}
TNPH .CFCF                                             :Thermal Neutron Porosity (Ratio Method) in Selected Lithology {F11.4}
#-----------------------------------------------------------------------------
# 
#      DEPT        AF10       AF20       AF30       AF60       AF90       AO10       AO20       AO30       AO60       AO90       AT10       AT20       AT30       AT60       AT90     AHFCO60      AHMF      AHORT      AHORX      AHSCA     AHTCO10    AHTCO20    AHTCO30    AHTCO60    AHTCO90     AHTD1      AHTD2      AHTRT      AHTRX       CDF        CFTC       CNTC       CTEM       DCAL       DNPH       DPHZ       DSOZ        DT        ECGR        ED        GDEV        GR        GTEM       HCAL       HDRA       HDRB       HGR        HMIN       HMNO       HNPO       HPRA       HTNP       ITT         ND        NPHI       NPOR       PEFZ    PXND_HILT     RHOZ       RSOZ     RWA_HILT     RXO8       RXOZ        SP        SPAR       SPHI       STIT       TENS       TNPH     HTNP_SAN
#
~A  DEPT AT10 AT30 AT90 DT GR HCAL HDRA NPHI PEFZ RHOZ SP TNPH
# ...
5783.5000 2.1818 2.1172 2.0581 94.0232 115.9234 7.9270 0.1639 0.3258 2.9679 2.5240 182.7679 0.3003
5784.0000 2.1787 2.0994 2.0415 94.5029 106.8680 7.8271 0.1365 0.3340 2.9386 2.5049 182.5982 0.3188
5784.5000 2.1373 2.0593 2.0061 94.8488 113.2312 8.0769 0.1409 0.3517 2.9712 2.5072 182.6250 0.3334
5785.0000 2.0786 2.0179 1.9676 95.1398 121.1443 8.1519 0.1524 0.3477 3.0235 2.4909 182.6696 0.3504
5785.5000 2.0309 1.9754 1.9243 96.0344 122.8573 8.2019 0.1876 0.3583 3.0863 2.4871 182.7857 0.3484
5786.0000 1.9981 1.9385 1.8931 96.2852 119.7166 8.1269 0.2133 0.3628 3.1388 2.4614 182.6339 0.3488
5786.5000 1.9871 1.9382 1.8909 96.3669 109.4372 7.8770 0.2180 0.3624 3.1615 2.4675 182.5268 0.3506
5787.0000 2.0224 1.9607 1.9165 96.4565 105.7665 8.1394 0.1937 0.3456 3.1879 2.4788 182.4583 0.3387
5787.5000 2.0751 2.0226 1.9687 96.1588 105.4809 8.1019 0.1706 0.3153 3.2026 2.4969 182.4732 0.3371
5788.0000 1.9772 1.9375 1.8937 96.5739 105.9709 7.9770 0.1646 0.3331 3.1965 2.4817 182.8304 0.3186
5788.5000 1.9211 1.8408 1.8059 97.4977 112.5789 8.5017 0.1763 0.3499 3.1563 2.4683 183.0446 0.3254
5789.0000 1.9117 1.8303 1.7956 97.2712 108.5817 8.2269 0.1894 0.3708 3.1546 2.4769 183.0089 0.3410
5789.5000 1.9635 1.8931 1.8502 97.0383 111.0288 8.3518 0.1946 0.3692 3.2322 2.4883 182.9479 0.3488
5790.0000 2.0114 1.9386 1.8914 96.5340 101.7287 8.0020 0.2116 0.3435 3.3485 2.5105 182.7946 0.3477
5790.5000 1.9746 1.8907 1.8580 96.2285 107.1940 8.0270 0.2182 0.3386 3.3703 2.5070 182.8482 0.3370
5791.0000 1.9467 1.8633 1.8167 96.6304 106.9497 8.0769 0.2172 0.3229 3.3081 2.5170 182.9911 0.3276
5791.5000 1.9991 1.9012 1.8533 96.5380 111.7216 7.9270 0.1958 0.3590 3.2502 2.5204 182.9643 0.3154
5792.0000 2.0285 1.9479 1.8943 96.2274 104.3797 7.9395 0.1741 0.3670 3.2450 2.5248 182.9821 0.3388
5792.5000 2.0613 1.9785 1.9184 96.0978 98.9958 8.1769 0.1471 0.3718 3.2375 2.5060 183.0104 0.3422
5793.0000 2.0900 2.0074 1.9411 95.4049 100.3417 8.2519 0.1251 0.3447 3.2222 2.5145 182.9196 0.3513
5793.5000 2.1478 2.0537 1.9732 94.5333 104.2577 7.9520 0.1041 0.3366 3.2310 2.5267 182.8661 0.3394
5794.0000 2.2187 2.1208 2.0531 94.8027 108.9074 8.0769 0.1135 0.3140 3.3006 2.5631 182.8304 0.3249
5794.5000 2.1644 2.0807 2.0150 94.2793 106.7052 7.7271 0.1293 0.3289 3.3029 2.5381 182.7589 0.3124
5795.0000 2.1231 2.0311 1.9729 94.2937 109.6420 8.0020 0.1607 0.3363 3.2402 2.5133 182.6607 0.3180
5795.5000 2.1015 2.0056 1.9477 94.5974 107.6836 8.0020 0.1718 0.3507 3.1397 2.4799 182.8438 0.3236
5796.0000 2.0782 2.0111 1.9446 94.3449 110.3764 8.2519 0.1825 0.3193 3.1153 2.5059 183.1161 0.3322
5796.5000 2.0463 1.9759 1.9186 95.3029 104.5428 8.0270 0.1837 0.2969 3.1813 2.5167 183.0446 0.3183
5797.0000 1.9729 1.9084 1.8573 96.5544 104.7881 7.8520 0.2123 0.2970 3.2809 2.5341 182.8750 0.3009
5797.5000 1.9160 1.8484 1.8028 97.3927 108.4586 7.9770 0.2323 0.3099 3.3068 2.5108 182.9732 0.2919
5798.0000 1.8753 1.8089 1.7579 98.2868 113.3128 8.2768 0.2434 0.3339 3.2476 2.5011 183.2321 0.2908
5798.5000 1.8687 1.8141 1.7631 98.0042 112.3338 8.2519 0.2168 0.3404 3.1590 2.4797 183.2813 0.3162
5799.0000 1.9059 1.8415 1.7888 97.5115 110.6205 8.0270 0.1889 0.3497 3.1124 2.4875 183.3214 0.3256
5799.5000 1.9325 1.8681 1.8043 97.1064 105.1951 8.0270 0.1606 0.3305 3.0996 2.4957 183.2768 0.3362
5800.0000 1.9849 1.9143 1.8635 96.4953 109.8456 7.8021 0.1536 0.3376 3.1115 2.4827 183.1250 0.3300
5800.5000 1.9189 1.8620 1.8175 96.7272 103.9718 8.0270 0.1688 0.3264 3.1235 2.4642 183.0089 0.3307
5801.0000 1.8995 1.8218 1.7926 97.9066 104.5030 8.3018 0.1853 0.3125 3.0946 2.4481 183.0938 0.3224
5801.5000 1.8479 1.7975 1.7635 98.2022 100.5863 8.0769 0.1881 0.3127 3.0616 2.4655 183.1250 0.2982
5802.0000 1.8597 1.7938 1.7583 98.0143 104.6657 8.0270 0.1696 0.3251 3.0503 2.4786 183.4643 0.2987
5802.5000 1.8563 1.7992 1.7600 97.2443 109.3150 8.3518 0.1670 0.3245 3.1021 2.4904 183.2143 0.3142
5803.0000 1.8634 1.8144 1.7665 97.4409 107.8468 7.8271 0.1931 0.3180 3.1361 2.5048 182.9375 0.3230
5803.5000 1.7841 1.7423 1.6969 97.5869 104.7466 8.3268 0.2281 0.3002 3.1232 2.4960 182.9018 0.3082
5804.0000 1.7330 1.6769 1.6312 98.4814 104.7467 8.2019 0.2467 0.3332 3.0742 2.4760 183.1146 0.3107
5804.5000 1.7022 1.6453 1.5905 99.5007 106.2966 8.4642 0.2336 0.3561 3.0060 2.4440 183.5179 0.3354
5805.0000 1.6962 1.6498 1.5981 99.7207 108.2547 8.4518 0.2197 0.3483 2.9828 2.4334 183.6250 0.3461
5805.5000 1.7189 1.6555 1.6009 100.1738 110.9468 8.0020 0.2066 0.3542 2.9807 2.4283 183.5446 0.3302
5806.0000 1.7683 1.6858 1.6295 99.6082 115.2704 8.1019 0.2047 0.3764 3.0167 2.4399 183.3393 0.3304
5806.5000 1.8090 1.7339 1.6710 98.5314 115.7596 7.9270 0.1914 0.3914 3.0435 2.4578 183.3482 0.3454
5807.0000 1.8604 1.7832 1.7211 97.2439 109.8862 7.9020 0.1808 0.3853 3.0957 2.4834 183.1786 0.3582
5807.5000 1.8633 1.7923 1.7319 97.6091 107.4390 7.9270 0.1731 0.3688 3.1331 2.4891 182.8646 0.3585
5808.0000 1.8195 1.7514 1.7014 97.6496 104.5021 7.8770 0.1828 0.4031 3.1273 2.4718 182.9464 0.3566
5808.5000 1.7863 1.7236 1.6790 98.2258 103.7680 8.1269 0.2017 0.4047 3.0565 2.4429 183.1875 0.3832
5809.0000 1.7738 1.7155 1.6721 99.0018 102.2995 8.4018 0.2309 0.3724 2.9791 2.4359 183.2679 0.3765
5809.5000 1.7520 1.6962 1.6557 99.1894 99.6076 8.3268 0.2524 0.3353 2.9478 2.4365 183.3661 0.3538
5810.0000 1.7224 1.6660 1.6305 99.2398 99.1179 8.1519 0.2592 0.3162 2.9287 2.4456 183.6250 0.3418
5810.5000 1.7033 1.6461 1.6155 99.1080 97.2269 8.6017 0.2455 0.3253 2.9200 2.4328 183.7143 0.3223
5811.0000 1.7089 1.6441 1.6070 99.3018 103.5145 8.5017 0.2309 0.3637 2.9180 2.4336 183.5446 0.3191
5811.5000 1.7076 1.6526 1.6109 99.5060 101.5561 8.3518 0.2132 0.3889 2.9257 2.4277 183.2500 0.3419
5812.0000 1.6967 1.6468 1.6078 99.4882 103.6105 8.3518 0.2130 0.3886 2.9324 2.4359 183.2500 0.3604
5812.5000 1.6981 1.6376 1.5971 99.3429 102.7076 8.2768 0.2245 0.3545 2.9648 2.4335 183.4732 0.3625
5813.0000 1.7012 1.6425 1.5992 99.5343 103.6870 8.5892 0.2582 0.3589 3.0209 2.4439 183.6354 0.3419
5813.5000 1.6830 1.6229 1.5718 100.0787 103.7683 8.4518 0.2929 0.3583 3.0590 2.4529 183.5893 0.3554
5814.0000 1.6572 1.5949 1.5427 100.2317 103.2791 8.2269 0.3059 0.3910 3.0285 2.4526 183.5089 0.3543
5814.5000 1.6442 1.5812 1.5316 100.7547 102.2994 8.7516 0.3021 0.3581 2.9726 2.4530 183.6964 0.3696
5815.0000 1.6300 1.5618 1.5112 100.8586 101.9325 8.6766 0.2748 0.3598 2.9514 2.4427 183.8661 0.3461
5815.5000 1.6287 1.5729 1.5162 100.4078 96.5477 8.5892 0.2441 0.3390 2.9647 2.4375 184.0625 0.3401
5816.0000 1.6871 1.6259 1.5643 100.6262 101.4434 8.4518 0.2137 0.3564 3.0090 2.4467 183.9479 0.3321
5816.5000 1.7459 1.6682 1.5959 99.0226 102.0551 8.0270 0.1857 0.3836 3.0903 2.4466 183.8929 0.3441
5817.0000 1.8467 1.7702 1.6958 97.1391 102.7887 8.1019 0.1936 0.3768 3.1773 2.4732 183.3929 0.3554
5817.5000 1.8200 1.7377 1.6690 97.5255 94.5084 7.8770 0.2317 0.3708 3.2106 2.5012 183.2321 0.3530
5818.0000 1.7182 1.6416 1.5850 96.7302 90.1031 8.1394 0.2544 0.3536 3.1175 2.5027 183.5179 0.3611
5818.5000 1.6645 1.6010 1.5460 98.7265 93.0405 8.7516 0.2557 0.3594 3.0199 2.4815 183.9196 0.3600
5819.0000 1.6482 1.5874 1.5384 99.9560 96.9155 8.4018 0.2311 0.3450 2.9763 2.4311 184.0179 0.3661
5819.5000 1.6778 1.6122 1.5637 99.7794 102.0556 8.6267 0.2275 0.3284 3.0019 2.4285 183.8661 0.3273
5820.0000 1.7045 1.6475 1.5944 99.4260 99.4446 8.5017 0.2160 0.3272 3.0168 2.4328 183.6875 0.3117
5820.5000 1.7419 1.6792 1.6341 98.6307 103.3601 8.3643 0.2072 0.3584 3.0250 2.4445 183.6518 0.3093
5821.0000 1.7540 1.6911 1.6399 98.7311 101.1569 8.3268 0.2131 0.3580 3.0551 2.4534 183.6696 0.3366
5821.5000 1.7442 1.6858 1.6295 98.2959 108.4183 8.3768 0.2274 0.3277 3.0932 2.4473 183.6429 0.3466
5822.0000 1.7082 1.6493 1.5985 98.9942 103.0336 8.3518 0.2357 0.3241 3.1010 2.4438 183.6875 0.3341
5822.5000 1.6693 1.6076 1.5641 99.1117 104.4611 8.4268 0.2246 0.3322 3.1027 2.4488 183.6696 0.3276
5823.0000 1.6806 1.6195 1.5686 99.2250 101.5241 8.4518 0.2140 0.3596 3.1512 2.4706 183.5208 0.3225
5823.5000 1.6905 1.6427 1.5846 99.7083 103.4822 8.1519 0.2157 0.3854 3.2200 2.4987 183.5446 0.3362
