~VERSION INFORMATION
VERS.           2.0   :CWLS Log ASCII Standard - VERSION 2.0
WRAP.           NO    :One Line per depth step
PROD.  Schlumberger   :LAS Producer
PROG.  DLIS to ASCII 19C2-270                          :LAS Program name and version
CREA.        2013/09/21 19:52                          :LAS Creation date {YYYY/MM/DD hh:mm}
DLIS_CREA.  2013-Sep-21 19:47                          :DLIS Creation date and time {YYYY-MMM-DD hh:mm}
SOURCE.     49-021-21035_McGahan Farms 42-31_Run_PEX_Mainpass.dlis  :DLIS File Name
FILE-ID.     MaxWell_3Dlis                             :File Identification Number
#--------------------------------------------------
~WELL INFORMATION
#MNEM.UNIT      DATA             DESCRIPTION
#---- ------ --------------   -----------------------------
STRT .F      1000.5          :START DEPTH        # original; data subset to 5500-8000
STOP .F      7716.5          :STOP DEPTH        # original; data subset to 5500-8000
STEP .F       0.5            :STEP     
NULL .          -999.25      :NULL VALUE
COMP .        Bear Oil & Gas, Inc                      :COMPANY
WELL .        McGahan Farms 42-31                      :WELL
FLD  .        Wildcat                                  :FIELD
LOC  .        Lat/Long: 41.3098/-104.1197              :LOCATION
CNTY .        Laramie                                  :COUNTY
STAT .        Wyoming                                  :STATE
CTRY .        USA                                      :COUNTRY
API  .        49-021-21035                             :API NUMBER
UWI  .        49021210350000                           :UNIQUE WELL ID
DATE .        21-Sep-2013                              :LOG DATE {DD-MMM-YYYY}
SRVC .        Schlumberger                             :SERVICE COMPANY
LATI .DEG     41.309800 degrees                        :LATITUDE
LONG .DEG     -104.11970 degrees                       :LONGITUDE
GDAT .                                                 :GeoDetic Datum
SECT .        31                                       :Section
RANG .        60W                                      :Range
TOWN .        16N                                      :Township
#-----------------------------------------------------------------------------
~PARAMETER INFORMATION
#MNEM.UNIT    VALUE                      DESCRIPTION
#---- -----   --------------------       ------------------------
CN   .        Bear Oil & Gas  Inc        :Company Name
WN   .        McGahan Farms 42-31        :Well Name
FN   .        Wildcat                    :Field Name
FL   .        Lat/Long  41.3098/-104.1197 :Field Location
FL1  .        SHL   2375' FNL X 190' FEL SENE :Field Location, Line 1
COUN .        Laramie                    :County or Parish
STAT .        Wyoming                    :State or Province
NATI .        USA                        :Nation
DATE .        21-Sep-2013                :Tools Above Rotary Table Date
APIN .        49-021-21035               :API Well Number
SECT .        31                         :Section
TOWN .        16N                        :Township
RANG .        60W                        :Range
DMF  .        KB                         :Drilling Measured From (Name of Drilling Elevation Reference)
LMF  .        KB                         :Logging Measured From (Name of Logging Elevation Reference)
PDAT .        GL                         :Permanent Datum
ENGI .        Arvin Shi                  :Engineer s Name
WITN .        Terry Eittreim             :Witness s Name
LATI .        41.309800 degrees          :Latitude
LONG .        -104.11970 degrees         :Longitude
LUL  .        Fort Morgan                :Logging Unit Location
LUN  .        3022                       :Logging Unit Number
RUN  .        Run 1                      :Run Number
SON  .        C6VJ-00079                 :Service Order Number
BHT  .DEGF     175.00000                 :Bottom Hole Temperature
BS   .IN         7.87500                 :Bit Size
MDEN .G/C3       2.65000                 :Matrix Density for Density Porosity
DFD  .LB/G       9.20000                 :Drilling Fluid Density
DFV  .S         80.00000                 :Drilling Fluid Viscosity
DFL  .C3      -999.25000                 :Drilling Fluid Loss
RMFS .OHMM       0.96000                 :Resistivity of Mud Filtrate Sample
EKB  .F       5307.00000                 :Elevation of Kelly Bushing
EGL  .F       5295.00000                 :Elevation of Ground Level
BLI  .F       7700.00000                 :Bottom Log Interval
BSAL .PPM     3275.14868                 :Borehole Salinity
FLEV .F          8.00000                 :Depth of Drilling Fluid Level to LMF (Log Measured From)
MCST .DEGF      98.00000                 :Mudcake Sample Temperature
MFST .DEGF      98.00000                 :Mud Filtrate Sample Temperature
MRT  .DEGF     175.00000                 :Maximum Recorded Temperature
MST  .DEGF      98.00000                 :Mud Sample Temperature
RMCS .OHMM       1.60000                 :Resistivity of Mud Cake Sample
RMS  .OHMM       1.28000                 :Resistivity of Mud Sample
RW   .OHMM       1.00000                 :Connate Water Resistivity
TDD  .F       7697.00000                 :Driller Total Depth
TDL  .F       7700.00000                 :Logger Total Depth
TLI  .F       1018.00000                 :Top Log Interval
HIDE .        Wildcat                    :Header Identifier
MATR .        SAND                       :Rock Matrix for Neutron Porosity Corrections
FNUM .           1.00000                 :F-Numerator for Formation Factor Formula
FEXP .           2.00000                 :Exponent "m" for Formation Factor Formula
DFT  .        Chemical Gel               :Drilling Fluid Type
DFPH .        -999.25000                 :Drilling Fluid pH
MCSS .        Calculated                 :Mudcake Sample Source
MFSS .        Calculated                 :Mud Filtrate Sample Source
FD   .G/C3       1.00000                 :Fluid Density
MSS  .        Flowline                   :Mud Sample Source
OS1  .                                   :Other Services Line 1
OS2  .                                   :Other Services Line 2
OS3  .                                   :Other Services Line 3
OS4  .                                   :Other Services Line 4
OS5  .                                   :Other Services Line 5
R1   .                                   :Remarks Line 1
R2   .                                   :Remarks Line 2
R3   .                                   :Remarks Line 3
R4   .                                   :Remarks Line 4
R5   .                                   :Remarks Line 5
R6   .                                   :Remarks Line 6
R7   .                                   :Remarks Line 7
R8   .                                   :Remarks Line 8
TCS  .        11 00 00                   :Time Circulation Stopped
TLAB .        17 20 49                   :Time Logger At Bottom
NMT  .        NOBARITE                   :HRDD Mud Type for Nuclear Devices
EPD  .C3         5295.000000             :Elevation of Permanent Datum above Mean Sea Level
APD  .F          12.000000               :Elevation of Depth Reference (LMF) above Permanent Datum
#-----------------------------------------------------------------------------
~CURVE INFORMATION
#MNEM.UNIT   API CODE                                  DESCRIPTION
#---- -----  --------                                  -----------------------
DEPT .F                                                :DEPTH (BOREHOLE) {F10.1}
AT10 .OHMM                                             :Array Induction Two Foot Resistivity A10 {F11.4}
AT30 .OHMM                                             :Array Induction Two Foot Resistivity A30 {F11.4}
AT90 .OHMM                                             :Array Induction Two Foot Resistivity A90 {F11.4}
GR   .GAPI                                             :Gamma Ray {F11.4}
HCAL .IN                                               :HRCC Caliper Calibrated {F11.4}
HDRA .G/C3                                             :Density Standoff Correction {F11.4}
NPHI .CFCF                                             :Thermal Neutron Porosity (original Ratio Method) in Selected Lithology {F11.4}
PEFZ .                                                 :Standard Resolution Formation Photoelectric Factor {F11.4}
RHOZ .G/C3                                             :Standard Resolution Formation Density {F11.4}
SP   .MV                                               :Spontaneous Potential {F11.4}
TNPH .CFCF                                             :Thermal Neutron Porosity (Ratio Method) in Selected Lithology {F11.4}
#-----------------------------------------------------------------------------
# 
#     DEPT       AF10       AF20       AF30       AF60       AF90       AO10       AO20       AO30       AO60       AO90       AT10       AT20       AT30       AT60       AT90     AHFCO60      AHMF      AHORT      AHORX      AHSCA     AHTCO10    AHTCO20    AHTCO30    AHTCO60    AHTCO90     AHTD1      AHTD2      AHTRT      AHTRX       CDF        CFTC       CNTC       CTEM       DCAL       DNPH       DPHZ       DSOZ       ECGR        ED        GDEV        GR        GTEM       HCAL       HDRA       HDRB       HGR        HMIN       HMNO       HNPO       HPRA       HTNP        ND        NPHI       NPOR       PEFZ    PXND_HILT     RHOZ       RSOZ     RWA_HILT     RXO8       RXOZ        SP        SPAR       STIT       TENS       TNPH     HTNP_SAN
#
~A  DEPT AT10 AT30 AT90 GR HCAL HDRA NPHI PEFZ RHOZ SP TNPH
# ...
7394.0 2.6907 2.6994 2.7297 163.5645 8.5108 0.1963 0.3172 2.4894 2.2171 -334.3594 0.3396
7394.5 2.7681 2.8291 2.8478 161.4675 8.1480 0.1872 0.3319 2.3859 2.0885 -334.4196 0.3333
7395.0 2.8123 2.8651 2.8648 159.8806 7.9282 0.1813 0.3531 2.3181 2.0673 -334.2109 0.3457
7395.5 2.7740 2.6820 2.6894 152.0314 8.3459 0.1690 0.3912 2.3729 2.1252 -334.0781 0.3513
7396.0 2.6724 2.5544 2.5330 151.3515 8.6537 0.1552 0.3730 2.5038 2.2031 -334.2578 0.3589
7396.5 2.5600 2.4988 2.4483 151.9752 8.7417 0.1532 0.3798 2.6088 2.2687 -334.3036 0.3499
7397.0 2.4446 2.4158 2.3713 155.5455 8.3679 0.1703 0.3668 2.6659 2.3181 -334.2109 0.3617
7397.5 2.3435 2.3086 2.2473 155.9418 8.3459 0.1873 0.3804 2.7164 2.3567 -334.1607 0.3524
7398.0 2.2864 2.2289 2.1779 152.9948 8.6097 0.2080 0.3544 2.7810 2.4229 -334.1696 0.3508
7398.5 2.2540 2.1979 2.1369 159.7394 8.6977 0.2107 0.3276 2.8830 2.4822 -334.1406 0.3255
7399.0 2.2749 2.1643 2.1102 157.3021 8.7197 0.1919 0.3076 2.9862 2.5089 -334.1071 0.3118
7399.5 2.2751 2.1445 2.0988 160.4189 8.3019 0.1672 0.3223 3.0676 2.4977 -333.8203 0.3014
7400.0 2.2760 2.1525 2.1198 156.6499 8.3239 0.1568 0.3291 3.0679 2.4923 -333.8750 0.3154
7400.5 2.2891 2.1344 2.1206 158.6901 8.4558 0.1599 0.3509 3.0342 2.4960 -333.9196 0.3176
7401.0 2.3074 2.1279 2.1252 158.2935 8.3679 0.1637 0.3433 3.0035 2.5005 -333.8516 0.3360
7401.5 2.2655 2.1196 2.1205 160.5042 8.4119 0.1647 0.3341 2.9920 2.4983 -333.7500 0.3280
7402.0 2.2434 2.1139 2.1102 158.3225 8.4339 0.1547 0.3352 2.9810 2.4749 -333.5000 0.3293
7402.5 2.2271 2.1022 2.0903 155.3758 8.7307 0.1599 0.3472 2.9724 2.4762 -333.7266 0.3284
7403.0 2.2260 2.1098 2.0851 153.5617 8.5548 0.1677 0.3529 2.9621 2.4868 -333.8750 0.3445
7403.5 2.2122 2.0978 2.0402 154.6107 8.6097 0.1758 0.3509 2.9646 2.4960 -334.1172 0.3471
7404.0 2.1930 2.0242 1.9517 158.3510 8.6647 0.1672 0.3459 2.9628 2.4817 -334.1797 0.3414
7404.5 2.1557 1.9691 1.8703 163.7919 8.5218 0.1601 0.3570 2.9682 2.4745 -334.0156 0.3345
7405.0 2.1067 1.9054 1.7918 161.9492 8.5328 0.1537 0.3606 2.9763 2.4768 -333.8036 0.3403
7405.5 2.0739 1.8971 1.7750 157.1889 8.5218 0.1478 0.3568 2.9973 2.4757 -333.7344 0.3512
7406.0 2.0613 1.9059 1.7742 154.6948 8.4778 0.1352 0.3852 3.0073 2.4677 -333.7232 0.3502
7406.5 2.0767 1.9235 1.7898 163.6220 8.4998 0.1252 0.3782 3.0011 2.4598 -333.8203 0.3703
7407.0 2.1130 1.9501 1.8195 168.9489 8.4778 0.1242 0.3626 2.9932 2.4540 -333.7500 0.3583
7407.5 2.1234 1.9635 1.8422 172.9446 8.3679 0.1260 0.3304 2.9667 2.4529 -333.6172 0.3495
7408.0 2.1319 1.9568 1.8485 164.8112 8.7417 0.1316 0.3315 2.9396 2.4482 -333.6518 0.3257
7408.5 2.1488 1.9385 1.8424 162.0912 8.4998 0.1378 0.3723 2.8992 2.4530 -333.4609 0.3261
7409.0 2.0779 1.8964 1.8158 151.1814 8.7417 0.1438 0.3651 2.8673 2.4542 -333.3661 0.3473
7409.5 2.0312 1.8681 1.8055 150.1898 8.7637 0.1451 0.3481 2.8296 2.4520 -333.3281 0.3491
7410.0 1.9895 1.8291 1.7636 149.5660 8.6977 0.1399 0.3109 2.7794 2.4455 -333.0804 0.3396
7410.5 1.9417 1.8547 1.8068 156.0272 8.8076 0.1328 0.3210 2.7323 2.4453 -332.9844 0.3096
7411.0 1.8480 1.7517 1.6966 165.7471 8.8076 0.1234 0.3257 2.7077 2.4537 -332.8661 0.3261
7411.5 1.7452 1.6314 1.5796 169.0908 8.7856 0.1168 0.3353 2.7251 2.4401 -332.9531 0.3307
7412.0 1.6818 1.5551 1.4882 168.7787 8.6317 0.1293 0.3343 2.7642 2.4162 -332.9554 0.3467
7412.5 1.6152 1.4379 1.3931 156.7917 8.4558 0.1544 0.3490 2.7875 2.3943 -332.9453 0.3326
7413.0 1.5685 1.3980 1.3160 153.2501 8.3899 0.1721 0.3586 2.7663 2.3941 -332.5469 0.3387
7413.5 1.5162 1.4062 1.3055 153.2501 8.5878 0.1687 0.3617 2.7177 2.3935 -331.7143 0.3356
7414.0 1.4588 1.3883 1.2784 156.8775 8.7307 0.1584 0.3354 2.6746 2.3940 -331.6953 0.3400
7414.5 1.4572 1.3745 1.2585 157.4721 8.7197 0.1445 0.3271 2.6396 2.3811 -331.7054 0.3279
7415.0 1.4394 1.3901 1.2519 157.7836 8.6427 0.1404 0.3267 2.6145 2.3805 -331.7266 0.3291
7415.5 1.4216 1.3651 1.2269 155.8285 8.8736 0.1417 0.3456 2.6043 2.3818 -331.6250 0.3254
7416.0 1.4392 1.3218 1.1972 157.0188 8.9395 0.1527 0.3616 2.6158 2.3910 -331.6094 0.3418
7416.5 1.3823 1.3008 1.1643 154.0717 8.7417 0.1614 0.3688 2.6395 2.3896 -331.8214 0.3544
7417.0 1.3273 1.2820 1.1519 170.1387 8.5768 0.1643 0.3510 2.6676 2.3723 -332.7891 0.3624
7417.5 1.1335 1.0925 1.0188 194.3388 8.9176 0.1351 0.3739 2.6937 2.3123 -333.4286 0.3629
7418.0 0.9046 0.8344 0.8168 230.8951 8.7417 0.0876 0.3970 2.8004 2.2948 -333.6484 0.3912
7418.5 0.8035 0.7600 0.7294 225.6239 8.8956 0.0300 0.4050 3.0565 2.3196 -333.7500 0.3761
7419.0 0.9661 0.9122 0.8405 183.9685 8.4998 0.0321 0.3886 3.3838 2.4233 -333.4643 0.3730
7419.5 1.0888 0.9786 0.9010 131.9967 8.1261 0.0608 0.4380 3.4836 2.4427 -333.0703 0.3727
7420.0 0.9591 0.8701 0.8237 107.5133 8.4558 0.0959 0.4924 3.2756 2.4018 -332.9609 0.4100
7420.5 0.8970 0.8253 0.7640 109.8936 8.8296 0.0999 0.5028 2.9555 2.3385 -332.3984 0.4477
7421.0 0.9399 0.8656 0.7942 118.9613 8.7637 0.0896 0.4696 2.7617 2.3308 -331.6250 0.4521
7421.5 1.0129 0.9319 0.8425 125.5081 8.8736 0.0800 0.4240 2.7152 2.3466 -331.4018 0.4344
7422.0 1.1043 1.0162 0.9157 128.2847 8.7417 0.0772 0.4083 2.7130 2.3583 -331.5234 0.4081
7422.5 1.1766 1.0885 0.9906 125.7907 8.6757 0.0869 0.3928 2.7399 2.3632 -331.5893 0.3942
7423.0 1.2636 1.1344 1.0549 136.8988 8.8296 0.1014 0.4162 2.8015 2.3786 -331.4375 0.3734
7423.5 1.3892 1.2108 1.1259 140.2710 8.7637 0.1157 0.3904 2.9112 2.4190 -331.4911 0.3630
7424.0 1.8314 1.5377 1.4306 136.1911 8.5658 0.1219 0.3378 3.0932 2.4890 -331.6797 0.3219
7424.5 2.7793 2.3502 2.1350 122.5036 8.0821 0.1146 0.2889 3.2916 2.5748 -331.8984 0.2793
7425.0 3.6386 3.3341 2.9865 114.5974 8.0601 0.0899 0.2673 3.4030 2.6229 -332.8661 0.2580
7425.5 3.8919 3.5176 3.3020 113.8892 8.0601 0.0587 0.2428 3.3408 2.6546 -333.0938 0.2385
7426.0 4.8868 4.0639 3.8069 105.8416 7.9941 0.0294 0.1958 3.1566 2.6543 -333.3125 0.2064
7426.5 5.9868 5.1297 4.6895 103.2345 8.0601 0.0088 0.1711 2.9980 2.6558 -333.2500 0.1725
7427.0 6.5133 5.6498 5.1721 98.9550 8.0161 -0.0015 0.1860 2.8981 2.6426 -332.3661 0.1697
7427.5 5.8567 5.5733 5.4906 105.0190 7.9941 -0.0021 0.2045 2.8673 2.6275 -331.7188 0.1915
7428.0 5.6534 5.3259 5.4031 110.1198 7.9722 0.0008 0.2235 2.8324 2.6095 -331.4297 0.2062
7428.5 5.4589 5.0825 5.2504 116.9775 7.9612 0.0057 0.2305 2.8533 2.6066 -331.1696 0.2109
7429.0 5.5121 5.1280 5.3596 115.1925 7.9502 0.0064 0.2306 2.8973 2.6107 -331.2422 0.2156
7429.5 5.6520 5.3894 5.6145 116.3256 7.9502 0.0104 0.2307 2.9860 2.6204 -331.0804 0.2260
7430.0 5.0626 5.0677 5.3429 117.7143 7.9722 0.0196 0.2431 3.0521 2.6257 -330.7109 0.2362
7430.5 4.7454 4.5145 4.7065 126.3570 7.9722 0.0408 0.2702 3.0694 2.6197 -330.9453 0.2569
7431.0 4.3626 4.1729 4.2759 127.2642 7.9722 0.0660 0.2889 3.0402 2.6047 -330.6429 0.2751
7431.5 4.4754 4.1351 4.2183 126.8672 7.9502 0.0868 0.2669 2.9886 2.5946 -330.5156 0.2821
7432.0 4.5440 4.2742 4.3173 126.1876 7.9722 0.0888 0.2513 2.9408 2.5921 -330.5714 0.2600
7432.5 4.6417 4.3780 4.3519 127.5758 7.9722 0.0671 0.2361 2.8804 2.5968 -330.6328 0.2428
7433.0 4.6402 4.3687 4.3594 128.3412 7.9392 0.0383 0.2443 2.8420 2.5851 -330.6429 0.2312
7433.5 4.5844 4.2474 4.2509 127.5192 7.9722 0.0213 0.2589 2.8430 2.5744 -330.6328 0.2420
7434.0 4.2595 4.0218 4.0170 125.6777 7.9502 0.0283 0.2746 2.8894 2.5666 -330.4375 0.2607
7434.5 3.8483 3.7029 3.7033 119.7546 7.9722 0.0440 0.2902 2.9487 2.5752 -330.2266 0.2784
7435.0 3.5047 3.3836 3.3873 118.0829 7.9282 0.0471 0.2856 2.9972 2.5747 -330.4464 0.2871
7435.5 3.9664 3.5279 3.5540 116.9492 7.9941 0.0488 0.2769 3.0587 2.5860 -330.5156 0.2660
7436.0 4.3546 4.1609 4.1485 124.2327 7.8622 0.0440 0.2740 3.1071 2.5815 -330.5547 0.2588
7436.5 4.4240 4.3014 4.2980 126.8962 7.8842 0.0583 0.2816 3.1349 2.5946 -330.3594 0.2635
7437.0 4.1087 3.9710 3.9913 121.9088 7.8952 0.0719 0.2842 3.1187 2.5867 -330.4286 0.2819
7437.5 3.9507 3.7442 3.7547 117.9979 7.8842 0.0844 0.2869 3.1074 2.5793 -330.2813 0.2853
7438.0 3.7640 3.5198 3.5393 117.6011 7.8402 0.0794 0.3046 3.1310 2.5805 -330.1875 0.2867
7438.5 3.6823 3.4531 3.4482 118.6215 7.9502 0.0675 0.3182 3.1875 2.5827 -330.1953 0.2949
