~VERSION INFORMATION
VERS.           1.2   :CWLS Log ASCII Standard - VERSION 1.2
WRAP.           NO    :One Line per depth step
PROD.  Schlumberger   :LAS Producer
PROG.  DLIS to ASCII 17C0-152                          :LAS Program name and version
CREA.        2013/10/21 20:50                          :LAS Creation date {YYYY/MM/DD hh:mm}
DLIS_CREA.  2013-Oct-21 08:39                          :DLIS Creation date and time {YYYY-MMM-DD hh:mm}
SOURCE.     9ec8b34d-aca5-43ef-91a8-8c41069c79cd       :DLIS File Name
#--------------------------------------------------
~WELL INFORMATION
#MNEM.UNIT      DATA             DESCRIPTION
#---- ------ --------------   -----------------------------
STRT .F      901.5000        :START DEPTH        # original; data subset to 5500-8000
STOP .F      7746.5000       :STOP DEPTH        # original; data subset to 5500-8000
STEP .F       0.5000         :STEP       
NULL .          -999.25      :NULL VALUE
COMP .                 COMPANY:  Bear Oil and Gas, Inc.             
WELL .                    WELL:  McGahan Farms 32 31                
FLD  .                   FIELD:  Wildcat                            
LOC  .                LOCATION:  SHL: SWNE 2563' FNL & 1423' FEL    
CNTY .                  COUNTY:  Laramie                            
STAT .                   STATE:  Wyoming                            
CTRY .                 COUNTRY:  United States                      
SRVC .         SERVICE COMPANY:  Schlumberger                       
LATI .DEG             LATITUDE:  41.309490 degrees                  
LONG .DEG            LONGITUDE:  -104.12429 degrees                 
API  .              API NUMBER:  49-021-21045                       
DATE .                LOG DATE:  21-Oct-2013
UWI  .          UNIQUE WELL ID:  49021210450000                     
#-----------------------------------------------------------------------------
~PARAMETER INFORMATION
#MNEM.UNIT    VALUE                      DESCRIPTION
#---- -----   --------------------       ------------------------
CN   .        Bear Oil and Gas  Inc.     :Company Name
WN   .        McGahan Farms 32 31        :Well Name
FN   .        Wildcat                    :Field Name
FL   .        SHL  SWNE 2563' FNL & 1423' FEL :Field Location
FL1  .        Section 31  Township 16N  Range 60W :Field Location, Line 1
COUN .        Laramie                    :County or Parish
STAT .        Wyoming                    :State or Province
NATI .        United States              :Nation
DATE .        21-Oct-2013                :Tools Above Rotary Table Date
APIN .        49-021-21045               :API Well Number
SECT .        31                         :Section
TOWN .        16N                        :Township
RANG .        60W                        :Range
DMF  .        KB                         :Drilling Measured From (Name of Drilling Elevation Reference)
LMF  .        KB                         :Logging Measured From (Name of Logging Elevation Reference)
PDAT .        GL                         :Permanent Datum
ENGI .        Max Pace                   :Engineer s Name
WITN .        Terry                      :Witness s Name
LATI .        41.309490 degrees          :Latitude
LONG .        -104.12429 degrees         :Longitude
LUL  .        Fort Morgan  CO            :Logging Unit Location
LUN  .        3022                       :Logging Unit Number
RUN  .        Run 1                      :Run Number
SON  .        CA0R-00056                 :Service Order Number
BHT  .DEGF     166.00000                 :Bottom Hole Temperature
BS   .IN         7.87500                 :Bit Size
MDEN .G/C3       2.65000                 :Matrix Density for Density Porosity
DFD  .LB/G       9.10000                 :Drilling Fluid Density
DFV  .S         63.00000                 :Drilling Fluid Viscosity
DFL  .C3         8.80000                 :Drilling Fluid Loss
RMFS .OHMM       1.24500                 :Resistivity of Mud Filtrate Sample
EKB  .F       5307.00000                 :Elevation of Kelly Bushing
EGL  .F       5295.00000                 :Elevation of Ground Level
BLI  .F       7730.00000                 :Bottom Log Interval
BSAL .PPM        0.00000                 :Borehole Salinity
FLEV .F          8.00000                 :Depth of Drilling Fluid Level to LMF (Log Measured From)
MCST .DEGF      61.00000                 :Mudcake Sample Temperature
MFST .DEGF      61.00000                 :Mud Filtrate Sample Temperature
MRT  .DEGF     166.00000                 :Maximum Recorded Temperature
MST  .DEGF      61.00000                 :Mud Sample Temperature
RMCS .OHMM       2.07500                 :Resistivity of Mud Cake Sample
RMS  .OHMM       1.66000                 :Resistivity of Mud Sample
RW   .OHMM       1.00000                 :Connate Water Resistivity
TDD  .F       7719.99951                 :Driller Total Depth
TDL  .F       7730.00000                 :Logger Total Depth
TLI  .F       1023.75000                 :Top Log Interval
HIDE .        Wildcat                    :Header Identifier
MATR .        SAND                       :Rock Matrix for Neutron Porosity Corrections
FNUM .           1.00000                 :F-Numerator for Formation Factor Formula
FEXP .           2.00000                 :Exponent "m" for Formation Factor Formula
DFT  .        Fresh Water                :Drilling Fluid Type
DFPH .           7.50000                 :Drilling Fluid pH
MCSS .        Calculated                 :Mudcake Sample Source
MFSS .        Calculated                 :Mud Filtrate Sample Source
FD   .G/C3       1.00000                 :Fluid Density
MSS  .        Active Tank                :Mud Sample Source
OS1  .                                   :Other Services Line 1
OS2  .                                   :Other Services Line 2
OS3  .                                   :Other Services Line 3
OS4  .                                   :Other Services Line 4
OS5  .                                   :Other Services Line 5
R1   .        Tool string run as per tool sketch :Remarks Line 1
R2   .        All Schlumberger depth control procedures followed :Remarks Line 2
R3   .        IDW used as primary depth reference :Remarks Line 3
R4   .        Z Chart used as secondary depth reference :Remarks Line 4
R5   .        Matrix Density zoned as per client request :Remarks Line 5
R6   .        Crew  Max Pace  Tyler Riter  Cody Bruns :Remarks Line 6
R7   .                                   :Remarks Line 7
R8   .                                   :Remarks Line 8
TCS  .        19 00 00                   :Time Circulation Stopped
TLAB .        06 35 50                   :Time Logger At Bottom
NMT  .        NOBARITE                   :HRDD Mud Type for Nuclear Devices
EPD  .C3         5295.000000             :Elevation of Permanent Datum above Mean Sea Level
APD  .F          12.000000               :Elevation of Depth Reference (LMF) above Permanent Datum
#-----------------------------------------------------------------------------
~CURVE INFORMATION
#MNEM.UNIT   API CODE                                  DESCRIPTION
#---- -----  --------                                  -----------------------
DEPT .F                                                :DEPTH (BOREHOLE) {F12.4}
AT10 .OHMM                                             :Array Induction Two Foot Resistivity A10 {F11.4}
AT30 .OHMM                                             :Array Induction Two Foot Resistivity A30 {F11.4}
AT90 .OHMM                                             :Array Induction Two Foot Resistivity A90 {F11.4}
DT   .US/F                                             :Delta-T (also called Slowness or Interval Transit Time) {F11.4}
GR   .GAPI                                             :Gamma Ray {F11.4}
HCAL .IN                                               :HRCC Caliper Calibrated {F11.4}
HDRA .G/C3                                             :Density Standoff Correction {F11.4}
NPHI .CFCF                                             :Thermal Neutron Porosity (original Ratio Method) in Selected Lithology {F11.4}
PEFZ .                                                 :Standard Resolution Formation Photoelectric Factor {F11.4}
RHOZ .G/C3                                             :Standard Resolution Formation Density {F11.4}
SP   .MV                                               :Spontaneous Potential {F11.4}
TNPH .CFCF                                             :Thermal Neutron Porosity (Ratio Method) in Selected Lithology {F11.4}
#-----------------------------------------------------------------------------
# 
#      DEPT        AF10       AF20       AF30       AF60       AF90       AO10       AO20       AO30       AO60       AO90       AT10       AT20       AT30       AT60       AT90     AHFCO60      AHMF      AHORT      AHORX      AHSCA     AHTCO10    AHTCO20    AHTCO30    AHTCO60    AHTCO90     AHTD1      AHTD2      AHTRT      AHTRX       CDF        CFTC       CNTC       CTEM       DCAL       DNPH       DPHZ       DSOZ        DT        ECGR        ED        GDEV        GR        GTEM       HCAL       HDRA       HDRB       HGR        HMIN       HMNO       HNPO       HPRA       HTNP       ITT         ND        NPHI       NPOR       PEFZ    PXND_HILT     RHOZ       RSOZ     RWA_HILT     RXO8       RXOZ        SP        SPAR       SPHI       STIT       TENS       TNPH     HTNP_SAN
#
~A  DEPT AT10 AT30 AT90 DT GR HCAL HDRA NPHI PEFZ RHOZ SP TNPH
# ...
5945.5000 3.6655 3.5285 3.4072 84.6022 99.8523 7.8271 -0.0010 0.2771 2.7706 2.5580 185.3750 0.2635
5946.0000 3.6361 3.4979 3.3628 85.0603 113.1089 7.8520 -0.0135 0.2782 2.7956 2.5529 185.0982 0.2686
5946.5000 3.5787 3.4758 3.3288 85.5545 110.1720 7.8271 -0.0113 0.2770 2.8336 2.5560 185.1339 0.2743
5947.0000 3.4988 3.3998 3.2675 85.8353 108.2142 7.8271 -0.0112 0.2716 2.8416 2.5519 185.3750 0.2724
5947.5000 3.5141 3.3828 3.2511 85.5423 107.6846 7.7896 0.0020 0.2652 2.8521 2.5544 185.3750 0.2608
5948.0000 3.7012 3.5600 3.4118 85.0038 107.3570 7.7521 0.0005 0.2574 2.8366 2.5488 184.8661 0.2520
5948.5000 3.8716 3.7462 3.5653 84.4438 106.6230 7.8021 -0.0010 0.2558 2.8621 2.5426 184.5179 0.2463
5949.0000 3.8270 3.7342 3.5938 83.9082 102.9515 7.8520 -0.0034 0.2532 2.8808 2.5338 184.6146 0.2439
5949.5000 3.8807 3.7456 3.6222 84.0052 100.0973 7.8396 -0.0046 0.2504 2.8681 2.5321 184.6250 0.2427
5950.0000 3.9245 3.8109 3.6894 83.9901 99.6074 7.8271 -0.0055 0.2526 2.8823 2.5263 184.5179 0.2430
5950.5000 3.9634 3.8885 3.7879 83.8198 96.3852 7.8271 -0.0042 0.2446 2.8504 2.5343 184.4732 0.2445
5951.0000 3.9120 3.8256 3.7327 83.7303 100.0563 7.8271 -0.0029 0.2360 2.8452 2.5324 184.9286 0.2477
5951.5000 3.6977 3.6928 3.6071 84.3467 106.6639 7.8520 0.0071 0.2341 2.8392 2.5477 185.2708 0.2347
5952.0000 3.5476 3.4631 3.4138 85.4893 110.6202 7.8770 0.0190 0.2396 2.8802 2.5465 185.3929 0.2291
5952.5000 3.3881 3.3154 3.2520 86.2975 115.8010 7.8520 0.0211 0.2574 2.8925 2.5396 185.5714 0.2382
5953.0000 3.4324 3.2844 3.2123 86.5709 110.6617 7.8770 0.0129 0.2758 2.8460 2.5290 185.5625 0.2504
5953.5000 3.5078 3.4090 3.3248 87.0155 106.7459 7.9770 0.0002 0.2792 2.8188 2.5253 185.4375 0.2621
5954.0000 3.6408 3.5380 3.4257 85.9505 103.0334 7.8520 -0.0032 0.2789 2.8415 2.5323 185.2768 0.2607
5954.5000 3.4793 3.3850 3.2847 86.0581 101.9734 7.8271 -0.0030 0.2565 2.8549 2.5397 185.1607 0.2626
5955.0000 3.3504 3.2435 3.1517 86.4028 106.1336 7.8520 -0.0005 0.2616 2.8547 2.5519 185.2946 0.2542
5955.5000 3.4498 3.3108 3.1964 86.4687 102.2179 7.8770 0.0021 0.2609 2.8596 2.5629 185.7589 0.2553
5956.0000 3.4907 3.3826 3.2616 86.3349 105.4811 7.8520 0.0031 0.2692 2.8823 2.5570 185.8125 0.2520
5956.5000 3.4030 3.3404 3.2208 85.6028 102.1366 7.8520 0.0030 0.2711 2.9215 2.5480 185.8125 0.2561
5957.0000 3.3543 3.2571 3.1398 85.8264 106.5417 7.8021 0.0034 0.2865 2.9229 2.5377 185.6339 0.2565
5957.5000 3.3863 3.2963 3.1791 86.6488 106.7861 7.9020 0.0038 0.2894 2.9177 2.5388 185.5268 0.2732
5958.0000 3.4463 3.3514 3.2245 85.8740 111.1097 7.8520 0.0027 0.2835 2.8878 2.5313 185.6964 0.2730
5958.5000 3.4946 3.4035 3.2846 85.8026 111.4771 7.8770 0.0012 0.2666 2.8642 2.5301 185.9063 0.2732
5959.0000 3.5265 3.4091 3.3033 84.7266 105.3590 7.9020 -0.0018 0.2538 2.8663 2.5244 185.9554 0.2652
5959.5000 3.5500 3.4484 3.3497 84.5824 98.7516 7.8271 -0.0035 0.2567 2.8793 2.5257 186.0804 0.2532
5960.0000 3.5119 3.3788 3.2897 84.8849 101.5661 7.9020 -0.0060 0.2600 2.8997 2.5232 186.1429 0.2515
5960.5000 3.3398 3.2596 3.1776 84.5093 111.0289 7.9270 -0.0057 0.2743 2.8778 2.5264 186.1667 0.2602
5961.0000 3.1828 3.0995 3.0294 86.5159 123.9998 7.9270 -0.0032 0.2860 2.8451 2.5369 186.2232 0.2763
5961.5000 3.0375 2.9464 2.8950 86.9766 118.8602 7.9270 -0.0006 0.2893 2.8242 2.5444 186.4821 0.2790
5962.0000 2.9494 2.8608 2.7848 87.7589 112.0079 7.9270 0.0030 0.2987 2.8507 2.5384 186.5000 0.2805
5962.5000 2.8897 2.8027 2.7177 88.9764 105.6446 7.8520 0.0098 0.2861 2.9298 2.5305 186.3661 0.2873
5963.0000 2.8638 2.7340 2.6491 89.1100 107.1125 7.8021 0.0159 0.2973 2.9993 2.5273 186.0729 0.2784
5963.5000 2.8560 2.7148 2.6144 89.5045 109.9681 7.8271 0.0185 0.2813 3.0364 2.5390 186.0357 0.2875
5964.0000 3.0744 2.8543 2.7337 88.9451 111.4365 7.7771 0.0136 0.2945 3.0102 2.5389 186.1875 0.2729
5964.5000 3.2140 3.0299 2.8658 88.1925 107.5209 7.8271 0.0094 0.2826 2.9722 2.5364 186.1696 0.2793
5965.0000 3.2692 3.1033 2.9420 87.2848 108.6629 7.8520 0.0072 0.2836 2.9546 2.5365 186.1563 0.2684
5965.5000 3.2514 3.0735 2.9042 85.2159 102.0554 7.8520 0.0072 0.2778 2.9521 2.5422 186.1250 0.2645
5966.0000 3.2336 3.0911 2.8984 85.9387 106.4600 7.8271 0.0120 0.2649 2.9726 2.5574 186.0446 0.2664
5966.5000 3.1122 2.9897 2.8322 86.1680 101.0348 7.7771 0.0160 0.2538 2.9689 2.5550 186.1964 0.2597
5967.0000 2.9839 2.8463 2.7213 85.3529 96.9961 7.7771 0.0303 0.2500 2.9938 2.5503 186.4018 0.2554
5967.5000 2.8859 2.7594 2.6336 89.1255 96.5080 7.8271 0.0422 0.2723 3.0219 2.5313 186.3393 0.2499
5968.0000 2.7948 2.6785 2.5604 89.0057 99.9744 7.7271 0.0550 0.3000 3.0642 2.5359 186.3958 0.2683
5968.5000 2.8334 2.6812 2.5696 89.1121 107.9697 7.6521 0.0527 0.3056 3.0484 2.5416 186.4196 0.2851
5969.0000 2.9544 2.7897 2.6708 89.0337 107.1123 7.7271 0.0446 0.3045 3.0020 2.5517 186.4732 0.2877
5969.5000 3.0403 2.8899 2.7721 88.1093 108.5813 7.8271 0.0327 0.2978 2.9539 2.5451 186.3929 0.2855
5970.0000 3.1667 2.9874 2.8656 87.0038 110.0084 7.8520 0.0189 0.2891 2.9156 2.5193 186.6667 0.2832
5970.5000 3.2597 3.0972 2.9747 86.6911 109.4369 7.7521 0.0211 0.2693 2.9431 2.5174 186.7054 0.2755
5971.0000 3.2773 3.1411 3.0211 86.5514 105.2766 7.7271 0.0195 0.2712 2.9750 2.5123 186.5268 0.2609
5971.5000 3.1994 3.0609 2.9460 86.9325 108.7038 7.8021 0.0287 0.2839 3.0431 2.5341 186.2321 0.2658
5972.0000 3.1481 3.0095 2.9165 87.2604 107.5622 7.7771 0.0198 0.2998 3.0290 2.5231 186.2589 0.2742
5972.5000 3.1617 3.0452 2.9304 88.0397 109.5199 7.8271 0.0146 0.2840 2.9742 2.5282 186.6354 0.2911
5973.0000 3.2197 3.1012 2.9811 87.5075 107.2353 7.8396 0.0051 0.2733 2.8963 2.5367 186.6607 0.2718
5973.5000 3.2846 3.1353 3.0201 85.9752 112.3747 7.8770 0.0006 0.2636 2.8603 2.5569 186.4286 0.2609
5974.0000 3.4201 3.2839 3.1332 86.2189 117.5141 7.8520 -0.0026 0.2691 2.9059 2.5653 186.4375 0.2509
5974.5000 3.5238 3.3835 3.2483 85.0690 113.5162 7.8520 -0.0064 0.2602 2.9761 2.5592 186.4688 0.2579
5975.0000 3.4159 3.3206 3.1945 85.6669 113.2310 7.8770 -0.0065 0.2582 2.9857 2.5615 186.5804 0.2526
5975.5000 3.3220 3.1828 3.0826 85.8327 110.5391 7.8520 -0.0046 0.2660 2.9539 2.5669 186.7857 0.2551
5976.0000 3.2916 3.1529 3.0513 85.7387 113.9656 7.9020 -0.0017 0.2689 2.9079 2.5692 186.7143 0.2657
5976.5000 3.2586 3.1490 3.0387 86.9873 110.2534 7.8770 -0.0013 0.2692 2.9086 2.5492 186.7708 0.2601
5977.0000 3.0901 2.9854 2.8899 87.0122 110.4980 7.8520 0.0012 0.2725 2.8973 2.5302 186.8125 0.2606
5977.5000 2.9799 2.8607 2.7933 87.9632 107.6434 7.8271 0.0025 0.2810 2.8774 2.5103 186.8036 0.2685
5978.0000 2.8450 2.7639 2.6738 90.0275 113.0682 7.8271 0.0046 0.2907 2.8801 2.5113 187.0893 0.2800
5978.5000 2.8182 2.7143 2.6228 89.2323 114.5365 7.8021 0.0031 0.2871 2.8921 2.5186 187.2054 0.2823
5979.0000 2.9079 2.7546 2.6534 89.6093 117.1055 7.8770 0.0006 0.2939 2.9197 2.5342 187.0625 0.2758
5979.5000 2.9499 2.8218 2.7110 88.5179 109.3970 7.8520 -0.0032 0.2891 2.9417 2.5426 186.9554 0.2837
5980.0000 2.9889 2.8578 2.7431 87.5308 108.2140 7.8520 -0.0047 0.2932 2.9648 2.5464 186.7946 0.2809
5980.5000 2.8896 2.7676 2.6641 88.3184 107.6838 7.8520 -0.0036 0.2903 2.9858 2.5452 186.8750 0.2909
5981.0000 2.8474 2.7260 2.6346 88.0638 115.9635 7.8770 -0.0040 0.2843 3.0626 2.5256 187.0804 0.2861
5981.5000 2.7878 2.6745 2.5778 89.8512 116.9021 7.8520 -0.0023 0.2891 3.0634 2.5235 187.0625 0.2798
5982.0000 2.7129 2.5972 2.5105 90.4396 117.4329 7.8520 -0.0020 0.2802 3.0445 2.5261 187.0893 0.2772
5982.5000 2.7919 2.6535 2.5661 89.7675 112.0076 7.9520 -0.0024 0.2872 2.9846 2.5402 187.0714 0.2628
5983.0000 2.8281 2.7148 2.6245 90.1310 109.8046 7.8520 -0.0043 0.2848 2.9916 2.5441 187.0179 0.2673
5983.5000 2.8835 2.7348 2.6443 88.8214 112.3742 7.8770 -0.0079 0.2862 3.0267 2.5552 186.9167 0.2698
5984.0000 2.8112 2.7163 2.6271 89.4615 106.9497 7.8520 -0.0033 0.2998 3.0573 2.5660 186.8571 0.2841
5984.5000 2.7506 2.6308 2.5597 89.8798 108.2140 7.8770 0.0112 0.3026 3.1240 2.5777 186.9018 0.3032
5985.0000 2.6674 2.5497 2.4657 90.2593 107.8060 7.8770 0.0224 0.3057 3.1460 2.5686 186.9375 0.3008
5985.5000 2.7313 2.5936 2.5089 90.7922 116.3717 7.8520 0.0226 0.2906 3.1143 2.5659 186.9286 0.2928
