~VERSION INFORMATION
VERS.           1.2   :CWLS Log ASCII Standard - VERSION 1.2
WRAP.           NO    :One Line per depth step
PROD.  Schlumberger   :LAS Producer
PROG.  DLIS to ASCII 17C0-152                          :LAS Program name and version
CREA.        2013/08/16 09:04                          :LAS Creation date {YYYY/MM/DD hh:mm}
DLIS_CREA.  2013-Aug-16 00:16                          :DLIS Creation date and time {YYYY-MMM-DD hh:mm}
SOURCE.     960568ea-4174-41e0-a405-0f32a02141a6       :DLIS File Name
#--------------------------------------------------
~WELL INFORMATION
#MNEM.UNIT      DATA             DESCRIPTION
#---- ------ --------------   -----------------------------
STRT .F      457.0000        :START DEPTH        # original; data subset to 5500-8000
STOP .F      7701.0000       :STOP DEPTH        # original; data subset to 5500-8000
STEP .F       0.5000         :STEP       
NULL .          -999.25      :NULL VALUE
COMP .                 COMPANY:  Bear Oil & Gas, Inc.               
WELL .                    WELL:  Fornstrom 13-32A                   
FLD  .                   FIELD:  Wildcat                            
LOC  .                LOCATION:  SHL: NWSW 1925' FSL & 540" FWL     
CNTY .                  COUNTY:  Laramie                            
STAT .                   STATE:  Wyoming                            
CTRY .                 COUNTRY:  United States                      
SRVC .         SERVICE COMPANY:  Schlumberger                       
LATI .DEG             LATITUDE:  41.307320 degrees                  
LONG .DEG            LONGITUDE:  -104.11715 degrees                 
API  .              API NUMBER:  49-021-21022                       
DATE .                LOG DATE:  15-Aug-2013
UWI  .          UNIQUE WELL ID:  49021210220000                     
#-----------------------------------------------------------------------------
~PARAMETER INFORMATION
#MNEM.UNIT    VALUE                      DESCRIPTION
#---- -----   --------------------       ------------------------
CN   .        Bear Oil & Gas  Inc.       :Company Name
WN   .        Fornstrom 13-32A           :Well Name
FN   .        Wildcat                    :Field Name
FL   .        SHL  NWSW 1925' FSL & 540  FWL :Field Location
FL1  .        Sec. 32  T. 16N  R. 60W    :Field Location, Line 1
COUN .        Laramie                    :County or Parish
STAT .        Wyoming                    :State or Province
NATI .        United States              :Nation
DATE .        15-Aug-2013                :Tools Above Rotary Table Date
APIN .        49-021-21022               :API Well Number
SECT .        32                         :Section
TOWN .        16N                        :Township
RANG .        60W                        :Range
DMF  .        KB                         :Drilling Measured From (Name of Drilling Elevation Reference)
LMF  .        KB                         :Logging Measured From (Name of Logging Elevation Reference)
PDAT .        GL                         :Permanent Datum
ENGI .        Max Pace                   :Engineer s Name
WITN .        Tery Eittreim              :Witness s Name
LATI .        41.307320 degrees          :Latitude
LONG .        -104.11715 degrees         :Longitude
LUL  .        Fort Morgan  CO            :Logging Unit Location
LUN  .        3030                       :Logging Unit Number
RUN  .        Run 1                      :Run Number
SON  .        CA0R-00040                 :Service Order Number
BHT  .DEGF     168.00000                 :Bottom Hole Temperature
BS   .IN         7.87500                 :Bit Size
MDEN .G/C3       2.65000                 :Matrix Density for Density Porosity
DFD  .LB/G       8.80000                 :Drilling Fluid Density
DFV  .S         36.00000                 :Drilling Fluid Viscosity
DFL  .C3         5.00000                 :Drilling Fluid Loss
RMFS .OHMM       1.11000                 :Resistivity of Mud Filtrate Sample
EKB  .F       5298.00000                 :Elevation of Kelly Bushing
EGL  .F       5286.00000                 :Elevation of Ground Level
BLI  .F       7687.00000                 :Bottom Log Interval
BSAL .PPM     3295.90967                 :Borehole Salinity
FLEV .F          8.00000                 :Depth of Drilling Fluid Level to LMF (Log Measured From)
MCST .DEGF      84.00000                 :Mudcake Sample Temperature
MFST .DEGF      84.00000                 :Mud Filtrate Sample Temperature
MRT  .DEGF     168.00000                 :Maximum Recorded Temperature
MST  .DEGF      84.00000                 :Mud Sample Temperature
RMCS .OHMM       1.85000                 :Resistivity of Mud Cake Sample
RMS  .OHMM       1.48000                 :Resistivity of Mud Sample
RW   .OHMM       1.00000                 :Connate Water Resistivity
TDD  .F       7680.00000                 :Driller Total Depth
TDL  .F       7687.00000                 :Logger Total Depth
TLI  .F       1026.25000                 :Top Log Interval
HIDE .        Wildcat                    :Header Identifier
MATR .        SAND                       :Rock Matrix for Neutron Porosity Corrections
FNUM .           1.00000                 :F-Numerator for Formation Factor Formula
FEXP .           2.00000                 :Exponent "m" for Formation Factor Formula
DFT  .        Fresh Water                :Drilling Fluid Type
DFPH .           8.50000                 :Drilling Fluid pH
MCSS .        Calculated                 :Mudcake Sample Source
MFSS .        Calculated                 :Mud Filtrate Sample Source
FD   .G/C3       1.00000                 :Fluid Density
MSS  .        Active Tank                :Mud Sample Source
OS1  .                                   :Other Services Line 1
OS2  .                                   :Other Services Line 2
OS3  .                                   :Other Services Line 3
OS4  .                                   :Other Services Line 4
OS5  .                                   :Other Services Line 5
R1   .                                   :Remarks Line 1
R2   .                                   :Remarks Line 2
R3   .                                   :Remarks Line 3
R4   .                                   :Remarks Line 4
R5   .                                   :Remarks Line 5
R6   .                                   :Remarks Line 6
R7   .                                   :Remarks Line 7
R8   .                                   :Remarks Line 8
TCS  .        14 00 00                   :Time Circulation Stopped
TLAB .        22 20 59                   :Time Logger At Bottom
NMT  .        NOBARITE                   :HRDD Mud Type for Nuclear Devices
EPD  .F         5286.000000              :Elevation of Permanent Datum above Mean Sea Level
APD  .F          12.000000               :Elevation of Depth Reference (LMF) above Permanent Datum
#-----------------------------------------------------------------------------
~CURVE INFORMATION
#MNEM.UNIT   API CODE                                  DESCRIPTION
#---- -----  --------                                  -----------------------
DEPT .F                                                :DEPTH (BOREHOLE) {F12.4}
AT10 .OHMM                                             :Array Induction Two Foot Resistivity A10 {F11.4}
AT30 .OHMM                                             :Array Induction Two Foot Resistivity A30 {F11.4}
AT90 .OHMM                                             :Array Induction Two Foot Resistivity A90 {F11.4}
GR   .GAPI                                             :Gamma Ray {F11.4}
HCAL .IN                                               :HRCC Caliper Calibrated {F11.4}
HDRA .G/C3                                             :Density Standoff Correction {F11.4}
NPHI .CFCF                                             :Thermal Neutron Porosity (original Ratio Method) in Selected Lithology {F11.4}
PEFZ .                                                 :Standard Resolution Formation Photoelectric Factor {F11.4}
RHOZ .G/C3                                             :Standard Resolution Formation Density {F11.4}
SP   .MV                                               :Spontaneous Potential {F11.4}
TNPH .CFCF                                             :Thermal Neutron Porosity (Ratio Method) in Selected Lithology {F11.4}
#-----------------------------------------------------------------------------
# 
#      DEPT        AF10       AF20       AF30       AF60       AF90       AO10       AO20       AO30       AO60       AO90       AT10       AT20       AT30       AT60       AT90     AHFCO60      AHMF      AHORT      AHORX      AHSCA     AHTCO10    AHTCO20    AHTCO30    AHTCO60    AHTCO90     AHTD1      AHTD2      AHTRT      AHTRX       CDF        CFTC       CNTC       CTEM       DCAL       DNPH       DPHZ       DSOZ       ECGR        ED        GDEV        GR        GTEM       HCAL       HDRA       HDRB       HGR        HMIN       HMNO       HNPO       HPRA       HTNP        ND        NPHI       NPOR       PEFZ    PXND_HILT     RHOZ       RSOZ     RWA_HILT     RXO8       RXOZ        SP        SPAR       STIT       TENS       TNPH     HTNP_SAN
#
~A  DEPT AT10 AT30 AT90 GR HCAL HDRA NPHI PEFZ RHOZ SP TNPH
# ...
6524.0000 2.5515 2.3585 2.3057 270.5663 7.6449 -0.0071 0.3644 3.7747 2.4510 58.9732 0.3539
6524.5000 2.4928 2.3418 2.2878 270.7181 7.6449 -0.0045 0.3850 3.7834 2.4498 59.4063 0.3571
6525.0000 2.6192 2.4301 2.3747 265.6620 7.6565 -0.0025 0.3820 3.8187 2.4565 59.1161 0.3789
6525.5000 2.7661 2.5643 2.5027 273.0505 7.6449 -0.0018 0.3694 3.8728 2.4666 59.2969 0.3738
6526.0000 2.9649 2.7541 2.6927 292.7633 7.6218 -0.0005 0.3790 3.9257 2.4793 59.3036 0.3518
6526.5000 3.1775 2.8266 2.7623 305.2389 7.6449 -0.0004 0.3912 3.9701 2.4803 58.9609 0.3721
6527.0000 3.1472 2.8589 2.8009 299.5446 7.6218 -0.0026 0.4238 4.0226 2.4653 59.1339 0.3923
6527.5000 3.1291 2.8831 2.8296 294.4596 7.6449 -0.0031 0.4176 4.0675 2.4446 59.0625 0.4208
6528.0000 3.1566 2.9197 2.8723 299.7586 7.6218 -0.0023 0.3990 4.0919 2.4305 59.3214 0.4169
6528.5000 3.2038 2.9635 2.9158 306.3004 7.6449 -0.0021 0.4074 4.0580 2.4285 59.2422 0.3957
6529.0000 3.1356 2.9587 2.9123 305.4516 7.6218 -0.0036 0.4129 4.0348 2.4213 58.6016 0.3894
6529.5000 2.9991 2.8317 2.7997 306.0879 7.6218 -0.0031 0.4276 4.0139 2.4142 58.3750 0.4065
6530.0000 2.9105 2.6953 2.6620 304.3918 7.6449 0.0015 0.4235 4.0485 2.4073 58.2422 0.4335
6530.5000 3.2205 2.9656 2.9353 316.6257 7.6449 0.0036 0.4194 4.0492 2.4044 58.3929 0.4348
6531.0000 3.5077 3.2544 3.2305 324.8920 7.6334 0.0033 0.4311 4.0364 2.4074 58.7891 0.4224
6531.5000 3.3817 3.1943 3.1599 335.0667 7.6449 -0.0006 0.4382 4.0516 2.4027 58.6339 0.4148
6532.0000 3.3957 3.1595 3.1220 326.1029 7.6218 -0.0044 0.4804 4.1288 2.3975 58.9297 0.4211
6532.5000 3.4979 3.2463 3.2043 329.2829 7.6218 -0.0073 0.4699 4.2207 2.3941 59.0469 0.4794
6533.0000 3.5950 3.3198 3.2619 327.8291 7.6334 -0.0085 0.4407 4.2739 2.3933 58.8214 0.4875
6533.5000 3.4674 3.2906 3.2372 327.1019 7.6449 -0.0081 0.3854 4.2886 2.3905 59.0268 0.4432
6534.0000 3.3208 3.1154 3.0457 313.7175 7.6334 -0.0085 0.3666 4.2777 2.3789 58.6250 0.3775
6534.5000 3.2534 3.0600 2.9756 306.0567 7.6218 -0.0082 0.3688 4.2184 2.3671 58.6250 0.3610
6535.0000 3.3054 3.1259 3.0119 284.7389 7.6334 -0.0076 0.4078 4.1722 2.3580 58.4732 0.3589
6535.5000 3.3133 3.0117 2.9024 271.4141 7.6449 -0.0052 0.4120 4.0893 2.3538 58.1406 0.3914
6536.0000 2.9820 2.7781 2.6786 256.3039 7.6218 -0.0028 0.4400 3.9457 2.3490 58.5268 0.4036
6536.5000 2.5784 2.4141 2.3389 249.6417 7.6218 -0.0024 0.4310 3.6805 2.3479 58.0000 0.4391
6537.0000 2.2970 2.1665 2.0984 237.0458 7.6102 -0.0038 0.4380 3.4853 2.3338 58.0000 0.4206
6537.5000 2.6389 2.4014 2.3174 219.5122 7.6449 -0.0080 0.4198 3.4046 2.3276 58.1953 0.4172
6538.0000 2.7885 2.6419 2.5418 218.4224 7.6449 -0.0089 0.4109 3.4162 2.3291 57.7232 0.4010
6538.5000 2.9662 2.6101 2.4937 221.6925 7.6218 -0.0089 0.3948 3.4306 2.3315 57.8203 0.4014
6539.0000 2.4613 2.4253 2.3421 228.5672 7.6218 -0.0053 0.4310 3.3898 2.3236 57.2321 0.3973
6539.5000 2.0607 1.9047 1.8522 224.9327 7.6449 -0.0024 0.4462 3.3219 2.3088 56.8516 0.4321
6540.0000 1.9927 1.8547 1.8040 213.9103 7.7374 -0.0012 0.5129 3.2702 2.3011 57.6518 0.4330
6540.5000 2.5974 2.3846 2.2506 207.3683 7.6449 -0.0020 0.4858 3.3042 2.2992 57.8828 0.5323
6541.0000 3.2516 2.9596 2.7940 206.1580 7.6218 -0.0035 0.4665 3.4342 2.2969 58.5000 0.4940
6541.5000 3.6417 3.2246 3.0463 219.9656 7.6218 -0.0053 0.4145 3.5940 2.2994 58.3906 0.4647
6542.0000 3.8281 3.4605 3.2378 230.0200 7.6449 -0.0060 0.4070 3.7284 2.3124 58.3661 0.3858
6542.5000 3.5029 3.2914 3.1152 236.5905 7.6449 -0.0068 0.3903 3.7646 2.3337 58.2188 0.3871
6543.0000 3.2237 2.9334 2.8058 231.0190 7.6449 -0.0052 0.3888 3.6679 2.3616 57.6641 0.3771
6543.5000 2.9448 2.7025 2.5730 220.2382 7.6449 -0.0019 0.3957 3.5501 2.3608 57.7232 0.3817
6544.0000 2.6833 2.5701 2.4456 210.4879 7.6449 0.0010 0.4106 3.4149 2.3423 57.4141 0.4006
6544.5000 2.2975 2.1882 2.0827 187.8367 7.6449 0.0018 0.3885 3.2748 2.3194 57.0714 0.3886
6545.0000 2.2002 2.0142 1.9293 167.7296 7.6911 -0.0005 0.3584 3.0994 2.3151 57.1719 0.3583
6545.5000 2.4237 2.3097 2.1516 152.0434 7.6449 0.0008 0.3415 2.9888 2.3316 56.8393 0.3369
6546.0000 2.4118 2.2939 2.1641 158.7063 7.6449 0.0016 0.3610 2.9468 2.3352 56.9922 0.3332
6546.5000 2.3245 2.1738 2.0766 167.5484 7.6449 0.0058 0.3647 2.9709 2.3525 56.5625 0.3549
6547.0000 2.4303 2.3347 2.2068 180.8427 7.6796 0.0041 0.3640 3.0077 2.3583 57.1641 0.3533
6547.5000 2.7686 2.5525 2.3643 190.5020 7.6680 0.0001 0.3446 3.1340 2.3606 57.4844 0.3373
6548.0000 3.3335 3.1634 2.9252 196.6799 7.6449 -0.0000 0.3643 3.2278 2.3481 57.3304 0.3239
6548.5000 3.1917 3.0601 2.8306 189.5337 7.6680 -0.0026 0.3590 3.2395 2.3255 57.7500 0.3472
6549.0000 2.6325 2.5038 2.3545 178.6623 7.6449 0.0029 0.3981 3.0708 2.3290 57.2734 0.3421
6549.5000 2.1640 2.0085 1.9391 175.4521 7.6680 0.0017 0.3711 2.8760 2.3409 57.1071 0.3746
6550.0000 2.3273 2.1868 2.0227 167.3360 7.6911 0.0033 0.3747 2.7565 2.3713 57.7344 0.3377
6550.5000 2.4885 2.4230 2.1393 156.7984 7.6680 0.0003 0.3243 2.7725 2.3885 57.6016 0.3419
6551.0000 2.7051 2.0455 1.8920 148.8641 7.6449 -0.0018 0.3113 2.7723 2.3634 57.6339 0.3205
6551.5000 1.6845 1.4813 1.3720 160.5835 7.6680 0.0007 0.4060 2.7199 2.2871 56.7188 0.3407
6552.0000 0.8916 0.8439 0.8142 180.8118 7.6565 0.0116 0.4573 2.6742 2.2154 55.9196 0.4202
6552.5000 0.6569 0.6566 0.6413 188.9579 8.0610 0.0121 0.4687 2.7178 2.1934 56.3984 0.4337
6553.0000 1.0127 0.9714 0.9338 202.9174 7.7143 0.0168 0.3915 3.0265 2.2521 56.7679 0.4187
6553.5000 1.8246 1.7022 1.6132 214.9095 7.6449 0.0086 0.3834 3.4614 2.3082 57.1172 0.3890
6554.0000 3.2373 2.4381 2.1418 249.1578 7.6449 0.0088 0.4260 3.9536 2.3470 57.5625 0.4136
6554.5000 3.9244 2.8743 2.5830 270.5981 7.6449 0.0004 0.4476 4.3463 2.3430 57.7266 0.4560
6555.0000 3.8852 2.9637 2.6484 299.0614 7.6334 0.0000 0.4468 4.5753 2.3386 58.1339 0.4544
6555.5000 3.5060 2.7788 2.5715 334.5520 7.6218 0.0064 0.4366 4.6296 2.3473 57.9141 0.4339
6556.0000 3.0306 2.5751 2.4869 397.5061 7.6218 0.0144 0.4454 4.5432 2.3686 57.8393 0.4303
6556.5000 2.7341 2.4288 2.2908 427.7889 7.6218 0.0179 0.4553 4.4125 2.4007 57.6484 0.4262
6557.0000 2.5580 2.3318 2.1919 413.8000 7.6334 0.0114 0.4392 4.2017 2.4227 57.5000 0.4343
6557.5000 2.4457 2.2275 2.0719 361.6232 7.6449 0.0106 0.4315 3.8792 2.4102 57.7578 0.4274
6558.0000 1.8782 1.8601 1.7326 306.9046 7.6565 0.0228 0.4494 3.5492 2.3932 57.2578 0.4372
6558.5000 1.5006 1.3944 1.3314 281.5275 7.6449 0.0371 0.4411 3.3711 2.3650 56.8482 0.4494
6559.0000 1.5626 1.5210 1.4365 242.5561 7.7374 0.0412 0.3890 3.4032 2.3853 57.3672 0.3968
6559.5000 2.4690 2.2514 2.0427 226.5373 7.6449 0.0248 0.3105 3.5843 2.3998 57.0536 0.3316
6560.0000 4.5558 3.7032 3.2353 207.8229 7.6449 0.0087 0.2804 3.8773 2.4108 57.3984 0.2821
6560.5000 6.1105 5.0260 4.3614 215.3028 7.6218 0.0075 0.3220 4.0235 2.4026 57.5357 0.2830
6561.0000 3.9388 3.5078 3.1610 215.8473 7.6449 0.0056 0.3438 4.0007 2.4044 57.3594 0.3022
6561.5000 3.0996 2.7717 2.6755 201.3729 7.6449 0.0073 0.3435 3.8259 2.4252 57.1696 0.3059
6562.0000 3.3766 3.2526 3.0828 193.0464 7.6449 -0.0011 0.3233 3.7181 2.4285 57.0156 0.3121
6562.5000 3.5003 3.4380 3.3297 194.4391 7.6449 -0.0003 0.3266 3.6464 2.4091 57.2054 0.3226
6563.0000 3.1120 3.0054 2.9171 198.5272 7.6680 -0.0015 0.3378 3.6139 2.3837 56.9453 0.3391
6563.5000 3.0799 3.0841 2.9857 191.3504 7.6680 -0.0026 0.3479 3.6239 2.3769 56.2679 0.3243
6564.0000 3.1397 3.0817 2.9505 198.8594 7.6680 -0.0049 0.3532 3.7869 2.3759 56.1016 0.3173
6564.5000 4.1144 3.7187 3.5921 205.9150 7.6680 -0.0062 0.3531 4.0086 2.3834 56.0357 0.3128
6565.0000 6.1296 5.8430 5.2670 208.0045 7.6680 -0.0075 0.3300 4.2463 2.3901 56.5078 0.3084
6565.5000 8.8978 8.2517 7.4137 200.0108 7.6680 -0.0074 0.2900 4.3788 2.4013 56.8571 0.2913
6566.0000 8.6277 8.3907 7.5728 201.4338 7.6449 -0.0054 0.2718 4.3570 2.4160 56.9844 0.2658
6566.5000 8.0853 7.6404 7.0848 202.4933 7.6680 -0.0055 0.2738 4.2398 2.4219 57.6016 0.2662
6567.0000 6.5792 6.5286 6.1626 196.2861 7.6680 -0.0057 0.2948 4.0479 2.4294 57.8750 0.2776
6567.5000 5.4709 5.4818 5.2285 191.4713 7.6911 -0.0079 0.3161 3.9272 2.4258 57.8984 0.2955
6568.0000 4.6686 4.7572 4.5526 192.5306 7.6796 -0.0077 0.3255 3.8951 2.4265 57.7768 0.2976
