~VERSION INFORMATION
VERS.           1.2   :CWLS Log ASCII Standard - VERSION 1.2
WRAP.           NO    :One Line per depth step
PROD.  Schlumberger   :LAS Producer
PROG.  DLIS to ASCII 17C0-152                          :LAS Program name and version
CREA.        2013/10/21 20:50                          :LAS Creation date {YYYY/MM/DD hh:mm}
DLIS_CREA.  2013-Oct-21 08:39                          :DLIS Creation date and time {YYYY-MMM-DD hh:mm}
SOURCE.     9ec8b34d-aca5-43ef-91a8-8c41069c79cd       :DLIS File Name
#--------------------------------------------------
~WELL INFORMATION
#MNEM.UNIT      DATA             DESCRIPTION
#---- ------ --------------   -----------------------------
STRT .F      901.5000        :START DEPTH        # original; data subset to 5500-8000
STOP .F      7746.5000       :STOP DEPTH        # original; data subset to 5500-8000
STEP .F       0.5000         :STEP       
NULL .          -999.25      :NULL VALUE
COMP .                 COMPANY:  Bear Oil and Gas, Inc.             
WELL .                    WELL:  McGahan Farms 32 31                
FLD  .                   FIELD:  Wildcat                            
LOC  .                LOCATION:  SHL: SWNE 2563' FNL & 1423' FEL    
CNTY .                  COUNTY:  Laramie                            
STAT .                   STATE:  Wyoming                            
CTRY .                 COUNTRY:  United States                      
SRVC .         SERVICE COMPANY:  Schlumberger                       
LATI .DEG             LATITUDE:  41.309490 degrees                  
LONG .DEG            LONGITUDE:  -104.12429 degrees                 
API  .              API NUMBER:  49-021-21045                       
DATE .                LOG DATE:  21-Oct-2013
UWI  .          UNIQUE WELL ID:  49021210450000                     
#-----------------------------------------------------------------------------
~PARAMETER INFORMATION
#MNEM.UNIT    VALUE                      DESCRIPTION
#---- -----   --------------------       ------------------------
CN   .        Bear Oil and Gas  Inc.     :Company Name
WN   .        McGahan Farms 32 31        :Well Name
FN   .        Wildcat                    :Field Name
FL   .        SHL  SWNE 2563' FNL & 1423' FEL :Field Location
FL1  .        Section 31  Township 16N  Range 60W :Field Location, Line 1
COUN .        Laramie                    :County or Parish
STAT .        Wyoming                    :State or Province
NATI .        United States              :Nation
DATE .        21-Oct-2013                :Tools Above Rotary Table Date
APIN .        49-021-21045               :API Well Number
SECT .        31                         :Section
TOWN .        16N                        :Township
RANG .        60W                        :Range
DMF  .        KB                         :Drilling Measured From (Name of Drilling Elevation Reference)
LMF  .        KB                         :Logging Measured From (Name of Logging Elevation Reference)
PDAT .        GL                         :Permanent Datum
ENGI .        Max Pace                   :Engineer s Name
WITN .        Terry                      :Witness s Name
LATI .        41.309490 degrees          :Latitude
LONG .        -104.12429 degrees         :Longitude
LUL  .        Fort Morgan  CO            :Logging Unit Location
LUN  .        3022                       :Logging Unit Number
RUN  .        Run 1                      :Run Number
SON  .        CA0R-00056                 :Service Order Number
BHT  .DEGF     166.00000                 :Bottom Hole Temperature
BS   .IN         7.87500                 :Bit Size
MDEN .G/C3       2.65000                 :Matrix Density for Density Porosity
DFD  .LB/G       9.10000                 :Drilling Fluid Density
DFV  .S         63.00000                 :Drilling Fluid Viscosity
DFL  .C3         8.80000                 :Drilling Fluid Loss
RMFS .OHMM       1.24500                 :Resistivity of Mud Filtrate Sample
EKB  .F       5307.00000                 :Elevation of Kelly Bushing
EGL  .F       5295.00000                 :Elevation of Ground Level
BLI  .F       7730.00000                 :Bottom Log Interval
BSAL .PPM        0.00000                 :Borehole Salinity
FLEV .F          8.00000                 :Depth of Drilling Fluid Level to LMF (Log Measured From)
MCST .DEGF      61.00000                 :Mudcake Sample Temperature
MFST .DEGF      61.00000                 :Mud Filtrate Sample Temperature
MRT  .DEGF     166.00000                 :Maximum Recorded Temperature
MST  .DEGF      61.00000                 :Mud Sample Temperature
RMCS .OHMM       2.07500                 :Resistivity of Mud Cake Sample
RMS  .OHMM       1.66000                 :Resistivity of Mud Sample
RW   .OHMM       1.00000                 :Connate Water Resistivity
TDD  .F       7719.99951                 :Driller Total Depth
TDL  .F       7730.00000                 :Logger Total Depth
TLI  .F       1023.75000                 :Top Log Interval
HIDE .        Wildcat                    :Header Identifier
MATR .        SAND                       :Rock Matrix for Neutron Porosity Corrections
FNUM .           1.00000                 :F-Numerator for Formation Factor Formula
FEXP .           2.00000                 :Exponent "m" for Formation Factor Formula
DFT  .        Fresh Water                :Drilling Fluid Type
DFPH .           7.50000                 :Drilling Fluid pH
MCSS .        Calculated                 :Mudcake Sample Source
MFSS .        Calculated                 :Mud Filtrate Sample Source
FD   .G/C3       1.00000                 :Fluid Density
MSS  .        Active Tank                :Mud Sample Source
OS1  .                                   :Other Services Line 1
OS2  .                                   :Other Services Line 2
OS3  .                                   :Other Services Line 3
OS4  .                                   :Other Services Line 4
OS5  .                                   :Other Services Line 5
R1   .        Tool string run as per tool sketch :Remarks Line 1
R2   .        All Schlumberger depth control procedures followed :Remarks Line 2
R3   .        IDW used as primary depth reference :Remarks Line 3
R4   .        Z Chart used as secondary depth reference :Remarks Line 4
R5   .        Matrix Density zoned as per client request :Remarks Line 5
R6   .        Crew  Max Pace  Tyler Riter  Cody Bruns :Remarks Line 6
R7   .                                   :Remarks Line 7
R8   .                                   :Remarks Line 8
TCS  .        19 00 00                   :Time Circulation Stopped
TLAB .        06 35 50                   :Time Logger At Bottom
NMT  .        NOBARITE                   :HRDD Mud Type for Nuclear Devices
EPD  .C3         5295.000000             :Elevation of Permanent Datum above Mean Sea Level
APD  .F          12.000000               :Elevation of Depth Reference (LMF) above Permanent Datum
#-----------------------------------------------------------------------------
~CURVE INFORMATION
#MNEM.UNIT   API CODE                                  DESCRIPTION
#---- -----  --------                                  -----------------------
DEPT .F                                                :DEPTH (BOREHOLE) {F12.4}
AT10 .OHMM                                             :Array Induction Two Foot Resistivity A10 {F11.4}
AT30 .OHMM                                             :Array Induction Two Foot Resistivity A30 {F11.4}
AT90 .OHMM                                             :Array Induction Two Foot Resistivity A90 {F11.4}
DT   .US/F                                             :Delta-T (also called Slowness or Interval Transit Time) {F11.4}
GR   .GAPI                                             :Gamma Ray {F11.4}
HCAL .IN                                               :HRCC Caliper Calibrated {F11.4}
HDRA .G/C3                                             :Density Standoff Correction {F11.4}
NPHI .CFCF                                             :Thermal Neutron Porosity (original Ratio Method) in Selected Lithology {F11.4}
PEFZ .                                                 :Standard Resolution Formation Photoelectric Factor {F11.4}
RHOZ .G/C3                                             :Standard Resolution Formation Density {F11.4}
SP   .MV                                               :Spontaneous Potential {F11.4}
TNPH .CFCF                                             :Thermal Neutron Porosity (Ratio Method) in Selected Lithology {F11.4}
#-----------------------------------------------------------------------------
# 
#      DEPT        AF10       AF20       AF30       AF60       AF90       AO10       AO20       AO30       AO60       AO90       AT10       AT20       AT30       AT60       AT90     AHFCO60      AHMF      AHORT      AHORX      AHSCA     AHTCO10    AHTCO20    AHTCO30    AHTCO60    AHTCO90     AHTD1      AHTD2      AHTRT      AHTRX       CDF        CFTC       CNTC       CTEM       DCAL       DNPH       DPHZ       DSOZ        DT        ECGR        ED        GDEV        GR        GTEM       HCAL       HDRA       HDRB       HGR        HMIN       HMNO       HNPO       HPRA       HTNP       ITT         ND        NPHI       NPOR       PEFZ    PXND_HILT     RHOZ       RSOZ     RWA_HILT     RXO8       RXOZ        SP        SPAR       SPHI       STIT       TENS       TNPH     HTNP_SAN
#
~A  DEPT AT10 AT30 AT90 DT GR HCAL HDRA NPHI PEFZ RHOZ SP TNPH
# ...
7563.0000 2.1100 2.2155 2.1581 88.3218 123.7444 10.8756 0.3080 0.3600 1.7840 2.0028 239.6071 0.3439
7563.5000 2.5391 2.7185 2.6074 93.3364 125.4574 9.7011 0.2652 0.3605 1.7547 1.9337 239.5391 0.3553
7564.0000 3.2333 3.6907 3.4862 88.0806 118.1147 7.9770 0.3065 0.3490 1.7773 2.0385 239.0156 0.3229
7564.5000 3.6397 4.7003 4.4889 82.5039 109.1210 8.0769 0.3073 0.2984 1.8890 2.1319 238.4107 0.2846
7565.0000 4.6505 4.9935 4.9846 81.1940 99.4849 9.0515 0.2803 0.2820 2.1442 2.2766 236.8906 0.2505
7565.5000 6.0198 6.0662 5.6763 77.7340 98.2612 8.4268 0.2397 0.2796 2.5140 2.4457 234.1161 0.2536
7566.0000 7.7864 8.3127 7.3594 75.2658 90.7659 8.0519 0.2182 0.2830 2.7764 2.5740 231.2109 0.2387
7566.5000 9.2584 9.8167 9.5212 72.2500 96.3334 8.1519 0.1930 0.2400 2.7573 2.5726 228.7266 0.2301
7567.0000 10.0283 10.7654 10.9747 71.3113 94.6207 8.2519 0.1567 0.2116 2.5402 2.5153 226.0536 0.1978
7567.5000 11.0660 12.5045 12.5618 70.6099 104.2568 8.4393 0.1100 0.1805 2.3295 2.4958 222.6250 0.1815
7568.0000 13.6840 14.5993 14.1853 71.6043 92.2648 7.8271 0.0736 0.1827 2.2774 2.5126 219.6875 0.1747
7568.5000 14.0300 17.5573 15.7880 69.1647 84.1884 7.8021 0.0554 0.1664 2.2831 2.5315 217.3203 0.1693
7569.0000 15.1496 22.6768 18.4912 68.1072 77.9787 7.8520 0.0551 0.1571 2.2732 2.5401 215.9821 0.1548
7569.5000 22.7676 29.1818 22.6410 66.2809 83.7607 8.1769 0.0381 0.1567 2.2164 2.5196 213.2188 0.1444
7570.0000 48.3752 47.0096 33.9129 65.1235 77.0916 7.7646 0.0187 0.1620 2.1573 2.4995 210.1250 0.1416
7570.5000 86.3069 59.9009 42.7506 63.4062 60.3883 7.6022 0.0059 0.1370 2.0933 2.4838 207.6094 0.1326
7571.0000 82.5037 87.2596 66.9964 63.5986 41.3295 7.6272 0.0073 0.1110 2.0258 2.4747 205.0391 0.1086
7571.5000 75.5311 109.8216 105.4418 64.6844 34.2628 7.6272 0.0162 0.0976 1.9561 2.4618 202.1696 0.1026
7572.0000 73.6641 128.0076 182.7729 65.6148 32.7944 7.5772 0.0300 0.1127 1.9238 2.4511 199.9219 0.1046
7572.5000 74.1916 196.3719 235.4348 65.5452 32.3661 7.5897 0.0413 0.1220 1.9155 2.4560 198.3594 0.1140
7573.0000 74.0734 246.7190 255.8492 65.2876 26.2783 7.5772 0.0446 0.1204 1.9189 2.4457 197.4286 0.1142
7573.5000 72.8590 172.5907 207.4470 64.5784 23.6779 7.6272 0.0405 0.1124 1.9061 2.4359 196.2969 0.1086
7574.0000 72.5552 111.6352 92.8014 63.9673 21.9648 7.6397 0.0333 0.1031 1.8713 2.4246 195.0156 0.1043
7574.5000 70.6260 88.6252 72.1359 63.9593 23.9229 7.6521 0.0253 0.1041 1.8271 2.4245 193.7589 0.0982
7575.0000 70.9289 72.4106 57.1387 63.7649 23.4946 7.6521 0.0258 0.1008 1.7918 2.4370 192.3828 0.0977
7575.5000 71.0706 68.2789 50.7655 63.4959 26.3397 7.6397 0.0312 0.1021 1.7813 2.4571 191.0547 0.0960
7576.0000 67.3717 70.0343 51.9267 63.4258 26.1867 7.5772 0.0360 0.0982 1.7903 2.4639 190.0804 0.0986
7576.5000 67.3840 71.8223 53.2253 63.2600 27.0434 7.6272 0.0342 0.0978 1.8069 2.4622 189.2656 0.0961
7577.0000 68.9945 74.4723 51.7847 63.4551 27.1962 7.6147 0.0367 0.1040 1.8287 2.4595 188.1484 0.0978
7577.5000 69.7841 73.2648 51.3974 63.2704 26.8597 7.6521 0.0339 0.1122 1.8363 2.4642 187.6696 0.1038
7578.0000 68.5120 71.4452 50.1358 62.9072 26.2172 7.6272 0.0321 0.1152 1.8358 2.4645 188.1328 0.1118
7578.5000 67.3126 70.0600 48.0528 62.5932 26.3090 7.6521 0.0250 0.1162 1.8265 2.4543 188.4375 0.1123
7579.0000 62.7919 60.4841 46.1141 62.7391 23.4333 7.6521 0.0229 0.1164 1.8237 2.4445 188.4554 0.1106
7579.5000 58.9852 56.3152 43.6388 62.8661 25.3607 7.6272 0.0260 0.1139 1.8236 2.4473 188.3047 0.1079
7580.0000 54.1736 56.1939 43.8773 63.2134 21.2001 7.6771 0.0231 0.1028 1.8262 2.4425 189.1563 0.1019
7580.5000 51.3868 49.8408 40.1107 64.2988 26.7679 7.6272 0.0215 0.1027 1.8395 2.4447 190.3661 0.0959
7581.0000 44.1683 47.2632 39.9595 65.5557 31.9071 7.5772 0.0126 0.1080 1.8736 2.4384 191.2734 0.1048
7581.5000 39.2106 40.5392 35.0124 65.8842 44.3888 7.5772 0.0178 0.1155 1.9219 2.4544 190.9375 0.1138
7582.0000 38.2943 40.8633 35.6106 66.2650 51.0273 7.6521 0.0233 0.1204 1.9430 2.4652 190.0357 0.1162
7582.5000 46.2000 44.9949 39.1755 64.8675 46.5306 7.5522 0.0236 0.1235 1.9080 2.4654 189.2891 0.1154
7583.0000 50.3672 51.0033 44.0169 64.3124 37.9646 7.5772 0.0226 0.1245 1.8393 2.4581 188.9107 0.1120
7583.5000 53.8023 50.0111 44.2265 64.1656 29.3989 7.5772 0.0287 0.1087 1.7995 2.4552 188.8516 0.1098
7584.0000 52.3561 50.4489 45.7825 64.0608 27.6856 7.5522 0.0424 0.1072 1.8041 2.4649 188.6484 0.1000
7584.5000 51.6222 50.9808 45.3867 65.0593 25.7277 7.5397 0.0460 0.1079 1.8170 2.4727 188.4643 0.1040
7585.0000 52.2165 50.9401 45.6041 64.6501 25.5137 7.5522 0.0378 0.1150 1.8025 2.4679 188.2422 0.1073
7585.5000 51.8100 53.3350 45.8234 64.0852 23.1581 7.5772 0.0315 0.1101 1.7723 2.4589 187.7969 0.1098
7586.0000 50.1494 54.2248 46.5700 64.0366 24.1371 7.5522 0.0321 0.1021 1.7502 2.4544 187.7321 0.1034
7586.5000 48.7751 50.9292 44.2114 63.7725 22.6380 7.5522 0.0380 0.1008 1.7463 2.4615 187.7266 0.0952
7587.0000 46.6004 44.9151 39.4481 64.0063 26.9210 7.5522 0.0458 0.1022 1.7526 2.4789 187.6094 0.0953
7587.5000 43.5873 41.4311 36.8181 64.1798 26.3397 7.5272 0.0492 0.1045 1.7685 2.4888 187.1518 0.0969
7588.0000 43.3446 39.9916 35.5821 64.2291 25.0854 7.5272 0.0476 0.1012 1.7902 2.4874 186.8750 0.0956
7588.5000 42.0894 38.3199 33.4247 63.7644 22.5154 7.6022 0.0432 0.0947 1.8175 2.4790 186.9219 0.0935
7589.0000 40.2689 36.9859 32.0874 62.7567 21.0166 7.5772 0.0481 0.0932 1.8446 2.4747 187.1696 0.0895
7589.5000 37.0125 34.7767 30.2026 63.2450 21.0165 7.5772 0.0504 0.0996 1.8462 2.4749 187.4297 0.0914
7590.0000 34.9015 33.6846 29.0106 64.6238 23.1580 7.5022 0.0530 0.1073 1.8279 2.4782 187.4766 0.0996
7590.5000 34.8988 31.9543 27.9115 64.8799 23.1578 7.5272 0.0453 0.1082 1.8077 2.4695 187.6339 0.1049
7591.0000 35.2962 32.8361 27.6390 64.7402 26.0946 7.5272 0.0452 0.1060 1.8139 2.4692 188.0938 0.1021
7591.5000 36.9523 33.0204 27.0836 64.9028 25.0240 7.5522 0.0429 0.1069 1.8373 2.4641 188.6016 0.0979
7592.0000 37.8622 32.7257 26.7096 64.4303 22.6992 7.5022 0.0426 0.1045 1.8480 2.4686 189.3482 0.0987
7592.5000 37.9592 33.3596 27.0908 64.3369 24.0147 7.5272 0.0350 0.0954 1.8371 2.4605 190.4297 0.0965
7593.0000 38.6091 34.8615 27.3978 64.1997 22.0874 7.5522 0.0247 0.0836 1.8092 2.4564 191.5078 0.0905
7593.5000 37.2402 34.7947 28.6446 63.3187 25.5136 7.5772 0.0164 0.0843 1.7870 2.4535 192.8214 0.0844
7594.0000 37.6535 35.3673 29.9305 63.1930 25.5135 7.5772 0.0153 0.0931 1.7909 2.4669 194.2656 0.0842
7594.5000 37.7239 35.4607 30.5263 63.3360 28.0832 7.5772 0.0225 0.0988 1.8257 2.4786 196.6250 0.0888
7595.0000 39.3171 36.7569 31.9254 62.7813 30.0413 7.5147 0.0312 0.0956 1.8666 2.4968 198.3304 0.0904
7595.5000 37.9570 38.5653 33.2187 62.3559 31.9686 7.5022 0.0384 0.0950 1.8854 2.5035 199.5547 0.0875
7596.0000 40.3115 41.1721 34.8778 62.0616 32.3969 7.5022 0.0384 0.0929 1.8655 2.5091 201.4219 0.0892
7596.5000 43.9467 45.5646 35.5540 61.6836 30.1940 7.6022 0.0340 0.0872 1.8302 2.4990 203.7500 0.0873
7597.0000 51.5979 46.9681 33.5277 61.6886 26.5535 7.5772 0.0295 0.0735 1.7984 2.5000 205.6250 0.0789
7597.5000 52.5024 42.3156 27.5711 61.7685 27.2573 7.5522 0.0257 0.0732 1.7944 2.5069 206.9688 0.0730
7598.0000 43.0318 35.0664 21.4949 60.7617 34.7523 7.5522 0.0257 0.0878 1.8155 2.5261 208.3304 0.0806
7598.5000 36.1936 28.4731 17.7088 62.0771 45.2454 7.5522 0.0241 0.1045 1.8497 2.5271 210.3984 0.0964
7599.0000 33.0199 24.1217 14.7838 62.9334 43.2874 7.5772 0.0263 0.1100 1.8768 2.5217 212.5078 0.1051
7599.5000 33.7364 26.8871 15.0597 63.8597 34.9360 7.5647 0.0319 0.1005 1.8960 2.5157 215.0536 0.0984
7600.0000 32.0921 33.2159 16.3302 64.5070 25.0855 7.5272 0.0326 0.0902 1.9091 2.5064 218.6250 0.0874
7600.5000 33.6425 46.1000 19.2777 64.0902 28.5117 7.5272 0.0316 0.0885 1.9289 2.5032 222.2344 0.0856
7601.0000 31.8112 68.4363 25.5969 62.9711 35.1501 7.5272 0.0268 0.1006 1.9525 2.5068 224.3393 0.0960
7601.5000 29.5654 45.1072 29.2279 62.3542 49.0691 7.5522 0.0198 0.1205 1.9826 2.5189 226.0703 0.1109
7602.0000 25.7781 35.7039 27.7771 63.0822 58.1242 7.5772 0.0150 0.1416 2.0317 2.5327 229.3516 0.1308
7602.5000 19.1123 22.6306 19.5613 63.5353 74.1850 7.5772 0.0170 0.1593 2.0919 2.5360 232.3482 0.1451
