~VERSION INFORMATION
VERS.           2.0   :CWLS Log ASCII Standard - VERSION 2.0
WRAP.           NO    :One Line per depth step
PROD.  Schlumberger   :LAS Producer
PROG.  DLIS to ASCII 19C2-270                          :LAS Program name and version
CREA.        2013/08/28 17:00                          :LAS Creation date {YYYY/MM/DD hh:mm}
DLIS_CREA.  2013-Aug-28 16:23                          :DLIS Creation date and time {YYYY-MMM-DD hh:mm}
SOURCE.     Bear_Oil_Marquardt_43_31_Main_DLIS.dlis    :DLIS File Name
FILE-ID.     MaxWell_5Dlis                             :File Identification Number
#--------------------------------------------------
~WELL INFORMATION
#MNEM.UNIT      DATA             DESCRIPTION
#---- ------ --------------   -----------------------------
STRT .F      1000.5          :START DEPTH        # original; data subset to 5500-8000
STOP .F      7710.0          :STOP DEPTH        # original; data subset to 5500-8000
STEP .F       0.5            :STEP     
NULL .          -999.25      :NULL VALUE
COMP .        Bear Oil and Gas, Inc.                   :COMPANY
WELL .        Marquardt 43 31                          :WELL
FLD  .        Wildcat                                  :FIELD
LOC  .        NESE 1627' FSL & 170' FEL                :LOCATION
CNTY .        Laramie                                  :COUNTY
STAT .        Wyoming                                  :STATE
CTRY .        United States                            :COUNTRY
API  .        049-021-21034                            :API NUMBER
UWI  .        049021210340000                          :UNIQUE WELL ID
DATE .        28-Aug-2013                              :LOG DATE {DD-MMM-YYYY}
SRVC .        Schlumberger                             :SERVICE COMPANY
LATI .DEG     41.306700 degrees                        :LATITUDE
LONG .DEG     -104.11980 degrees                       :LONGITUDE
GDAT .                                                 :GeoDetic Datum
SECT .        31                                       :Section
RANG .        60W                                      :Range
TOWN .        16N                                      :Township
#-----------------------------------------------------------------------------
~PARAMETER INFORMATION
#MNEM.UNIT    VALUE                      DESCRIPTION
#---- -----   --------------------       ------------------------
CN   .        Bear Oil and Gas  Inc.     :Company Name
WN   .        Marquardt 43 31            :Well Name
FN   .        Wildcat                    :Field Name
FL   .        NESE 1627' FSL & 170' FEL  :Field Location
FL1  .        Sec. 31  T. 16N  R. 60W    :Field Location, Line 1
COUN .        Laramie                    :County or Parish
STAT .        Wyoming                    :State or Province
NATI .        United States              :Nation
DATE .        28-Aug-2013                :Tools Above Rotary Table Date
APIN .        049-021-21034              :API Well Number
SECT .        31                         :Section
TOWN .        16N                        :Township
RANG .        60W                        :Range
DMF  .        KB                         :Drilling Measured From (Name of Drilling Elevation Reference)
LMF  .        KB                         :Logging Measured From (Name of Logging Elevation Reference)
PDAT .        GL                         :Permanent Datum
ENGI .        Max Pace                   :Engineer s Name
WITN .        Terry Eittreim             :Witness s Name
LATI .        41.306700 degrees          :Latitude
LONG .        -104.11980 degrees         :Longitude
LUL  .        Fort Morgan  CO            :Logging Unit Location
LUN  .        3022                       :Logging Unit Number
RUN  .        Run 1                      :Run Number
SON  .        CA0R-00043                 :Service Order Number
BHT  .DEGF     166.00000                 :Bottom Hole Temperature
BS   .IN         7.87500                 :Bit Size
MDEN .G/C3       2.65000                 :Matrix Density for Density Porosity
DFD  .LB/G       8.90000                 :Drilling Fluid Density
DFV  .S         65.00000                 :Drilling Fluid Viscosity
DFL  .C3         9.00000                 :Drilling Fluid Loss
RMFS .OHMM       1.11000                 :Resistivity of Mud Filtrate Sample
EKB  .F       5298.00000                 :Elevation of Kelly Bushing
EGL  .F       5286.00000                 :Elevation of Ground Level
BLI  .F       7686.00000                 :Bottom Log Interval
BSAL .PPM     3335.81519                 :Borehole Salinity
FLEV .F          8.00000                 :Depth of Drilling Fluid Level to LMF (Log Measured From)
MCST .DEGF      83.00000                 :Mudcake Sample Temperature
MFST .DEGF      83.00000                 :Mud Filtrate Sample Temperature
MRT  .DEGF     166.00000                 :Maximum Recorded Temperature
MST  .DEGF      83.00000                 :Mud Sample Temperature
RMCS .OHMM       1.85000                 :Resistivity of Mud Cake Sample
RMS  .OHMM       1.48000                 :Resistivity of Mud Sample
RW   .OHMM       1.00000                 :Connate Water Resistivity
TDD  .F       7680.00000                 :Driller Total Depth
TDL  .F       7686.00000                 :Logger Total Depth
TLI  .F       1025.00000                 :Top Log Interval
HIDE .        Wildcat                    :Header Identifier
MATR .        SAND                       :Rock Matrix for Neutron Porosity Corrections
FNUM .           1.00000                 :F-Numerator for Formation Factor Formula
FEXP .           2.00000                 :Exponent "m" for Formation Factor Formula
DFT  .        WATER                      :Drilling Fluid Type
DFPH .           8.00000                 :Drilling Fluid pH
MCSS .        Calculated                 :Mudcake Sample Source
MFSS .        Calculated                 :Mud Filtrate Sample Source
FD   .G/C3       1.00000                 :Fluid Density
MSS  .        Active Tank                :Mud Sample Source
OS1  .                                   :Other Services Line 1
OS2  .                                   :Other Services Line 2
OS3  .                                   :Other Services Line 3
OS4  .                                   :Other Services Line 4
OS5  .                                   :Other Services Line 5
R1   .                                   :Remarks Line 1
R2   .                                   :Remarks Line 2
R3   .                                   :Remarks Line 3
R4   .                                   :Remarks Line 4
R5   .                                   :Remarks Line 5
R6   .                                   :Remarks Line 6
R7   .                                   :Remarks Line 7
R8   .                                   :Remarks Line 8
TCS  .        05 00 00                   :Time Circulation Stopped
TLAB .        14 30 25                   :Time Logger At Bottom
NMT  .        NOBARITE                   :HRDD Mud Type for Nuclear Devices
EPD  .F         5286.000000              :Elevation of Permanent Datum above Mean Sea Level
APD  .F          12.000000               :Elevation of Depth Reference (LMF) above Permanent Datum
#-----------------------------------------------------------------------------
~CURVE INFORMATION
#MNEM.UNIT   API CODE                                  DESCRIPTION
#---- -----  --------                                  -----------------------
DEPT .F                                                :DEPTH (BOREHOLE) {F10.1}
AT10 .OHMM                                             :Array Induction Two Foot Resistivity A10 {F11.4}
AT30 .OHMM                                             :Array Induction Two Foot Resistivity A30 {F11.4}
AT90 .OHMM                                             :Array Induction Two Foot Resistivity A90 {F11.4}
GR   .GAPI                                             :Gamma Ray {F11.4}
HCAL .IN                                               :HRCC Caliper Calibrated {F11.4}
HDRA .G/C3                                             :Density Standoff Correction {F11.4}
NPHI .CFCF                                             :Thermal Neutron Porosity (original Ratio Method) in Selected Lithology {F11.4}
PEFZ .                                                 :Standard Resolution Formation Photoelectric Factor {F11.4}
RHOZ .G/C3                                             :Standard Resolution Formation Density {F11.4}
SP   .MV                                               :Spontaneous Potential {F11.4}
TNPH .CFCF                                             :Thermal Neutron Porosity (Ratio Method) in Selected Lithology {F11.4}
#-----------------------------------------------------------------------------
# 
#     DEPT       AF10       AF20       AF30       AF60       AF90       AO10       AO20       AO30       AO60       AO90       AT10       AT20       AT30       AT60       AT90     AHFCO60      AHMF      AHORT      AHORX      AHSCA     AHTCO10    AHTCO20    AHTCO30    AHTCO60    AHTCO90     AHTD1      AHTD2      AHTRT      AHTRX       CDF        CFTC       CNTC       CTEM       DCAL       DNPH       DPHZ       DSOZ       ECGR        ED        GDEV        GR        GTEM       HCAL       HDRA       HDRB       HGR        HMIN       HMNO       HNPO       HPRA       HTNP        ND        NPHI       NPOR       PEFZ    PXND_HILT     RHOZ       RSOZ     RWA_HILT     RXO8       RXOZ        SP        SPAR       STIT       TENS       TNPH     HTNP_SAN
#
~A  DEPT AT10 AT30 AT90 GR HCAL HDRA NPHI PEFZ RHOZ SP TNPH
# ...
6364.5 2.1258 2.0213 1.9523 120.5327 7.7034 0.1082 0.3236 3.2602 2.5059 -69.7188 0.3091
6365.0 2.1092 2.0091 1.9486 123.3536 7.9315 0.1080 0.3270 3.2039 2.4995 -69.7589 0.3133
6365.5 2.1730 2.0539 1.9826 130.0971 7.7946 0.1064 0.3323 3.1797 2.5099 -69.7188 0.3220
6366.0 2.1795 2.0944 2.0122 120.5661 7.7262 0.0977 0.3315 3.1720 2.5206 -69.7857 0.3190
6366.5 2.1959 2.1134 2.0448 122.9000 7.7718 0.0849 0.3391 3.1974 2.5300 -69.7857 0.3182
6367.0 2.2118 2.1351 2.0713 113.6278 7.7718 0.0749 0.3457 3.2431 2.5448 -69.6406 0.3257
6367.5 2.2122 2.1587 2.0942 108.2142 7.8060 0.0655 0.3389 3.2591 2.5590 -69.5179 0.3319
6368.0 2.2601 2.1766 2.1177 104.8754 7.8631 0.0565 0.3384 3.2163 2.5630 -69.5703 0.3270
6368.5 2.3360 2.2290 2.1720 112.5911 7.8403 0.0589 0.3422 3.1923 2.5692 -69.5781 0.3287
6369.0 2.3480 2.2475 2.1860 120.0472 7.8174 0.0740 0.3461 3.2226 2.5725 -69.4821 0.3411
6369.5 2.2894 2.2170 2.1662 126.2386 7.7946 0.0904 0.3391 3.2658 2.5709 -69.4821 0.3355
6370.0 2.2931 2.2360 2.1879 122.0897 8.0000 0.0885 0.3267 3.2487 2.5512 -69.7500 0.3221
6370.5 2.3339 2.2659 2.2182 118.6858 7.8174 0.0779 0.3167 3.1745 2.5255 -69.7232 0.3180
6371.0 2.3617 2.2892 2.2391 115.0549 7.7490 0.0687 0.3249 3.1129 2.5165 -69.7266 0.3139
6371.5 2.4086 2.3174 2.2838 116.0272 7.7946 0.0573 0.3117 3.1003 2.5238 -69.6607 0.3183
6372.0 2.4270 2.3272 2.2919 119.8850 7.8174 0.0512 0.3221 3.1411 2.5491 -69.6641 0.3071
6372.5 2.3239 2.2475 2.2205 113.1422 7.8403 0.0483 0.3094 3.1774 2.5665 -69.6161 0.3187
6373.0 2.2459 2.1758 2.1489 111.3917 7.8174 0.0426 0.3258 3.1243 2.5555 -69.5391 0.3050
6373.5 2.2009 2.1517 2.1217 104.5837 7.7946 0.0270 0.3329 3.0470 2.5343 -69.3839 0.3132
6374.0 2.2227 2.1544 2.1128 109.2518 7.8403 0.0111 0.3299 2.9858 2.5195 -69.3828 0.3245
6374.5 2.2829 2.1840 2.1363 115.3140 7.8631 0.0172 0.3376 3.0108 2.5289 -69.5536 0.3306
6375.0 2.2715 2.1643 2.1062 117.5836 7.8403 0.0374 0.3281 3.0359 2.5341 -69.4922 0.3380
6375.5 2.2126 2.1126 2.0549 119.8206 7.8174 0.0687 0.3431 3.0630 2.5197 -69.2857 0.3202
6376.0 2.1822 2.0950 2.0339 115.3137 7.8859 0.0876 0.3355 3.0881 2.4955 -69.3359 0.3262
6376.5 2.2220 2.1030 2.0303 122.1217 7.8403 0.0979 0.3482 3.1235 2.4922 -69.3036 0.3300
6377.0 2.3031 2.1651 2.0904 117.5504 7.8859 0.0923 0.3183 3.1476 2.4976 -69.4141 0.3398
6377.5 2.3578 2.2022 2.1218 127.1475 7.8403 0.0832 0.3129 3.1505 2.5176 -69.2143 0.3052
6378.0 2.3311 2.1952 2.1211 126.9203 7.8631 0.0619 0.3255 3.1063 2.5075 -68.9844 0.2960
6378.5 2.3186 2.2528 2.1623 132.3667 7.8745 0.0417 0.3413 3.0680 2.5094 -69.1786 0.3087
6379.0 2.4832 2.3245 2.2215 122.9646 7.8631 0.0317 0.3268 3.1034 2.5243 -69.2679 0.3218
6379.5 2.7297 2.5435 2.4122 118.4590 7.9430 0.0416 0.3012 3.2327 2.5588 -69.1563 0.3090
6380.0 2.7849 2.6209 2.4906 120.9879 7.8174 0.0613 0.2986 3.3552 2.5782 -69.0000 0.3012
6380.5 2.5973 2.4439 2.3412 134.0202 8.0456 0.0782 0.3097 3.3635 2.5609 -69.1016 0.2997
6381.0 2.5175 2.3951 2.3000 145.7879 7.8631 0.0912 0.3127 3.3085 2.5423 -69.1964 0.3085
6381.5 2.5861 2.4507 2.3493 146.1118 7.7946 0.0895 0.3074 3.2409 2.5317 -69.0000 0.3051
6382.0 2.6376 2.4857 2.3878 137.5532 8.0685 0.0782 0.2929 3.2079 2.5336 -68.8839 0.2960
6382.5 2.6128 2.4832 2.3974 125.9799 7.8631 0.0686 0.2941 3.1979 2.5439 -69.0469 0.2909
6383.0 2.5205 2.4225 2.3546 124.9747 7.7946 0.0654 0.3043 3.2023 2.5424 -69.2232 0.2933
6383.5 2.4298 2.3323 2.2822 123.1595 7.7946 0.0670 0.3158 3.2013 2.5302 -69.1328 0.3042
6384.0 2.3566 2.2580 2.2208 135.6723 7.8174 0.0721 0.3318 3.1847 2.5135 -69.2143 0.3111
6384.5 2.3646 2.2726 2.2367 138.1689 7.9544 0.0779 0.3523 3.1431 2.5081 -69.1094 0.3178
6385.0 2.4493 2.3604 2.3082 143.3563 7.8745 0.0819 0.3369 3.1039 2.5264 -68.8036 0.3231
6385.5 2.5054 2.4307 2.3814 134.0198 7.8403 0.0758 0.3243 3.0788 2.5332 -68.5781 0.3176
6386.0 2.5469 2.4509 2.4084 133.8256 7.8631 0.0770 0.3091 3.1157 2.5339 -68.4286 0.3167
6386.5 2.5895 2.4451 2.4066 136.6457 7.8174 0.0895 0.3140 3.1858 2.5286 -68.3281 0.3054
6387.0 2.5639 2.4474 2.4023 137.1649 7.7946 0.1070 0.3249 3.2398 2.5263 -68.3482 0.3087
6387.5 2.5015 2.4178 2.3798 135.8679 7.8745 0.1095 0.3250 3.2466 2.5310 -68.3672 0.3179
6388.0 2.4957 2.3861 2.3403 127.6980 7.8174 0.0988 0.3454 3.2206 2.5288 -68.3036 0.3158
6388.5 2.5481 2.4460 2.3690 128.9944 7.8289 0.0826 0.3233 3.1948 2.5286 -68.3906 0.3268
6389.0 2.5938 2.4886 2.4148 127.7628 7.9772 0.0740 0.3257 3.1713 2.5310 -68.5179 0.3102
6389.5 2.5659 2.4744 2.4026 131.2965 7.8517 0.0675 0.3174 3.1593 2.5326 -68.5547 0.3203
6390.0 2.4615 2.3781 2.3088 130.3890 7.8403 0.0638 0.3200 3.1457 2.5296 -68.5000 0.3139
6390.5 2.3734 2.2752 2.2126 129.0272 7.9886 0.0593 0.3185 3.1173 2.5147 -68.3828 0.3155
6391.0 2.3030 2.2081 2.1507 123.6781 7.8859 0.0629 0.3091 3.0842 2.5082 -68.2500 0.3191
6391.5 2.3193 2.2283 2.1669 126.9198 7.7946 0.0664 0.3249 3.0544 2.5082 -68.1429 0.3061
6392.0 2.3210 2.2353 2.1714 134.1821 8.0000 0.0671 0.3503 3.0343 2.5049 -68.0313 0.3132
6392.5 2.2543 2.2094 2.1571 140.0824 7.8060 0.0699 0.3693 3.0164 2.5020 -68.1429 0.3343
6393.0 2.2564 2.1939 2.1482 143.7133 7.8174 0.0755 0.3670 3.0018 2.4972 -68.3438 0.3558
6393.5 2.2973 2.1940 2.1534 145.7554 7.7946 0.0908 0.3332 3.0345 2.5152 -68.3839 0.3581
6394.0 2.2633 2.1837 2.1471 147.0194 7.8403 0.0984 0.3291 3.0968 2.5238 -68.3281 0.3371
6394.5 2.2643 2.1621 2.1304 145.5937 8.0000 0.1088 0.3195 3.1855 2.5185 -68.3929 0.3220
6395.0 2.2533 2.1279 2.0929 142.7732 7.7490 0.1165 0.3187 3.2493 2.5025 -68.4063 0.3175
6395.5 2.1951 2.1883 2.1477 144.3292 7.7262 0.1214 0.3288 3.2720 2.4995 -68.3929 0.3162
6396.0 2.2286 2.1222 2.0503 144.5561 7.7376 0.1094 0.3220 3.2461 2.5066 -68.2656 0.3181
6396.5 2.1970 2.0081 2.0106 137.5531 7.8403 0.0933 0.3338 3.2217 2.5211 -68.1875 0.3089
6397.0 2.2936 2.1395 2.0737 128.1524 7.7832 0.0786 0.3444 3.2168 2.5316 -68.2031 0.3252
6397.5 2.3173 2.1581 2.0801 125.2017 7.8403 0.0707 0.3548 3.2146 2.5300 -68.0982 0.3359
6398.0 2.3070 2.1512 2.0643 124.3592 7.8060 0.0639 0.3511 3.2008 2.5318 -68.0391 0.3383
6398.5 2.2828 2.2291 2.1297 128.8328 7.8174 0.0513 0.3509 3.2253 2.5448 -67.8482 0.3240
6399.0 2.4108 2.2694 2.1976 119.2368 7.8403 0.0340 0.3273 3.3567 2.5772 -67.4688 0.3174
6399.5 2.6595 2.4390 2.3168 113.7902 7.8745 0.0244 0.3165 3.5777 2.6285 -67.5179 0.2925
6400.0 2.6900 2.5181 2.4088 106.2690 7.8631 0.0257 0.3004 3.6784 2.6495 -67.7266 0.3042
6400.5 2.5374 2.3732 2.2998 116.1239 7.8403 0.0379 0.3225 3.5696 2.6422 -67.6786 0.3168
6401.0 2.4374 2.2828 2.2229 126.5628 7.7946 0.0434 0.3354 3.3174 2.5873 -67.8125 0.3400
6401.5 2.3743 2.2548 2.1911 138.2335 7.8174 0.0519 0.3276 3.1263 2.5414 -67.9018 0.3347
6402.0 2.2975 2.1887 2.1390 134.6036 7.9544 0.0614 0.3176 3.0461 2.5120 -68.0625 0.3251
6402.5 2.2271 2.1240 2.1048 135.0574 7.7832 0.0676 0.3139 3.0186 2.5014 -67.9911 0.3190
6403.0 2.1817 2.1007 2.0795 132.7232 7.7490 0.0647 0.3287 3.0173 2.5001 -68.0703 0.3111
6403.5 2.1934 2.1212 2.0904 136.6125 7.8631 0.0588 0.3312 3.0378 2.4982 -68.0000 0.3184
6404.0 2.2100 2.1228 2.0968 128.4433 7.7262 0.0597 0.3504 3.0675 2.4955 -68.2054 0.3157
6404.5 2.2334 2.1460 2.1077 128.7033 7.8174 0.0669 0.3582 3.0845 2.4936 -68.1250 0.3298
6405.0 2.2250 2.1408 2.0909 126.1096 7.7718 0.0740 0.3644 3.0967 2.4941 -68.0536 0.3433
6405.5 2.1768 2.0934 2.0432 136.6778 7.6349 0.0747 0.3497 3.1007 2.4897 -68.1094 0.3415
6406.0 2.1448 2.0568 2.0126 138.7524 7.7604 0.0868 0.3270 3.1256 2.4870 -68.1250 0.3369
6406.5 2.1184 2.0470 1.9975 137.9748 7.7490 0.1035 0.3497 3.1335 2.4979 -68.0313 0.3308
6407.0 2.1296 2.0357 1.9864 133.5659 7.7718 0.1173 0.3544 3.1204 2.5105 -67.9732 0.3465
6407.5 2.1611 2.0667 2.0075 134.0843 7.9544 0.1122 0.3687 3.0821 2.5124 -68.0938 0.3479
6408.0 2.1974 2.1042 2.0366 139.2718 7.7718 0.1049 0.3547 3.0661 2.5139 -68.2143 0.3541
6408.5 2.1970 2.0931 2.0244 144.4587 7.7946 0.0910 0.3377 3.0602 2.5082 -68.2109 0.3363
6409.0 2.1820 2.0919 2.0217 140.0496 7.9087 0.0883 0.3125 3.0602 2.5172 -68.2946 0.3211
6409.5 2.2191 2.1158 2.0314 140.8272 7.7718 0.0857 0.3308 3.0543 2.5007 -68.2734 0.3055
