~VERSION INFORMATION
VERS.           1.2   :CWLS Log ASCII Standard - VERSION 1.2
WRAP.           NO    :One Line per depth step
PROD.  Schlumberger   :LAS Producer
PROG.  DLIS to ASCII 17C0-152                          :LAS Program name and version
CREA.        2013/08/16 09:04                          :LAS Creation date {YYYY/MM/DD hh:mm}
DLIS_CREA.  2013-Aug-16 00:16                          :DLIS Creation date and time {YYYY-MMM-DD hh:mm}
SOURCE.     960568ea-4174-41e0-a405-0f32a02141a6       :DLIS File Name
#--------------------------------------------------
~WELL INFORMATION
#MNEM.UNIT      DATA             DESCRIPTION
#---- ------ --------------   -----------------------------
STRT .F      457.0000        :START DEPTH        # original; data subset to 5500-8000
STOP .F      7701.0000       :STOP DEPTH        # original; data subset to 5500-8000
STEP .F       0.5000         :STEP       
NULL .          -999.25      :NULL VALUE
COMP .                 COMPANY:  Bear Oil & Gas, Inc.               
WELL .                    WELL:  Fornstrom 13-32A                   
FLD  .                   FIELD:  Wildcat                            
LOC  .                LOCATION:  SHL: NWSW 1925' FSL & 540" FWL     
CNTY .                  COUNTY:  Laramie                            
STAT .                   STATE:  Wyoming                            
CTRY .                 COUNTRY:  United States                      
SRVC .         SERVICE COMPANY:  Schlumberger                       
LATI .DEG             LATITUDE:  41.307320 degrees                  
LONG .DEG            LONGITUDE:  -104.11715 degrees                 
API  .              API NUMBER:  49-021-21022                       
DATE .                LOG DATE:  15-Aug-2013
UWI  .          UNIQUE WELL ID:  49021210220000                     
#-----------------------------------------------------------------------------
~PARAMETER INFORMATION
#MNEM.UNIT    VALUE                      DESCRIPTION
#---- -----   --------------------       ------------------------
CN   .        Bear Oil & Gas  Inc.       :Company Name
WN   .        Fornstrom 13-32A           :Well Name
FN   .        Wildcat                    :Field Name
FL   .        SHL  NWSW 1925' FSL & 540  FWL :Field Location
FL1  .        Sec. 32  T. 16N  R. 60W    :Field Location, Line 1
COUN .        Laramie                    :County or Parish
STAT .        Wyoming                    :State or Province
NATI .        United States              :Nation
DATE .        15-Aug-2013                :Tools Above Rotary Table Date
APIN .        49-021-21022               :API Well Number
SECT .        32                         :Section
TOWN .        16N                        :Township
RANG .        60W                        :Range
DMF  .        KB                         :Drilling Measured From (Name of Drilling Elevation Reference)
LMF  .        KB                         :Logging Measured From (Name of Logging Elevation Reference)
PDAT .        GL                         :Permanent Datum
ENGI .        Max Pace                   :Engineer s Name
WITN .        Tery Eittreim              :Witness s Name
LATI .        41.307320 degrees          :Latitude
LONG .        -104.11715 degrees         :Longitude
LUL  .        Fort Morgan  CO            :Logging Unit Location
LUN  .        3030                       :Logging Unit Number
RUN  .        Run 1                      :Run Number
SON  .        CA0R-00040                 :Service Order Number
BHT  .DEGF     168.00000                 :Bottom Hole Temperature
BS   .IN         7.87500                 :Bit Size
MDEN .G/C3       2.65000                 :Matrix Density for Density Porosity
DFD  .LB/G       8.80000                 :Drilling Fluid Density
DFV  .S         36.00000                 :Drilling Fluid Viscosity
DFL  .C3         5.00000                 :Drilling Fluid Loss
RMFS .OHMM       1.11000                 :Resistivity of Mud Filtrate Sample
EKB  .F       5298.00000                 :Elevation of Kelly Bushing
EGL  .F       5286.00000                 :Elevation of Ground Level
BLI  .F       7687.00000                 :Bottom Log Interval
BSAL .PPM     3295.90967                 :Borehole Salinity
FLEV .F          8.00000                 :Depth of Drilling Fluid Level to LMF (Log Measured From)
MCST .DEGF      84.00000                 :Mudcake Sample Temperature
MFST .DEGF      84.00000                 :Mud Filtrate Sample Temperature
MRT  .DEGF     168.00000                 :Maximum Recorded Temperature
MST  .DEGF      84.00000                 :Mud Sample Temperature
RMCS .OHMM       1.85000                 :Resistivity of Mud Cake Sample
RMS  .OHMM       1.48000                 :Resistivity of Mud Sample
RW   .OHMM       1.00000                 :Connate Water Resistivity
TDD  .F       7680.00000                 :Driller Total Depth
TDL  .F       7687.00000                 :Logger Total Depth
TLI  .F       1026.25000                 :Top Log Interval
HIDE .        Wildcat                    :Header Identifier
MATR .        SAND                       :Rock Matrix for Neutron Porosity Corrections
FNUM .           1.00000                 :F-Numerator for Formation Factor Formula
FEXP .           2.00000                 :Exponent "m" for Formation Factor Formula
DFT  .        Fresh Water                :Drilling Fluid Type
DFPH .           8.50000                 :Drilling Fluid pH
MCSS .        Calculated                 :Mudcake Sample Source
MFSS .        Calculated                 :Mud Filtrate Sample Source
FD   .G/C3       1.00000                 :Fluid Density
MSS  .        Active Tank                :Mud Sample Source
OS1  .                                   :Other Services Line 1
OS2  .                                   :Other Services Line 2
OS3  .                                   :Other Services Line 3
OS4  .                                   :Other Services Line 4
OS5  .                                   :Other Services Line 5
R1   .                                   :Remarks Line 1
R2   .                                   :Remarks Line 2
R3   .                                   :Remarks Line 3
R4   .                                   :Remarks Line 4
R5   .                                   :Remarks Line 5
R6   .                                   :Remarks Line 6
R7   .                                   :Remarks Line 7
R8   .                                   :Remarks Line 8
TCS  .        14 00 00                   :Time Circulation Stopped
TLAB .        22 20 59                   :Time Logger At Bottom
NMT  .        NOBARITE                   :HRDD Mud Type for Nuclear Devices
EPD  .F         5286.000000              :Elevation of Permanent Datum above Mean Sea Level
APD  .F          12.000000               :Elevation of Depth Reference (LMF) above Permanent Datum
#-----------------------------------------------------------------------------
~CURVE INFORMATION
#MNEM.UNIT   API CODE                                  DESCRIPTION
#---- -----  --------                                  -----------------------
DEPT .F                                                :DEPTH (BOREHOLE) {F12.4}
AT10 .OHMM                                             :Array Induction Two Foot Resistivity A10 {F11.4}
AT30 .OHMM                                             :Array Induction Two Foot Resistivity A30 {F11.4}
AT90 .OHMM                                             :Array Induction Two Foot Resistivity A90 {F11.4}
GR   .GAPI                                             :Gamma Ray {F11.4}
HCAL .IN                                               :HRCC Caliper Calibrated {F11.4}
HDRA .G/C3                                             :Density Standoff Correction {F11.4}
NPHI .CFCF                                             :Thermal Neutron Porosity (original Ratio Method) in Selected Lithology {F11.4}
PEFZ .                                                 :Standard Resolution Formation Photoelectric Factor {F11.4}
RHOZ .G/C3                                             :Standard Resolution Formation Density {F11.4}
SP   .MV                                               :Spontaneous Potential {F11.4}
TNPH .CFCF                                             :Thermal Neutron Porosity (Ratio Method) in Selected Lithology {F11.4}
#-----------------------------------------------------------------------------
# 
#      DEPT        AF10       AF20       AF30       AF60       AF90       AO10       AO20       AO30       AO60       AO90       AT10       AT20       AT30       AT60       AT90     AHFCO60      AHMF      AHORT      AHORX      AHSCA     AHTCO10    AHTCO20    AHTCO30    AHTCO60    AHTCO90     AHTD1      AHTD2      AHTRT      AHTRX       CDF        CFTC       CNTC       CTEM       DCAL       DNPH       DPHZ       DSOZ       ECGR        ED        GDEV        GR        GTEM       HCAL       HDRA       HDRB       HGR        HMIN       HMNO       HNPO       HPRA       HTNP        ND        NPHI       NPOR       PEFZ    PXND_HILT     RHOZ       RSOZ     RWA_HILT     RXO8       RXOZ        SP        SPAR       STIT       TENS       TNPH     HTNP_SAN
#
~A  DEPT AT10 AT30 AT90 GR HCAL HDRA NPHI PEFZ RHOZ SP TNPH
# ...
7544.5000 49.3119 53.4253 35.5806 26.0421 7.6449 -0.0059 0.1122 2.8271 2.6588 28.5078 0.0950
7545.0000 40.2546 39.0364 22.7268 28.7977 7.6449 -0.0078 0.1575 2.8775 2.6682 32.4643 0.1315
7545.5000 24.2656 24.8397 15.9889 34.1273 7.7143 -0.0104 0.1834 2.7870 2.5985 37.1719 0.1620
7546.0000 14.6102 14.3873 10.9940 42.6367 7.5756 -0.0002 0.1801 2.4975 2.5110 43.7679 0.1643
7546.5000 13.1391 12.2320 8.8564 46.4523 7.5524 0.0352 0.1631 2.2291 2.4243 50.7891 0.1599
7547.0000 13.4265 16.1411 10.9548 49.3592 7.5640 0.1148 0.1427 2.0834 2.3832 57.3571 0.1581
7547.5000 7.5683 11.6750 9.7339 51.7812 7.8067 0.2250 0.1308 2.0700 2.3493 62.2188 0.1638
7548.0000 4.2342 4.7859 4.1674 77.8540 8.7199 0.3147 0.1659 2.0622 2.3294 63.8393 0.1892
7548.5000 2.7991 2.9278 2.6626 116.1301 9.2169 0.3178 0.2473 2.0576 2.2588 64.4922 0.2573
7549.0000 2.3947 2.3697 2.1916 143.5655 10.3959 0.2732 0.3439 2.0635 2.1870 64.6518 0.3180
7549.5000 2.4390 2.4081 2.2338 147.5924 9.0320 0.2335 0.4101 2.0591 2.1553 64.2578 0.3815
7550.0000 2.6047 2.6362 2.4586 141.7783 8.7546 0.2365 0.3999 2.0400 2.1865 64.4554 0.3845
7550.5000 2.6242 2.5882 2.3594 130.9677 7.9917 0.2440 0.3693 2.0217 2.2091 64.3125 0.3726
7551.0000 2.5225 2.4888 2.2783 133.1484 8.4309 0.2607 0.3518 2.0040 2.2146 64.1071 0.3438
7551.5000 2.3440 2.3529 2.1408 123.0041 9.0320 0.2842 0.3537 1.9728 2.2325 64.1406 0.3423
7552.0000 2.2201 2.3247 2.1108 130.3624 9.4019 0.3113 0.3808 1.9978 2.2921 63.8839 0.3516
7552.5000 2.4289 2.6010 2.3010 121.6114 8.2691 0.2956 0.3864 2.1134 2.3409 63.8594 0.3772
7553.0000 2.9342 3.1430 2.7016 118.4315 8.2575 0.2387 0.3765 2.3161 2.3737 63.5625 0.3478
7553.5000 3.6477 3.7240 3.1489 103.2307 8.5927 0.1636 0.3382 2.5700 2.4049 63.0234 0.3147
7554.0000 4.8719 4.6411 3.8481 89.2099 8.4309 0.0976 0.3162 2.8081 2.4661 62.3214 0.2765
7554.5000 6.8921 5.8349 4.8328 75.6438 7.6911 0.0505 0.2830 2.9263 2.5312 61.2578 0.2481
7555.0000 9.2979 7.6352 6.1331 67.8307 7.6218 0.0179 0.2291 2.8563 2.5713 60.3750 0.2142
7555.5000 9.3073 8.4364 7.5173 75.7038 7.6218 0.0011 0.2064 2.6990 2.5886 59.4141 0.1889
7556.0000 10.1294 10.8129 8.9652 93.3888 7.6218 -0.0017 0.1797 2.6264 2.6068 58.4286 0.1823
7556.5000 13.7789 14.5234 11.9063 95.0544 7.5987 0.0009 0.1548 2.6157 2.6218 56.7813 0.1575
7557.0000 16.8988 29.9904 18.4154 88.3927 7.6449 0.0019 0.1450 2.5363 2.6118 54.4732 0.1404
7557.5000 16.8381 30.1680 17.9722 77.7331 7.6449 -0.0012 0.1470 2.3592 2.5777 52.3047 0.1461
7558.0000 20.5559 24.5829 14.5740 76.0373 7.6218 -0.0030 0.1619 2.1915 2.5563 50.2500 0.1507
7558.5000 22.7075 20.0822 12.1027 67.5583 7.6218 -0.0051 0.1529 2.1635 2.5285 48.0859 0.1502
7559.0000 29.1985 21.6371 14.9699 57.3532 7.6218 -0.0023 0.1475 2.1768 2.5138 45.1161 0.1361
7559.5000 33.4731 34.4819 22.4562 47.6935 7.5987 0.0008 0.1388 2.1617 2.4839 40.3359 0.1312
7560.0000 64.3940 56.7545 35.7813 37.8217 7.5756 0.0030 0.1371 2.0621 2.4478 35.9554 0.1270
7560.5000 60.5753 70.5430 57.1383 26.7084 7.4946 0.0051 0.1375 1.9477 2.4099 32.7969 0.1303
7561.0000 55.0309 88.0694 86.6750 20.8943 7.4600 0.0039 0.1388 1.8717 2.3717 30.3750 0.1308
7561.5000 57.4321 94.1898 132.9923 19.8648 7.4831 0.0073 0.1386 1.8340 2.3680 28.8672 0.1293
7562.0000 50.5043 90.3991 162.4486 19.9556 7.4600 0.0083 0.1406 1.8177 2.3653 27.7321 0.1279
7562.5000 52.8601 92.3673 174.5011 21.6514 7.4600 0.0123 0.1405 1.8309 2.3742 27.3438 0.1271
7563.0000 67.0338 103.0937 175.4324 19.9253 7.4600 0.0132 0.1284 1.8841 2.3848 26.7411 0.1234
7563.5000 91.9423 115.5335 172.2514 21.7724 7.4831 0.0114 0.1067 2.0209 2.4241 25.6797 0.1124
7564.0000 114.2131 149.6352 184.9411 19.0168 7.4600 0.0073 0.0951 2.2399 2.4718 24.1161 0.0947
7564.5000 106.4623 136.6329 118.3467 21.9541 7.5293 0.0111 0.0930 2.4486 2.5169 21.8906 0.0932
7565.0000 86.4384 107.5407 113.4452 19.5318 7.5524 0.0297 0.1061 2.4718 2.5386 20.9375 0.0972
7565.5000 87.2905 90.8487 88.0687 18.8959 7.5293 0.0307 0.1169 2.2684 2.5073 20.7656 0.1061
7566.0000 89.1926 98.4327 87.0412 17.2001 7.5409 0.0253 0.1221 2.0191 2.4645 20.7857 0.1107
7566.5000 90.1494 92.9407 80.5831 19.4711 7.5293 0.0190 0.1237 1.8995 2.4341 20.7500 0.1181
7567.0000 84.3820 89.1238 75.0029 21.8936 7.5062 0.0326 0.1200 1.9011 2.4496 19.7411 0.1178
7567.5000 84.2890 84.0551 69.5868 24.0437 7.4600 0.0471 0.1257 1.9134 2.4603 19.1016 0.1140
7568.0000 82.5099 80.8035 65.2627 22.9837 7.5062 0.0460 0.1238 1.8727 2.4590 19.1339 0.1160
7568.5000 80.4095 78.9091 63.1144 25.8605 7.4600 0.0460 0.1192 1.8261 2.4464 20.2031 0.1129
7569.0000 77.7513 74.9329 60.9624 27.1019 7.4600 0.0458 0.1117 1.7889 2.4453 19.8214 0.1099
7569.5000 78.3758 75.1860 59.7032 31.5534 7.4600 0.0456 0.1130 1.7806 2.4360 19.7500 0.1058
7570.0000 78.7003 72.2337 59.6187 27.7075 7.4369 0.0492 0.1094 1.7875 2.4380 20.1964 0.1081
7570.5000 71.5879 67.0795 56.4277 28.3737 7.4369 0.0451 0.1053 1.7977 2.4431 21.0625 0.1024
7571.0000 59.3436 55.0076 50.0008 26.8294 7.4369 0.0464 0.1040 1.8089 2.4578 21.3750 0.0992
7571.5000 51.4275 47.3043 45.1393 32.1591 7.4831 0.0388 0.1175 1.8125 2.4540 21.5391 0.1034
7572.0000 52.9596 45.1876 45.5176 29.4036 7.5062 0.0371 0.1289 1.8042 2.4495 21.0804 0.1184
7572.5000 60.1118 50.0230 49.0269 31.0992 7.5062 0.0344 0.1330 1.7890 2.4384 20.5938 0.1257
7573.0000 60.4175 49.6872 50.5396 30.6753 7.5524 0.0239 0.1298 1.7696 2.4151 20.2143 0.1259
7573.5000 59.4392 50.9013 50.7219 34.9448 7.5756 0.0260 0.1308 1.7606 2.4158 19.8125 0.1227
7574.0000 61.1528 48.3272 48.3438 33.0068 7.5293 0.0330 0.1224 1.7579 2.4271 20.1339 0.1214
7574.5000 63.3456 47.8079 45.8457 28.5554 7.5524 0.0497 0.1186 1.7654 2.4543 20.2891 0.1105
7575.0000 64.3349 49.6765 44.6730 23.2260 7.4600 0.0522 0.1081 1.7779 2.4509 20.3125 0.1070
7575.5000 60.1320 48.1426 42.2192 22.4691 7.4137 0.0531 0.1121 1.7841 2.4530 20.5078 0.1018
7576.0000 54.2893 40.0556 34.5594 21.2881 7.4369 0.0574 0.1099 1.7763 2.4723 20.5804 0.1039
7576.5000 47.9962 34.2751 29.5077 20.0768 7.4600 0.0620 0.1060 1.7652 2.4910 20.9063 0.1019
7577.0000 48.1285 32.9529 27.5320 16.4733 7.4600 0.0564 0.0974 1.7590 2.4985 21.2143 0.0967
7577.5000 45.9881 32.1614 26.1585 14.2929 7.4600 0.0440 0.0900 1.7675 2.4902 21.1484 0.0905
7578.0000 45.2535 31.1641 25.0875 15.5042 7.4600 0.0400 0.0939 1.7743 2.4884 21.5446 0.0868
7578.5000 42.6944 29.6343 23.6803 18.8958 7.4600 0.0491 0.0968 1.7742 2.4908 23.0469 0.0895
7579.0000 38.6206 26.9181 22.5486 25.6788 7.4369 0.0580 0.1035 1.7611 2.4950 24.0000 0.0901
7579.5000 34.9177 24.9609 21.4080 28.8584 7.4369 0.0571 0.1052 1.7480 2.4956 24.8359 0.0969
7580.0000 32.3355 23.5650 20.6513 29.3428 7.4369 0.0511 0.1113 1.7456 2.4929 25.5982 0.1035
7580.5000 29.7801 21.5974 19.4097 30.1605 7.4600 0.0414 0.1202 1.7473 2.4864 26.6016 0.1162
7581.0000 27.2615 20.2664 18.1294 34.2487 7.4600 0.0314 0.1338 1.7557 2.4708 27.2232 0.1239
7581.5000 27.1240 19.4539 17.3662 37.3678 7.4831 0.0185 0.1402 1.7664 2.4507 26.9375 0.1312
7582.0000 31.9425 22.2689 19.7206 32.6742 7.5062 0.0171 0.1365 1.7841 2.4425 26.2500 0.1272
7582.5000 35.5963 24.9416 21.9296 26.1331 7.4946 0.0272 0.1195 1.8020 2.4486 26.0156 0.1179
7583.0000 37.8463 26.1954 22.1897 22.3175 7.4831 0.0410 0.1089 1.8112 2.4619 25.8661 0.1075
7583.5000 40.0198 27.5302 23.6309 25.7089 7.5062 0.0425 0.1055 1.8100 2.4641 25.4107 0.1019
7584.0000 40.3767 28.5919 24.9336 25.6181 7.4831 0.0334 0.1090 1.8026 2.4615 26.4453 0.1004
7584.5000 39.7981 29.2988 25.8727 23.6500 7.4369 0.0225 0.1043 1.7923 2.4588 27.0000 0.1018
7585.0000 38.9714 29.2826 25.8711 22.1966 7.4831 0.0161 0.0959 1.7703 2.4614 27.0804 0.0975
7585.5000 37.4538 28.0244 24.7239 23.0142 7.5062 0.0105 0.0930 1.7399 2.4616 27.6429 0.0937
7586.0000 35.2789 26.8337 23.4188 30.7663 7.5293 0.0099 0.1060 1.7246 2.4662 28.3281 0.0936
7586.5000 33.5929 25.6098 21.9792 32.0380 7.5293 0.0155 0.1148 1.7458 2.4639 29.1429 0.1038
7587.0000 34.2355 24.7930 20.8178 30.1000 7.5293 0.0293 0.1205 1.7902 2.4598 29.2813 0.1070
7587.5000 33.3749 25.6328 20.8977 23.0745 7.4600 0.0386 0.1183 1.8217 2.4466 28.8839 0.1117
7588.0000 33.2855 26.1844 20.1422 22.8628 7.4137 0.0461 0.1211 1.8266 2.4489 29.5781 0.1149
