~VERSION INFORMATION
VERS.           1.2   :CWLS Log ASCII Standard - VERSION 1.2
WRAP.           NO    :One Line per depth step
PROD.  Schlumberger   :LAS Producer
PROG.  DLIS to ASCII 17C0-152                          :LAS Program name and version
CREA.        2013/11/03 06:14                          :LAS Creation date {YYYY/MM/DD hh:mm}
DLIS_CREA.  2013-Nov-02 20:25                          :DLIS Creation date and time {YYYY-MMM-DD hh:mm}
SOURCE.     36f617ea-a8f9-4f31-9cfe-b4906ac6e0fc       :DLIS File Name
#--------------------------------------------------
~WELL INFORMATION
#MNEM.UNIT      DATA             DESCRIPTION
#---- ------ --------------   -----------------------------
STRT .F      1000.5000       :START DEPTH        # original; data subset to 5500-8000
STOP .F      7745.0000       :STOP DEPTH        # original; data subset to 5500-8000
STEP .F       0.5000         :STEP       
NULL .          -999.25      :NULL VALUE
COMP .                 COMPANY:  Bear Oil & Gas, Inc.               
WELL .                    WELL:  Marquardt 34-31                    
FLD  .                   FIELD:  Wildcat                            
LOC  .                LOCATION:  SWSE, Sec. 31, T16N, R60W          
CNTY .                  COUNTY:  Laramie                            
STAT .                   STATE:  Wyoming                            
CTRY .                 COUNTRY:                                     
SRVC .         SERVICE COMPANY:  Schlumberger                       
LATI .DEG             LATITUDE:  41.305550 degrees                  
LONG .DEG            LONGITUDE:  -104.12401 degrees                 
API  .              API NUMBER:  49-021-21046-0000                  
DATE .                LOG DATE:  02-Nov-2013
UWI  .          UNIQUE WELL ID:                                     
#-----------------------------------------------------------------------------
~PARAMETER INFORMATION
#MNEM.UNIT    VALUE                      DESCRIPTION
#---- -----   --------------------       ------------------------
CN   .        Bear Oil & Gas  Inc.       :Company Name
WN   .        Marquardt 34-31            :Well Name
FN   .        Wildcat                    :Field Name
FL   .        SWSE  Sec. 31  T16N  R60W  :Field Location
FL1  .        SHL  1265' FSL X 1340' FEL :Field Location, Line 1
COUN .        Laramie                    :County or Parish
STAT .        Wyoming                    :State or Province
NATI .                                   :Nation
DATE .        02-Nov-2013                :Tools Above Rotary Table Date
APIN .        49-021-21046-0000          :API Well Number
SECT .        31                         :Section
TOWN .        16N                        :Township
RANG .        60W                        :Range
DMF  .        KB                         :Drilling Measured From (Name of Drilling Elevation Reference)
LMF  .        KB                         :Logging Measured From (Name of Logging Elevation Reference)
PDAT .        GL                         :Permanent Datum
ENGI .        Heather Hoffman            :Engineer s Name
WITN .        Terry Eittreim             :Witness s Name
LATI .        41.305550 degrees          :Latitude
LONG .        -104.12401 degrees         :Longitude
LUL  .        Fort Morgan  CO            :Logging Unit Location
LUN  .        2135                       :Logging Unit Number
RUN  .        PEX BHC AIT                :Run Number
SON  .        CQQL-00004                 :Service Order Number
BHT  .DEGF     185.00000                 :Bottom Hole Temperature
BS   .IN         7.87500                 :Bit Size
MDEN .G/C3       2.65000                 :Matrix Density for Density Porosity
DFD  .LB/G       9.10000                 :Drilling Fluid Density
DFV  .S         82.00000                 :Drilling Fluid Viscosity
DFL  .C3      -999.25000                 :Drilling Fluid Loss
RMFS .OHMM       1.18400                 :Resistivity of Mud Filtrate Sample
EKB  .F       10594.00000                :Elevation of Kelly Bushing
EGL  .F       5291.00000                 :Elevation of Ground Level
BLI  .F       7724.00000                 :Bottom Log Interval
BSAL .PPM        0.00000                 :Borehole Salinity
FLEV .F         50.00000                 :Depth of Drilling Fluid Level to LMF (Log Measured From)
MCST .DEGF      85.00000                 :Mudcake Sample Temperature
MFST .DEGF      85.00000                 :Mud Filtrate Sample Temperature
MRT  .DEGF     185.00000                 :Maximum Recorded Temperature
MST  .DEGF      85.00000                 :Mud Sample Temperature
RMCS .OHMM       1.77600                 :Resistivity of Mud Cake Sample
RMS  .OHMM       1.48000                 :Resistivity of Mud Sample
RW   .OHMM       1.00000                 :Connate Water Resistivity
TDD  .F       7719.99951                 :Driller Total Depth
TDL  .F       7724.00000                 :Logger Total Depth
TLI  .F       1024.00000                 :Top Log Interval
HIDE .        Wildcat                    :Header Identifier
MATR .        SAND                       :Rock Matrix for Neutron Porosity Corrections
FNUM .           1.00000                 :F-Numerator for Formation Factor Formula
FEXP .           2.00000                 :Exponent "m" for Formation Factor Formula
DFT  .        WATER                      :Drilling Fluid Type
DFPH .        -999.25000                 :Drilling Fluid pH
MCSS .        Calculated                 :Mudcake Sample Source
MFSS .        Calculated                 :Mud Filtrate Sample Source
FD   .G/C3       1.00000                 :Fluid Density
MSS  .        Active Tank                :Mud Sample Source
OS1  .                                   :Other Services Line 1
OS2  .                                   :Other Services Line 2
OS3  .                                   :Other Services Line 3
OS4  .                                   :Other Services Line 4
OS5  .                                   :Other Services Line 5
R1   .                                   :Remarks Line 1
R2   .                                   :Remarks Line 2
R3   .                                   :Remarks Line 3
R4   .                                   :Remarks Line 4
R5   .                                   :Remarks Line 5
R6   .                                   :Remarks Line 6
R7   .                                   :Remarks Line 7
R8   .        This is first run in hole. :Remarks Line 8
TCS  .        09 55 00                   :Time Circulation Stopped
TLAB .        20 18 33                   :Time Logger At Bottom
NMT  .        NOBARITE                   :HRDD Mud Type for Nuclear Devices
EPD  .C3         5291.000000             :Elevation of Permanent Datum above Mean Sea Level
APD  .F         5303.000000              :Elevation of Depth Reference (LMF) above Permanent Datum
#-----------------------------------------------------------------------------
~CURVE INFORMATION
#MNEM.UNIT   API CODE                                  DESCRIPTION
#---- -----  --------                                  -----------------------
DEPT .F                                                :DEPTH (BOREHOLE) {F12.4}
AT10 .OHMM                                             :Array Induction Two Foot Resistivity A10 {F11.4}
AT30 .OHMM                                             :Array Induction Two Foot Resistivity A30 {F11.4}
AT90 .OHMM                                             :Array Induction Two Foot Resistivity A90 {F11.4}
DT   .US/F                                             :Delta-T (also called Slowness or Interval Transit Time) {F11.4}
GR   .GAPI                                             :Gamma Ray {F11.4}
HCAL .IN                                               :HRCC Caliper Calibrated {F11.4}
HDRA .G/C3                                             :Density Standoff Correction {F11.4}
NPHI .CFCF                                             :Thermal Neutron Porosity (original Ratio Method) in Selected Lithology {F11.4}
PEFZ .                                                 :Standard Resolution Formation Photoelectric Factor {F11.4}
RHOZ .G/C3                                             :Standard Resolution Formation Density {F11.4}
SP   .MV                                               :Spontaneous Potential {F11.4}
TNPH .CFCF                                             :Thermal Neutron Porosity (Ratio Method) in Selected Lithology {F11.4}
#-----------------------------------------------------------------------------
# 
#      DEPT        AF10       AF20       AF30       AF60       AF90       AO10       AO20       AO30       AO60       AO90       AT10       AT20       AT30       AT60       AT90     AHFCO60      AHMF      AHORT      AHORX      AHSCA     AHTCO10    AHTCO20    AHTCO30    AHTCO60    AHTCO90     AHTD1      AHTD2      AHTRT      AHTRX       CDF        CFTC       CNTC       CTEM       DCAL       DNPH       DPHZ       DSOZ        DT        ECGR        ED        GDEV        GR        GTEM       HCAL       HDRA       HDRB       HGR        HMIN       HMNO       HNPO       HPRA       HTNP       ITT         ND        NPHI       NPOR       PEFZ    PXND_HILT     RHOZ       RSOZ     RWA_HILT     RXO8       RXOZ        SP        SPAR       SPHI       STIT       TENS       TNPH     HTNP_SAN
#
~A  DEPT AT10 AT30 AT90 DT GR HCAL HDRA NPHI PEFZ RHOZ SP TNPH
# ...
5661.0000 2.2051 2.0430 1.9915 93.5867 112.3744 7.9592 0.0020 0.3114 3.0012 2.5045 -197.6518 0.3122
5661.5000 2.1938 2.0379 2.0020 94.1482 111.6695 7.9592 0.0036 0.3033 2.9750 2.5111 -197.9196 0.3040
5662.0000 2.2061 2.0495 2.0142 94.3905 109.3188 7.9370 0.0049 0.2950 3.0024 2.5122 -197.9286 0.2927
5662.5000 2.1972 2.0511 2.0131 94.0801 103.9116 7.9592 0.0068 0.3147 3.0535 2.5069 -197.8036 0.2874
5663.0000 2.1538 2.0258 1.9858 95.0941 99.5035 7.9592 0.0076 0.3267 3.0739 2.4975 -197.7054 0.3004
5663.5000 2.0905 1.9989 1.9584 95.0767 101.5798 7.9815 0.0051 0.3264 3.0610 2.4841 -197.3906 0.3123
5664.0000 2.1324 2.0082 1.9663 94.7758 103.4020 7.9592 0.0009 0.3322 3.0649 2.4731 -197.5804 0.3153
5664.5000 2.2392 2.0938 2.0368 94.5509 110.6312 7.9147 -0.0017 0.3227 3.0357 2.4730 -197.7143 0.3220
5665.0000 2.2773 2.1176 2.0572 93.5593 107.8497 7.9370 0.0000 0.3167 2.9956 2.4861 -197.8393 0.3199
5665.5000 2.2246 2.0557 2.0048 93.5386 109.7889 7.9592 0.0159 0.3135 2.9570 2.5144 -197.9196 0.3183
5666.0000 2.1318 1.9943 1.9457 94.6425 117.0766 7.9592 0.0319 0.3064 2.9613 2.5239 -197.7946 0.3200
5666.5000 2.0576 1.9388 1.8908 95.1913 118.4869 7.9927 0.0486 0.3236 2.9859 2.5258 -197.5804 0.3029
5667.0000 1.9982 1.8787 1.8476 96.2200 117.3114 7.9927 0.0449 0.3157 2.9745 2.5106 -197.1518 0.3084
5667.5000 1.9500 1.8508 1.8051 96.6864 109.5536 7.9815 0.0304 0.3200 2.9536 2.4949 -196.8750 0.2986
5668.0000 1.9577 1.8535 1.8067 96.4319 106.0274 8.0038 0.0124 0.3213 2.9494 2.4797 -196.9196 0.3069
5668.5000 2.0503 1.9064 1.8562 95.3092 113.0802 7.9592 0.0035 0.3268 2.9658 2.4759 -197.1071 0.3108
5669.0000 2.1140 1.9714 1.9063 94.3075 114.7259 7.9370 0.0041 0.3263 2.9733 2.4853 -197.5625 0.3235
5669.5000 2.1269 1.9696 1.9086 94.2350 123.8941 7.9370 0.0041 0.3152 2.9507 2.4965 -197.6875 0.3146
5670.0000 2.0991 1.9414 1.8834 93.8374 124.5998 7.9370 0.0038 0.3130 2.9252 2.5084 -197.6696 0.3058
5670.5000 2.1020 1.9587 1.8929 93.4116 128.3604 7.9147 0.0040 0.3034 2.8939 2.5148 -197.2813 0.3056
5671.0000 2.0966 1.9627 1.8955 94.6664 133.7681 7.9592 0.0061 0.3142 2.8737 2.5178 -196.6964 0.2981
5671.5000 2.0306 1.9262 1.8673 93.9184 138.2350 7.9370 0.0041 0.3135 2.8692 2.5061 -196.4732 0.3081
5672.0000 2.0441 1.9324 1.8722 93.5623 138.4703 7.9592 0.0017 0.3194 2.9048 2.5044 -196.9643 0.2954
5672.5000 2.2415 2.0926 2.0264 92.6573 128.6546 7.9815 -0.0006 0.3107 2.9578 2.5077 -197.7054 0.2967
5673.0000 2.4005 2.1773 2.1030 91.2669 118.3105 7.9592 -0.0002 0.2961 2.9801 2.5170 -197.7411 0.2953
5673.5000 2.3865 2.1810 2.1146 92.3059 111.2575 7.9815 -0.0014 0.3027 2.9980 2.5106 -197.7411 0.2982
5674.0000 2.3562 2.1855 2.1204 91.7290 109.0834 7.9592 -0.0036 0.2985 3.0209 2.4947 -197.7589 0.3050
5674.5000 2.3849 2.2484 2.1893 92.2302 107.4377 7.9592 -0.0039 0.3070 3.0605 2.4877 -197.5179 0.2893
5675.0000 2.4525 2.3072 2.2478 92.8393 102.2660 7.9370 0.0005 0.3059 3.1510 2.5050 -197.4286 0.2821
5675.5000 2.5740 2.3785 2.3364 88.0583 95.9184 7.8701 0.0051 0.2926 3.2880 2.5240 -197.4609 0.2804
5676.0000 2.7470 2.5187 2.4500 88.4981 90.2759 7.8701 0.0244 0.2809 3.3955 2.5638 -197.7589 0.2882
5676.5000 2.6723 2.5092 2.4416 88.7828 96.3884 7.8701 0.0339 0.2751 3.3461 2.5631 -197.6339 0.2902
5677.0000 2.4537 2.2872 2.2298 89.2344 104.0874 7.8924 0.0324 0.2965 3.1779 2.5537 -197.5982 0.2821
5677.5000 2.3589 2.2421 2.1939 92.8842 108.3190 7.9370 0.0162 0.3221 3.0464 2.5253 -197.6607 0.2932
5678.0000 2.4113 2.2704 2.2130 93.0539 105.9683 7.9815 0.0103 0.3222 3.0240 2.5237 -197.6518 0.3122
5678.5000 2.4292 2.2816 2.2251 92.7587 104.8517 7.9815 0.0097 0.3117 3.0714 2.5222 -197.6875 0.3148
5679.0000 2.4444 2.2913 2.2356 92.6092 102.7363 8.0038 0.0053 0.3045 3.1483 2.5023 -197.6607 0.3031
5679.5000 2.4517 2.3007 2.2316 92.9512 102.0305 7.9592 -0.0010 0.3104 3.1607 2.4867 -197.9107 0.3035
5680.0000 2.4663 2.2942 2.2467 93.0916 102.9709 8.0038 -0.0016 0.3095 3.1530 2.4792 -197.9643 0.3163
5680.5000 2.4062 2.2547 2.2076 93.3948 103.4408 7.9815 0.0033 0.3068 3.0878 2.4913 -198.0089 0.3148
5681.0000 2.3531 2.2144 2.1821 94.1384 107.9078 8.0038 0.0105 0.2911 3.0787 2.5076 -198.0714 0.3023
5681.5000 2.2951 2.1539 2.1078 94.7765 104.1465 7.9815 0.0195 0.3124 3.0798 2.5228 -197.9107 0.2838
5682.0000 2.2506 2.1428 2.0982 95.3276 109.3182 8.0038 0.0213 0.3199 3.0853 2.5218 -197.8036 0.3036
5682.5000 2.2809 2.1902 2.1366 94.5380 111.6693 7.9815 0.0164 0.3395 3.0628 2.5200 -197.5714 0.3097
5683.0000 2.4071 2.2671 2.2158 93.4956 115.1955 7.9592 0.0080 0.3170 3.0307 2.5189 -197.7188 0.3176
5683.5000 2.5638 2.3921 2.3203 92.8235 113.5208 8.0038 0.0028 0.3036 3.0206 2.5257 -197.9821 0.2953
5684.0000 2.6506 2.4808 2.3977 91.5261 109.5242 8.0150 0.0009 0.2987 3.0321 2.5254 -197.8661 0.2861
5684.5000 2.6343 2.4743 2.3957 91.2866 108.3487 8.0261 0.0019 0.3006 3.0457 2.5369 -197.7768 0.2844
5685.0000 2.6379 2.4841 2.4176 91.6876 106.9674 8.0038 0.0030 0.3001 3.0301 2.5465 -197.5179 0.2917
5685.5000 2.6650 2.5100 2.4564 91.8411 107.2030 8.0038 0.0035 0.3129 3.0133 2.5538 -197.7679 0.2962
5686.0000 2.6542 2.4928 2.4347 90.7243 101.0906 8.0038 0.0035 0.3173 3.0072 2.5565 -198.0089 0.3083
5686.5000 2.6234 2.4463 2.3954 90.9564 104.3820 7.9815 0.0029 0.3233 3.0091 2.5489 -198.0625 0.3082
5687.0000 2.5363 2.4035 2.3513 92.0513 106.0272 8.0261 0.0036 0.2986 3.0309 2.5360 -197.9554 0.3134
5687.5000 2.4636 2.3434 2.2933 92.3728 114.4906 8.0261 0.0050 0.2939 3.0535 2.5219 -197.7768 0.2942
5688.0000 2.4056 2.2907 2.2428 94.2734 114.9606 8.0484 0.0063 0.3079 3.0631 2.5198 -197.7266 0.2947
5688.5000 2.3881 2.2878 2.2318 93.9494 111.9046 8.0261 0.0029 0.3430 3.0368 2.5236 -197.7232 0.2941
5689.0000 2.4291 2.3134 2.2536 93.5685 108.6127 8.0484 0.0037 0.3479 3.0070 2.5312 -197.8839 0.3233
5689.5000 2.4618 2.3357 2.2621 93.0357 106.0270 8.0038 0.0026 0.3199 2.9756 2.5236 -197.8750 0.3403
5690.0000 2.5038 2.3587 2.2954 92.8294 108.1429 8.0038 0.0041 0.2967 2.9569 2.5065 -197.6786 0.3227
5690.5000 2.4686 2.3348 2.2762 93.0035 107.6730 8.0707 0.0018 0.3068 2.9355 2.4916 -197.5089 0.3032
5691.0000 2.4221 2.3063 2.2529 93.0528 106.4971 8.0484 0.0018 0.3459 2.9419 2.4906 -197.5982 0.2957
5691.5000 2.4214 2.2860 2.2349 93.4198 108.3781 8.0484 0.0066 0.3516 2.9910 2.5099 -197.8571 0.3224
5692.0000 2.4139 2.2771 2.2254 93.6305 104.1464 8.0484 0.0087 0.3290 3.0545 2.5200 -197.8036 0.3350
5692.5000 2.3793 2.2569 2.2025 94.4843 107.4376 8.0484 0.0144 0.3127 3.1285 2.5242 -197.7768 0.3404
5693.0000 2.2948 2.1831 2.1429 95.4712 109.0829 8.0595 0.0179 0.3300 3.1584 2.5113 -197.8482 0.3221
5693.5000 2.2003 2.0833 2.0367 96.3614 111.4342 8.0484 0.0145 0.3540 3.1440 2.4867 -197.9821 0.3296
5694.0000 2.2109 2.1107 2.0604 96.6899 106.6443 8.0038 0.0100 0.3469 3.1014 2.4871 -198.2679 0.3299
5694.5000 2.3567 2.2157 2.1498 95.0333 102.8438 8.0707 0.0036 0.3218 3.0862 2.5010 -198.3393 0.3218
5695.0000 2.4927 2.3420 2.2641 94.1722 103.6075 8.0261 0.0054 0.3101 3.0987 2.5336 -198.0781 0.3089
5695.5000 2.5013 2.3554 2.2799 93.9789 105.1065 8.0261 0.0023 0.3116 3.1298 2.5312 -198.1607 0.3027
5696.0000 2.4477 2.2923 2.2258 93.1358 111.0230 8.0261 -0.0021 0.3292 3.1269 2.5117 -198.0982 0.3143
5696.5000 2.4370 2.2838 2.2158 94.6519 115.9013 8.0372 -0.0038 0.3482 3.1057 2.4917 -198.1607 0.3341
5697.0000 2.4217 2.2736 2.2110 95.0316 119.6626 8.0261 0.0060 0.3474 3.0756 2.5041 -198.0000 0.3431
5697.5000 2.3966 2.2514 2.1918 94.8091 117.3111 8.0707 0.0199 0.3565 3.0436 2.5235 -197.9375 0.3289
5698.0000 2.3898 2.2470 2.1879 95.3661 119.6621 8.0484 0.0265 0.3458 3.0237 2.5299 -197.9375 0.3376
5698.5000 2.3882 2.2447 2.1841 94.7472 118.0168 8.0261 0.0177 0.3598 3.0154 2.5013 -198.0536 0.3370
5699.0000 2.3562 2.2186 2.1598 95.7845 120.1327 8.0261 0.0065 0.3390 3.0137 2.4758 -198.2054 0.3521
5699.5000 2.3190 2.1843 2.1294 95.6340 117.4294 8.0261 0.0005 0.3540 3.0186 2.4684 -198.1518 0.3383
5700.0000 2.3098 2.1779 2.1215 96.1754 117.8994 7.9815 0.0018 0.3405 3.0273 2.4885 -197.9196 0.3464
5700.5000 2.3111 2.1817 2.1268 96.9963 113.9027 8.0484 0.0016 0.3461 3.0650 2.5062 -197.9286 0.3353
