~VERSION INFORMATION
VERS.           2.0   :CWLS Log ASCII Standard - VERSION 2.0
WRAP.           NO    :One Line per depth step
PROD.  Schlumberger   :LAS Producer
PROG.  DLIS to ASCII 19C1-222                          :LAS Program name and version
CREA.        2013/09/09 02:34                          :LAS Creation date {YYYY/MM/DD hh:mm}
DLIS_CREA.  2013-Sep-09 02:29                          :DLIS Creation date and time {YYYY-MMM-DD hh:mm}
SOURCE.     049-021-21038_Marquardt 44-31_Run_PEX-AIT_Mainpass.dlis  :DLIS File Name
FILE-ID.     MaxWell_4Dlis                             :File Identification Number
#--------------------------------------------------
~WELL INFORMATION
#MNEM.UNIT      DATA             DESCRIPTION
#---- ------ --------------   -----------------------------
STRT .F      952.5           :START DEPTH        # original; data subset to 5500-8000
STOP .F      7703.0          :STOP DEPTH        # original; data subset to 5500-8000
STEP .F       0.5            :STEP     
NULL .          -999.25      :NULL VALUE
COMP .        Bear Oil & Gas, Inc                      :COMPANY
WELL .        Marquardt 44-31                          :WELL
FLD  .        Wildcat                                  :FIELD
LOC  .        Lat/Long : 41.3038/-104.1202             :LOCATION
CNTY .        Laramie                                  :COUNTY
STAT .        Wyoming                                  :STATE
CTRY .        USA                                      :COUNTRY
API  .        049-021-21038                            :API NUMBER
UWI  .        049021210380000                          :UNIQUE WELL ID
DATE .        08-Sep-2013                              :LOG DATE {DD-MMM-YYYY}
SRVC .        Schlumberger                             :SERVICE COMPANY
LATI .DEG     41.303800 degrees                        :LATITUDE
LONG .DEG     -104.12020 degrees                       :LONGITUDE
GDAT .                                                 :GeoDetic Datum
SECT .        31                                       :Section
RANG .        60W                                      :Range
TOWN .        16N                                      :Township
#-----------------------------------------------------------------------------
~PARAMETER INFORMATION
#MNEM.UNIT    VALUE                      DESCRIPTION
#---- -----   --------------------       ------------------------
CN   .        Bear Oil & Gas  Inc        :Company Name
WN   .        Marquardt 44-31            :Well Name
FN   .        Wildcat                    :Field Name
FL   .        Lat/Long   41.3038/-104.1202 :Field Location
FL1  .        SHL   766' FSL X 245' FEL SESE :Field Location, Line 1
COUN .        Laramie                    :County or Parish
STAT .        Wyoming                    :State or Province
NATI .        USA                        :Nation
DATE .        08-Sep-2013                :Tools Above Rotary Table Date
APIN .        049-021-21038              :API Well Number
SECT .        31                         :Section
TOWN .        16N                        :Township
RANG .        60W                        :Range
DMF  .        KB                         :Drilling Measured From (Name of Drilling Elevation Reference)
LMF  .        KB                         :Logging Measured From (Name of Logging Elevation Reference)
PDAT .        GL                         :Permanent Datum
ENGI .        Arvin Shi                  :Engineer s Name
WITN .        Terry Eittreim             :Witness s Name
LATI .        41.303800 degrees          :Latitude
LONG .        -104.12020 degrees         :Longitude
LUL  .        Fort Morgan                :Logging Unit Location
LUN  .        3030                       :Logging Unit Number
RUN  .        Run 1                      :Run Number
SON  .        C6VJ-00075                 :Service Order Number
BHT  .DEGF     184.00000                 :Bottom Hole Temperature
BS   .IN         7.87500                 :Bit Size
MDEN .G/C3       2.65000                 :Matrix Density for Density Porosity
DFD  .LB/G       9.00000                 :Drilling Fluid Density
DFV  .S         80.00000                 :Drilling Fluid Viscosity
DFL  .C3      -999.25000                 :Drilling Fluid Loss
RMFS .OHMM       0.80250                 :Resistivity of Mud Filtrate Sample
EKB  .F       5298.00000                 :Elevation of Kelly Bushing
EGL  .F       5286.00000                 :Elevation of Ground Level
BLI  .F       7686.00000                 :Bottom Log Interval
BSAL .PPM     4641.08936                 :Borehole Salinity
FLEV .F          8.00000                 :Depth of Drilling Fluid Level to LMF (Log Measured From)
MCST .DEGF      84.00000                 :Mudcake Sample Temperature
MFST .DEGF      84.00000                 :Mud Filtrate Sample Temperature
MRT  .DEGF     184.00000                 :Maximum Recorded Temperature
MST  .DEGF      84.00000                 :Mud Sample Temperature
RMCS .OHMM       1.33750                 :Resistivity of Mud Cake Sample
RMS  .OHMM       1.07000                 :Resistivity of Mud Sample
RW   .OHMM       1.00000                 :Connate Water Resistivity
TDD  .F       7680.00000                 :Driller Total Depth
TDL  .F       7686.00000                 :Logger Total Depth
TLI  .F       1023.00000                 :Top Log Interval
HIDE .        Wildcat                    :Header Identifier
MATR .        SAND                       :Rock Matrix for Neutron Porosity Corrections
FNUM .           1.00000                 :F-Numerator for Formation Factor Formula
FEXP .           2.00000                 :Exponent "m" for Formation Factor Formula
DFT  .        Fresh Water                :Drilling Fluid Type
DFPH .        -999.25000                 :Drilling Fluid pH
MCSS .        Calculated                 :Mudcake Sample Source
MFSS .        Calculated                 :Mud Filtrate Sample Source
FD   .G/C3       1.00000                 :Fluid Density
MSS  .        Flowline                   :Mud Sample Source
OS1  .                                   :Other Services Line 1
OS2  .                                   :Other Services Line 2
OS3  .                                   :Other Services Line 3
OS4  .                                   :Other Services Line 4
OS5  .                                   :Other Services Line 5
R1   .                                   :Remarks Line 1
R2   .                                   :Remarks Line 2
R3   .                                   :Remarks Line 3
R4   .                                   :Remarks Line 4
R5   .                                   :Remarks Line 5
R6   .                                   :Remarks Line 6
R7   .                                   :Remarks Line 7
R8   .                                   :Remarks Line 8
TCS  .        15 00 00                   :Time Circulation Stopped
TLAB .        00 30 46                   :Time Logger At Bottom
NMT  .        NOBARITE                   :HRDD Mud Type for Nuclear Devices
EPD  .C3         5286.000000             :Elevation of Permanent Datum above Mean Sea Level
APD  .F          12.000000               :Elevation of Depth Reference (LMF) above Permanent Datum
#-----------------------------------------------------------------------------
~CURVE INFORMATION
#MNEM.UNIT   API CODE                                  DESCRIPTION
#---- -----  --------                                  -----------------------
DEPT .F                                                :DEPTH (BOREHOLE) {F10.1}
AT10 .OHMM                                             :Array Induction Two Foot Resistivity A10 {F11.4}
AT30 .OHMM                                             :Array Induction Two Foot Resistivity A30 {F11.4}
AT90 .OHMM                                             :Array Induction Two Foot Resistivity A90 {F11.4}
GR   .GAPI                                             :Gamma Ray {F11.4}
HCAL .IN                                               :HRCC Caliper Calibrated {F11.4}
HDRA .G/C3                                             :Density Standoff Correction {F11.4}
NPHI .CFCF                                             :Thermal Neutron Porosity (original Ratio Method) in Selected Lithology {F11.4}
PEFZ .                                                 :Standard Resolution Formation Photoelectric Factor {F11.4}
RHOZ .G/C3                                             :Standard Resolution Formation Density {F11.4}
SP   .MV                                               :Spontaneous Potential {F11.4}
TNPH .CFCF                                             :Thermal Neutron Porosity (Ratio Method) in Selected Lithology {F11.4}
#-----------------------------------------------------------------------------
# 
#     DEPT       AF10       AF20       AF30       AF60       AF90       AO10       AO20       AO30       AO60       AO90       AT10       AT20       AT30       AT60       AT90     AHFCO60      AHMF      AHORT      AHORX      AHSCA     AHTCO10    AHTCO20    AHTCO30    AHTCO60    AHTCO90     AHTD1      AHTD2      AHTRT      AHTRX       CDF        CFTC       CNTC       CTEM       DCAL       DNPH       DPHZ       DSOZ       ECGR        ED        GDEV        GR        GTEM       HCAL       HDRA       HDRB       HGR        HMIN       HMNO       HNPO       HPRA       HTNP        ND        NPHI       NPOR       PEFZ    PXND_HILT     RHOZ       RSOZ     RWA_HILT     RXO8       RXOZ        SP        SPAR       STIT       TENS       TNPH     HTNP_SAN
#
~A  DEPT AT10 AT30 AT90 GR HCAL HDRA NPHI PEFZ RHOZ SP TNPH
# ...
7529.0 2.1950 2.1794 2.0959 175.8208 7.8130 0.0972 0.2591 2.3398 2.4373 -457.5893 0.2518
7529.5 2.1294 1.9287 1.7794 193.2298 8.1133 0.0910 0.2778 2.3368 2.4393 -458.6563 0.2599
7530.0 3.0893 2.5996 2.5391 187.0309 7.8241 0.0764 0.3035 2.3339 2.4742 -461.4375 0.2621
7530.5 5.1335 4.8438 4.5951 158.2697 7.8241 0.0422 0.2603 2.3024 2.4873 -469.2500 0.2547
7531.0 13.0626 12.6205 10.4074 113.9117 7.8018 0.0209 0.2260 2.2417 2.4817 -478.4609 0.2063
7531.5 15.0077 24.0096 18.1941 80.2819 7.7573 0.0030 0.1776 2.1513 2.4351 -482.9821 0.1803
7532.0 15.7603 20.7493 18.5217 55.3707 7.6461 0.0052 0.1650 2.0669 2.4117 -486.0234 0.1530
7532.5 20.5792 21.4606 18.2250 44.8401 7.5571 0.0117 0.1454 2.0000 2.4048 -487.9196 0.1420
7533.0 22.5930 23.7423 18.2123 32.9503 7.5126 0.0220 0.1349 1.9512 2.4187 -489.0536 0.1272
7533.5 23.1427 24.8915 20.0929 32.4974 7.5349 0.0281 0.1372 1.9383 2.4240 -490.2656 0.1276
7534.0 22.8361 25.7377 21.6546 33.0637 7.5126 0.0364 0.1527 1.9588 2.4293 -490.9688 0.1328
7534.5 22.4552 24.3821 23.5231 38.0177 7.4681 0.0418 0.1616 1.9875 2.4363 -492.3661 0.1430
7535.0 23.6149 25.6718 24.1214 41.4147 7.4681 0.0448 0.1542 2.0283 2.4436 -494.8125 0.1445
7535.5 24.6865 27.1355 25.7834 39.8578 7.4681 0.0417 0.1445 2.0710 2.4513 -496.4063 0.1375
7536.0 25.2399 26.8896 25.2849 43.7358 7.5126 0.0408 0.1355 2.1082 2.4669 -495.5982 0.1379
7536.5 26.1020 26.8377 25.1500 48.9444 7.5126 0.0429 0.1336 2.1074 2.4832 -495.4063 0.1311
7537.0 27.7041 27.7391 25.3631 51.1238 7.5794 0.0474 0.1369 2.0604 2.4921 -494.9554 0.1292
7537.5 30.7701 28.7153 25.7646 41.8390 7.6016 0.0468 0.1420 1.9943 2.4795 -493.3672 0.1325
7538.0 33.2616 31.2562 25.9050 31.0536 7.5794 0.0453 0.1372 1.9354 2.4692 -492.5089 0.1371
7538.5 37.2884 34.6635 26.8867 25.9016 7.5794 0.0369 0.1250 1.8912 2.4486 -491.7734 0.1262
7539.0 36.1457 35.1965 27.0815 25.3639 7.5905 0.0360 0.1186 1.8742 2.4415 -490.2411 0.1140
7539.5 33.8064 32.5916 25.3789 25.7318 7.6016 0.0399 0.1182 1.8718 2.4436 -488.8516 0.1129
7540.0 31.8792 30.6941 24.4218 27.5154 7.5794 0.0436 0.1220 1.8755 2.4584 -487.1786 0.1109
7540.5 30.8942 29.9159 24.5141 29.6385 7.6016 0.0423 0.1183 1.8781 2.4736 -485.6406 0.1144
7541.0 30.5692 29.7788 25.0422 29.0723 7.6127 0.0343 0.1170 1.9021 2.4837 -483.9107 0.1128
7541.5 30.7326 29.4123 25.4696 30.9122 7.6239 0.0347 0.1192 1.9513 2.4991 -482.1641 0.1094
7542.0 32.8289 30.6900 25.1811 31.3652 7.6127 0.0361 0.1265 1.9873 2.5098 -480.4286 0.1137
7542.5 39.6266 37.6323 30.6324 28.3079 7.6016 0.0377 0.1253 1.9745 2.5131 -479.2344 0.1189
7543.0 58.7463 62.9064 43.4056 25.4771 7.6239 0.0381 0.1125 1.9305 2.5157 -477.6607 0.1111
7543.5 73.2046 66.2509 50.1187 21.6272 7.6016 0.0312 0.0935 1.8865 2.5135 -475.8750 0.1010
7544.0 60.1546 63.6569 44.7367 26.4679 7.5794 0.0283 0.0965 1.8784 2.5147 -473.4911 0.0933
7544.5 25.1190 25.4525 20.7833 27.4871 7.6127 0.0202 0.1006 1.9025 2.5050 -470.7422 0.1017
7545.0 17.2850 16.5379 14.0535 37.2816 7.6016 0.0214 0.1209 1.9781 2.4968 -467.7411 0.1125
7545.5 13.7529 13.4258 11.8584 52.1433 7.7017 0.0293 0.1591 2.0966 2.4719 -465.4766 0.1435
7546.0 9.7327 10.0165 9.1043 69.8075 7.7128 0.0381 0.2167 2.2108 2.4524 -464.8393 0.1827
7546.5 7.5710 7.8952 7.1299 85.6598 7.7240 0.0455 0.2370 2.2822 2.4665 -465.6719 0.2181
7547.0 7.9806 7.7239 7.1489 81.3569 7.7796 0.0291 0.2140 2.2976 2.4882 -468.3214 0.2025
7547.5 12.2238 11.4214 9.7653 73.9687 7.7796 0.0172 0.1741 2.2906 2.5250 -471.6563 0.1706
7548.0 15.8256 14.7478 12.2098 62.1360 7.7796 0.0028 0.1583 2.2542 2.5237 -475.3214 0.1524
7548.5 19.4948 18.6456 14.8604 61.4850 7.7796 0.0063 0.1524 2.2037 2.5240 -479.7734 0.1463
7549.0 26.9325 26.2961 20.1011 61.8527 7.7573 0.0142 0.1518 2.1631 2.5049 -482.1607 0.1421
7549.5 26.8282 30.4397 21.9289 59.8149 7.6461 0.0165 0.1587 2.1297 2.4792 -483.3047 0.1438
7550.0 24.8755 25.6818 17.8924 52.9926 7.6461 0.0154 0.1619 2.0918 2.4543 -483.7679 0.1474
7550.5 24.6608 24.8299 16.1809 43.9058 7.6906 0.0066 0.1495 2.0272 2.4288 -484.0391 0.1446
7551.0 24.9319 23.6269 14.0605 33.7147 7.6684 0.0022 0.1403 2.0000 2.4082 -484.2411 0.1346
7551.5 19.7111 21.7351 12.8258 30.8275 7.6461 -0.0003 0.1380 1.9977 2.3982 -484.2578 0.1332
7552.0 16.6001 22.3038 12.5782 29.7235 7.6906 -0.0004 0.1393 2.0174 2.4023 -483.5804 0.1353
7552.5 16.7497 29.5511 14.7398 33.3470 7.7573 0.0011 0.1324 2.0626 2.4299 -481.9844 0.1366
7553.0 19.3696 38.5821 16.4209 33.7433 7.6461 0.0020 0.1368 2.2062 2.4727 -479.6696 0.1327
7553.5 18.3320 44.3934 28.7400 35.3287 7.6239 0.0005 0.1470 2.4180 2.5061 -477.1696 0.1346
7554.0 20.6765 39.0393 26.7417 34.7624 7.6350 -0.0036 0.1413 2.5058 2.5031 -473.5000 0.1394
7554.5 25.8602 27.8369 24.5516 36.3476 7.6461 -0.0054 0.1314 2.3821 2.4708 -470.3214 0.1297
7555.0 12.1552 13.5610 12.8473 38.0458 7.6016 0.0066 0.1155 2.2179 2.4513 -467.5625 0.1353
7555.5 7.1176 7.3640 7.4022 60.3525 7.6239 0.0415 0.1412 2.2363 2.4437 -464.7679 0.1585
7556.0 4.5048 5.2958 5.3627 91.8591 7.4904 0.0979 0.2118 2.4256 2.4397 -461.5547 0.2339
7556.5 2.9908 3.6626 3.6114 122.0923 8.0021 0.1481 0.3096 2.5782 2.4231 -458.8839 0.2856
7557.0 2.3988 3.0346 3.0120 130.8960 8.2023 0.1778 0.3606 2.6306 2.4399 -457.8906 0.3080
7557.5 2.4781 2.8512 2.7964 117.7330 8.4693 0.1755 0.3722 2.6910 2.4786 -457.0893 0.3196
7558.0 2.6290 2.8267 2.6901 106.7208 7.8686 0.1683 0.3160 2.8205 2.5141 -456.2500 0.3470
7558.5 2.5652 2.7488 2.5652 95.4261 7.8241 0.1733 0.3398 2.9089 2.5337 -455.7143 0.3076
7559.0 2.5002 2.5302 2.4424 104.2299 7.8241 0.1683 0.3249 2.8568 2.5154 -455.5078 0.3276
7559.5 2.5281 2.5602 2.5050 111.3917 7.8908 0.1494 0.3502 2.7320 2.4925 -455.3661 0.3186
7560.0 2.6125 2.6826 2.6591 118.5252 7.8241 0.1266 0.3244 2.6562 2.4742 -455.6797 0.3279
7560.5 2.7461 2.7968 2.9469 114.0241 7.8018 0.1200 0.3400 2.6523 2.4703 -455.8661 0.2882
7561.0 3.0099 3.0415 3.2104 105.6740 7.7796 0.1117 0.3148 2.6581 2.4850 -456.9766 0.2801
7561.5 3.7814 3.8704 3.9772 91.0669 7.7462 0.0809 0.2683 2.6572 2.4923 -459.2857 0.2331
7562.0 5.8588 6.1115 5.8759 74.7616 7.7351 0.0391 0.1936 2.6606 2.5009 -463.6016 0.1881
7562.5 10.8096 11.4779 9.8061 61.2868 7.7462 0.0101 0.1576 2.6148 2.4967 -469.8036 0.1544
7563.0 15.9078 16.7012 12.4180 55.6250 7.7351 -0.0033 0.1446 2.4828 2.4945 -473.2422 0.1431
7563.5 14.7636 15.7663 11.5232 54.6344 7.7128 -0.0015 0.1429 2.2802 2.5100 -474.6429 0.1371
7564.0 13.7591 13.6963 10.2261 53.1339 7.7573 0.0015 0.1401 2.1147 2.5287 -475.2578 0.1358
7564.5 14.2442 13.5585 10.6356 55.3706 7.7573 -0.0003 0.1392 2.0549 2.5239 -475.8929 0.1365
7565.0 14.0751 14.4289 11.1690 58.1729 7.7573 -0.0034 0.1367 2.0564 2.5147 -476.8594 0.1378
7565.5 16.3240 17.1275 13.0726 62.2493 7.7573 -0.0034 0.1436 2.0714 2.5176 -477.9107 0.1333
7566.0 19.7602 20.4757 15.9997 63.6362 7.7796 -0.0012 0.1481 2.0950 2.5239 -479.7266 0.1354
7566.5 25.4293 24.9698 19.1112 53.5019 7.7573 -0.0009 0.1484 2.1521 2.5009 -483.1071 0.1342
7567.0 35.1261 33.7301 25.7170 37.4230 7.6684 -0.0040 0.1382 2.1700 2.4441 -486.9141 0.1308
7567.5 48.8488 43.1293 34.6360 22.0236 7.5794 -0.0047 0.1285 2.1176 2.3937 -490.0804 0.1268
7568.0 61.7168 57.7052 48.6694 17.8624 7.5794 -0.0023 0.1266 2.0307 2.3773 -491.7109 0.1247
7568.5 78.1102 74.2598 78.4303 18.0888 7.4236 0.0004 0.1262 2.0128 2.3887 -493.1696 0.1231
7569.0 85.2595 105.5203 89.7560 16.0507 7.4236 0.0020 0.1293 2.0645 2.4146 -494.4297 0.1169
7569.5 81.9814 102.3266 90.1441 15.4561 7.5126 0.0082 0.1310 2.1615 2.4467 -495.0536 0.1197
7570.0 82.2581 88.8632 89.2708 14.0974 7.5794 0.0122 0.1264 2.2021 2.4653 -495.7266 0.1210
7570.5 82.0256 77.4593 72.8846 17.0698 7.5571 0.0114 0.1183 2.1800 2.4611 -496.3482 0.1147
7571.0 83.8269 75.0447 63.3772 15.8808 7.5905 0.0037 0.1106 2.1190 2.4384 -497.1016 0.1069
7571.5 89.0717 72.8662 58.3728 17.4660 7.6016 -0.0012 0.1133 2.0685 2.4232 -498.1607 0.1046
7572.0 89.8594 65.1731 51.2667 13.8992 7.5905 -0.0022 0.1137 2.0401 2.4194 -499.1563 0.1092
7572.5 83.8990 61.2624 47.3095 15.9375 7.5571 -0.0028 0.1178 1.9842 2.4190 -499.7411 0.1083
7573.0 77.0944 55.2553 43.2292 19.4759 7.6127 -0.0027 0.1098 1.9146 2.4201 -499.5469 0.1087
