~VERSION INFORMATION
VERS.           1.2   :CWLS Log ASCII Standard - VERSION 1.2
WRAP.           NO    :One Line per depth step
PROD.  Schlumberger   :LAS Producer
PROG.  DLIS to ASCII 17C0-152                          :LAS Program name and version
CREA.        2013/10/21 20:50                          :LAS Creation date {YYYY/MM/DD hh:mm}
DLIS_CREA.  2013-Oct-21 08:39                          :DLIS Creation date and time {YYYY-MMM-DD hh:mm}
SOURCE.     9ec8b34d-aca5-43ef-91a8-8c41069c79cd       :DLIS File Name
#--------------------------------------------------
~WELL INFORMATION
#MNEM.UNIT      DATA             DESCRIPTION
#---- ------ --------------   -----------------------------
STRT .F      901.5000        :START DEPTH        # original; data subset to 5500-8000
STOP .F      7746.5000       :STOP DEPTH        # original; data subset to 5500-8000
STEP .F       0.5000         :STEP       
NULL .          -999.25      :NULL VALUE
COMP .                 COMPANY:  Bear Oil and Gas, Inc.             
WELL .                    WELL:  McGahan Farms 32 31                
FLD  .                   FIELD:  Wildcat                            
LOC  .                LOCATION:  SHL: SWNE 2563' FNL & 1423' FEL    
CNTY .                  COUNTY:  Laramie                            
STAT .                   STATE:  Wyoming                            
CTRY .                 COUNTRY:  United States                      
SRVC .         SERVICE COMPANY:  Schlumberger                       
LATI .DEG             LATITUDE:  41.309490 degrees                  
LONG .DEG            LONGITUDE:  -104.12429 degrees                 
API  .              API NUMBER:  49-021-21045                       
DATE .                LOG DATE:  21-Oct-2013
UWI  .          UNIQUE WELL ID:  49021210450000                     
#-----------------------------------------------------------------------------
~PARAMETER INFORMATION
#MNEM.UNIT    VALUE                      DESCRIPTION
#---- -----   --------------------       ------------------------
CN   .        Bear Oil and Gas  Inc.     :Company Name
WN   .        McGahan Farms 32 31        :Well Name
FN   .        Wildcat                    :Field Name
FL   .        SHL  SWNE 2563' FNL & 1423' FEL :Field Location
FL1  .        Section 31  Township 16N  Range 60W :Field Location, Line 1
COUN .        Laramie                    :County or Parish
STAT .        Wyoming                    :State or Province
NATI .        United States              :Nation
DATE .        21-Oct-2013                :Tools Above Rotary Table Date
APIN .        49-021-21045               :API Well Number
SECT .        31                         :Section
TOWN .        16N                        :Township
RANG .        60W                        :Range
DMF  .        KB                         :Drilling Measured From (Name of Drilling Elevation Reference)
LMF  .        KB                         :Logging Measured From (Name of Logging Elevation Reference)
PDAT .        GL                         :Permanent Datum
ENGI .        Max Pace                   :Engineer s Name
WITN .        Terry                      :Witness s Name
LATI .        41.309490 degrees          :Latitude
LONG .        -104.12429 degrees         :Longitude
LUL  .        Fort Morgan  CO            :Logging Unit Location
LUN  .        3022                       :Logging Unit Number
RUN  .        Run 1                      :Run Number
SON  .        CA0R-00056                 :Service Order Number
BHT  .DEGF     166.00000                 :Bottom Hole Temperature
BS   .IN         7.87500                 :Bit Size
MDEN .G/C3       2.65000                 :Matrix Density for Density Porosity
DFD  .LB/G       9.10000                 :Drilling Fluid Density
DFV  .S         63.00000                 :Drilling Fluid Viscosity
DFL  .C3         8.80000                 :Drilling Fluid Loss
RMFS .OHMM       1.24500                 :Resistivity of Mud Filtrate Sample
EKB  .F       5307.00000                 :Elevation of Kelly Bushing
EGL  .F       5295.00000                 :Elevation of Ground Level
BLI  .F       7730.00000                 :Bottom Log Interval
BSAL .PPM        0.00000                 :Borehole Salinity
FLEV .F          8.00000                 :Depth of Drilling Fluid Level to LMF (Log Measured From)
MCST .DEGF      61.00000                 :Mudcake Sample Temperature
MFST .DEGF      61.00000                 :Mud Filtrate Sample Temperature
MRT  .DEGF     166.00000                 :Maximum Recorded Temperature
MST  .DEGF      61.00000                 :Mud Sample Temperature
RMCS .OHMM       2.07500                 :Resistivity of Mud Cake Sample
RMS  .OHMM       1.66000                 :Resistivity of Mud Sample
RW   .OHMM       1.00000                 :Connate Water Resistivity
TDD  .F       7719.99951                 :Driller Total Depth
TDL  .F       7730.00000                 :Logger Total Depth
TLI  .F       1023.75000                 :Top Log Interval
HIDE .        Wildcat                    :Header Identifier
MATR .        SAND                       :Rock Matrix for Neutron Porosity Corrections
FNUM .           1.00000                 :F-Numerator for Formation Factor Formula
FEXP .           2.00000                 :Exponent "m" for Formation Factor Formula
DFT  .        Fresh Water                :Drilling Fluid Type
DFPH .           7.50000                 :Drilling Fluid pH
MCSS .        Calculated                 :Mudcake Sample Source
MFSS .        Calculated                 :Mud Filtrate Sample Source
FD   .G/C3       1.00000                 :Fluid Density
MSS  .        Active Tank                :Mud Sample Source
OS1  .                                   :Other Services Line 1
OS2  .                                   :Other Services Line 2
OS3  .                                   :Other Services Line 3
OS4  .                                   :Other Services Line 4
OS5  .                                   :Other Services Line 5
R1   .        Tool string run as per tool sketch :Remarks Line 1
R2   .        All Schlumberger depth control procedures followed :Remarks Line 2
R3   .        IDW used as primary depth reference :Remarks Line 3
R4   .        Z Chart used as secondary depth reference :Remarks Line 4
R5   .        Matrix Density zoned as per client request :Remarks Line 5
R6   .        Crew  Max Pace  Tyler Riter  Cody Bruns :Remarks Line 6
R7   .                                   :Remarks Line 7
R8   .                                   :Remarks Line 8
TCS  .        19 00 00                   :Time Circulation Stopped
TLAB .        06 35 50                   :Time Logger At Bottom
NMT  .        NOBARITE                   :HRDD Mud Type for Nuclear Devices
EPD  .C3         5295.000000             :Elevation of Permanent Datum above Mean Sea Level
APD  .F          12.000000               :Elevation of Depth Reference (LMF) above Permanent Datum
#-----------------------------------------------------------------------------
~CURVE INFORMATION
#MNEM.UNIT   API CODE                                  DESCRIPTION
#---- -----  --------                                  -----------------------
DEPT .F                                                :DEPTH (BOREHOLE) {F12.4}
AT10 .OHMM                                             :Array Induction Two Foot Resistivity A10 {F11.4}
AT30 .OHMM                                             :Array Induction Two Foot Resistivity A30 {F11.4}
AT90 .OHMM                                             :Array Induction Two Foot Resistivity A90 {F11.4}
DT   .US/F                                             :Delta-T (also called Slowness or Interval Transit Time) {F11.4}
GR   .GAPI                                             :Gamma Ray {F11.4}
HCAL .IN                                               :HRCC Caliper Calibrated {F11.4}
HDRA .G/C3                                             :Density Standoff Correction {F11.4}
NPHI .CFCF                                             :Thermal Neutron Porosity (original Ratio Method) in Selected Lithology {F11.4}
PEFZ .                                                 :Standard Resolution Formation Photoelectric Factor {F11.4}
RHOZ .G/C3                                             :Standard Resolution Formation Density {F11.4}
SP   .MV                                               :Spontaneous Potential {F11.4}
TNPH .CFCF                                             :Thermal Neutron Porosity (Ratio Method) in Selected Lithology {F11.4}
#-----------------------------------------------------------------------------
# 
#      DEPT        AF10       AF20       AF30       AF60       AF90       AO10       AO20       AO30       AO60       AO90       AT10       AT20       AT30       AT60       AT90     AHFCO60      AHMF      AHORT      AHORX      AHSCA     AHTCO10    AHTCO20    AHTCO30    AHTCO60    AHTCO90     AHTD1      AHTD2      AHTRT      AHTRX       CDF        CFTC       CNTC       CTEM       DCAL       DNPH       DPHZ       DSOZ        DT        ECGR        ED        GDEV        GR        GTEM       HCAL       HDRA       HDRB       HGR        HMIN       HMNO       HNPO       HPRA       HTNP       ITT         ND        NPHI       NPOR       PEFZ    PXND_HILT     RHOZ       RSOZ     RWA_HILT     RXO8       RXOZ        SP        SPAR       SPHI       STIT       TENS       TNPH     HTNP_SAN
#
~A  DEPT AT10 AT30 AT90 DT GR HCAL HDRA NPHI PEFZ RHOZ SP TNPH
# ...
6996.0000 4.1958 3.9111 3.6897 86.5500 122.2759 7.8146 -0.0086 0.2614 3.4048 2.5068 214.3438 0.2402
6996.5000 4.1925 3.9137 3.6464 87.1592 113.7102 7.8271 -0.0067 0.2486 3.4011 2.5159 214.5547 0.2451
6997.0000 4.1616 3.9098 3.6431 86.7103 104.3494 7.8146 -0.0044 0.2341 3.4224 2.5368 214.7656 0.2259
6997.5000 4.1369 3.8783 3.6075 85.4132 101.9936 7.7771 -0.0056 0.2086 3.5419 2.5455 214.6250 0.2054
6998.0000 3.9830 3.7426 3.4796 84.6905 110.2228 7.7771 -0.0050 0.2096 3.5894 2.5609 214.5234 0.1834
6998.5000 3.7771 3.5333 3.3052 83.7836 115.0870 7.8520 -0.0064 0.2222 3.5733 2.5609 214.5000 0.1916
6999.0000 3.7059 3.4734 3.2621 84.3380 119.7985 7.8520 -0.0063 0.2418 3.4621 2.5599 214.7109 0.2056
6999.5000 3.7581 3.5066 3.3048 85.1700 114.9034 7.8520 -0.0090 0.2301 3.4301 2.5388 214.7734 0.2269
7000.0000 3.7593 3.5056 3.3042 86.4429 114.4749 7.8520 -0.0081 0.2347 3.3917 2.5321 214.6964 0.2120
7000.5000 3.7242 3.4898 3.2908 86.9918 122.1529 7.8520 -0.0081 0.2407 3.4161 2.5278 214.4609 0.2193
7001.0000 3.7244 3.4743 3.2761 86.6402 125.4574 7.8520 -0.0080 0.2644 3.4552 2.5321 214.6406 0.2199
7001.5000 3.7742 3.5324 3.3260 86.3001 125.4574 7.8520 -0.0091 0.2496 3.5479 2.5301 214.5357 0.2416
7002.0000 3.8109 3.5764 3.3706 85.9672 115.9130 7.8271 -0.0089 0.2215 3.6118 2.5268 214.7109 0.2193
7002.5000 3.6623 3.4310 3.2368 85.4420 118.0542 7.8271 -0.0056 0.2015 3.5449 2.5367 214.6875 0.2025
7003.0000 3.4921 3.2684 3.0947 85.9234 115.8209 7.8520 -0.0027 0.2113 3.4120 2.5475 214.6328 0.1929
7003.5000 3.3192 3.1303 2.9637 86.0937 117.0447 7.8520 -0.0003 0.2262 3.2584 2.5605 214.5357 0.1989
7004.0000 3.1533 2.9573 2.8081 86.2631 114.7808 7.8770 -0.0015 0.2318 3.2334 2.5517 214.4766 0.2131
7004.5000 3.0272 2.8795 2.7274 88.1972 120.8687 7.8770 -0.0016 0.2258 3.2373 2.5460 214.2969 0.2129
7005.0000 3.0161 2.8237 2.6709 87.7791 119.7985 7.9020 -0.0024 0.2282 3.2797 2.5381 214.4821 0.2116
7005.5000 3.1092 2.8705 2.7102 87.7995 125.1823 7.9020 -0.0035 0.2299 3.3230 2.5318 214.6328 0.2119
7006.0000 3.1541 2.9334 2.7529 88.2570 124.7540 7.9020 -0.0023 0.2474 3.3270 2.5353 214.6406 0.2094
7006.5000 3.1247 2.9199 2.7416 88.2342 129.0062 7.9020 -0.0000 0.2461 3.2684 2.5437 214.4821 0.2298
7007.0000 3.1018 2.8874 2.7106 88.2847 134.0238 7.9020 0.0006 0.2420 3.2301 2.5453 214.5859 0.2256
7007.5000 3.0762 2.8571 2.6866 89.1464 131.0252 7.8770 -0.0027 0.2182 3.3034 2.5236 214.7143 0.2236
7008.0000 3.0233 2.8261 2.6559 89.6030 130.7803 7.8895 -0.0027 0.2159 3.3463 2.5075 214.5469 0.2082
7008.5000 2.9669 2.7677 2.6101 89.7374 124.1417 7.8520 -0.0017 0.2278 3.3124 2.4903 214.2500 0.2082
7009.0000 2.9601 2.7627 2.6052 90.4753 129.0674 7.8271 -0.0001 0.2544 3.1838 2.4855 214.4286 0.2101
7009.5000 3.0051 2.8034 2.6408 90.6039 127.4152 7.8520 -0.0022 0.2701 3.1063 2.4826 214.4922 0.2297
7010.0000 3.0403 2.8406 2.6747 90.3123 126.8340 7.9020 -0.0046 0.2825 3.0971 2.4960 214.7109 0.2460
7010.5000 3.0468 2.8501 2.6844 90.2896 125.1208 7.8770 -0.0060 0.2547 3.1315 2.5145 214.7143 0.2603
7011.0000 3.0610 2.8691 2.7065 90.2157 132.1878 7.8770 -0.0054 0.2603 3.1871 2.5267 214.8359 0.2344
7011.5000 3.1028 2.9013 2.7363 90.8461 133.6563 7.8770 -0.0022 0.2421 3.2043 2.5349 214.8661 0.2448
7012.0000 3.1440 2.9315 2.7712 90.9043 130.4436 7.8770 -0.0006 0.2560 3.2217 2.5329 214.8672 0.2291
7012.5000 3.1959 2.9546 2.7962 90.6142 122.5815 7.8520 -0.0011 0.2491 3.2187 2.5296 214.9844 0.2393
7013.0000 3.2070 2.9849 2.8235 90.9516 115.6982 7.8520 -0.0002 0.2663 3.2167 2.5352 215.0714 0.2315
7013.5000 3.1345 2.9252 2.7730 90.4138 114.4141 7.8770 0.0008 0.2712 3.2117 2.5399 215.0469 0.2434
7014.0000 3.0455 2.8570 2.7145 90.4987 114.6586 7.8770 0.0016 0.2563 3.1913 2.5446 214.9196 0.2469
7014.5000 3.0089 2.8167 2.6753 89.9975 121.2966 7.8770 0.0010 0.2319 3.1534 2.5475 214.6328 0.2293
7015.0000 2.9800 2.7797 2.6306 88.8536 118.4511 7.8520 0.0014 0.2223 3.1228 2.5516 214.7891 0.2106
7015.5000 2.9104 2.7109 2.5587 88.8388 125.2123 7.8770 0.0018 0.2256 3.1178 2.5446 214.8661 0.2077
7016.0000 2.7761 2.6115 2.4580 88.2668 128.8835 7.9020 0.0038 0.2348 3.1548 2.5273 214.6719 0.2132
7016.5000 2.6309 2.4996 2.3536 88.6925 134.5126 7.8770 0.0244 0.2364 3.2177 2.5285 214.4286 0.2279
7017.0000 2.5391 2.4049 2.2710 90.0873 133.8697 7.9770 0.0424 0.2556 3.2469 2.5375 214.6406 0.2335
7017.5000 2.5480 2.3986 2.2637 90.6549 124.8149 7.8271 0.0567 0.2622 3.2214 2.5432 214.6094 0.2458
7018.0000 2.6408 2.4863 2.3317 91.9582 123.7442 7.8021 0.0525 0.2747 3.1749 2.5308 214.7321 0.2458
7018.5000 2.7230 2.5589 2.4059 92.0667 115.6682 7.8021 0.0492 0.2663 3.1819 2.5190 214.7344 0.2491
7019.0000 2.7798 2.5986 2.4491 92.4634 121.6951 7.8021 0.0420 0.2617 3.2316 2.5166 214.7857 0.2443
7019.5000 2.8621 2.6402 2.4990 91.9300 126.4367 7.8021 0.0244 0.2646 3.2457 2.5112 214.8828 0.2428
7020.0000 3.0242 2.7985 2.6497 91.2436 129.5874 7.8520 0.0123 0.2734 3.2331 2.5161 214.9453 0.2376
7020.5000 3.1753 2.9794 2.8174 90.3842 127.2314 7.8271 0.0043 0.2673 3.1869 2.5137 215.0893 0.2466
7021.0000 3.2957 3.1639 3.0107 90.0601 120.1336 7.8271 0.0046 0.2602 3.1484 2.5115 215.3125 0.2389
7021.5000 3.4170 3.2649 3.1243 89.7343 119.7060 7.8271 0.0018 0.2465 3.1085 2.5035 215.5179 0.2308
7022.0000 3.5755 3.3358 3.2060 88.9782 114.9946 7.8271 0.0006 0.2453 3.0949 2.5079 215.5313 0.2196
7022.5000 3.6619 3.4154 3.2718 87.3940 112.3030 7.8271 0.0001 0.2230 3.1453 2.5149 215.3828 0.2097
7023.0000 3.9014 3.4898 3.3449 86.4096 106.5210 7.8271 -0.0008 0.2184 3.2357 2.5129 215.3036 0.1927
7023.5000 3.3570 3.3086 3.1530 87.5305 109.7635 7.8146 -0.0004 0.2336 3.2721 2.5063 215.4688 0.2047
7024.0000 2.9910 2.8241 2.7530 87.7993 114.5976 7.8271 -0.0008 0.2689 3.2450 2.4968 215.1797 0.2300
7024.5000 2.6905 2.5759 2.4841 89.7796 122.0615 7.8396 -0.0011 0.2734 3.2048 2.4976 215.1607 0.2602
7025.0000 2.7699 2.6344 2.5158 90.2985 127.3851 7.8520 -0.0017 0.2613 3.1839 2.5018 215.2188 0.2597
7025.5000 2.8156 2.6650 2.5395 90.3889 134.2978 7.8271 -0.0009 0.2508 3.1796 2.5022 215.4464 0.2444
7026.0000 2.8661 2.7073 2.5673 91.7086 129.8318 7.8396 0.0031 0.2576 3.1401 2.5076 215.4531 0.2386
7026.5000 3.0119 2.8048 2.6604 92.7379 118.6960 7.8271 0.0019 0.2806 3.1235 2.4960 215.5156 0.2444
7027.0000 3.3465 3.0728 2.8876 92.4876 112.8236 7.8520 -0.0022 0.2866 3.1586 2.4889 215.3750 0.2601
7027.5000 3.7627 3.4468 3.2384 91.6173 113.8937 7.8271 -0.0085 0.2714 3.2263 2.4812 215.6172 0.2587
7028.0000 4.2653 3.9278 3.7021 89.4837 119.7064 7.8271 -0.0104 0.2243 3.3395 2.4867 215.5804 0.2384
7028.5000 4.7115 4.2736 4.0367 86.7725 113.9548 7.8271 -0.0088 0.1978 3.4170 2.4983 215.8359 0.1937
7029.0000 4.9082 4.4115 4.2186 85.5482 110.7425 7.8271 -0.0070 0.1856 3.4642 2.5030 215.9766 0.1753
7029.5000 4.2733 4.1971 4.0135 85.9072 110.9257 7.8146 -0.0058 0.2058 3.4293 2.5043 216.0536 0.1667
7030.0000 3.7015 3.5703 3.4196 86.9697 115.6986 7.8271 -0.0053 0.2115 3.3115 2.5037 215.9063 0.1893
7030.5000 3.1404 3.0191 2.9692 88.8959 122.7659 7.8271 -0.0053 0.2350 3.1640 2.5027 215.6518 0.1963
7031.0000 3.0613 2.8910 2.8103 90.5532 133.0446 7.8271 -0.0002 0.2546 3.0559 2.5008 215.8672 0.2263
7031.5000 3.2955 3.1034 2.9993 90.3023 137.6938 7.8271 0.0137 0.2700 2.9945 2.5042 216.1875 0.2375
7032.0000 3.6314 3.4067 3.2784 89.6584 136.4091 7.8271 0.0144 0.2594 3.0374 2.4989 216.2321 0.2476
7032.5000 3.8842 3.6548 3.4668 88.6585 123.4995 7.8271 0.0077 0.2592 3.1182 2.4937 216.1563 0.2317
7033.0000 4.0591 3.8375 3.5564 87.3610 122.0005 7.8271 -0.0063 0.2482 3.1747 2.4899 216.2266 0.2338
7033.5000 4.1042 3.9031 3.5840 88.0293 128.6385 7.8271 -0.0062 0.2425 3.1522 2.4942 216.2321 0.2267
7034.0000 3.9797 3.7942 3.5633 88.3422 135.2464 7.8021 -0.0034 0.2234 3.0667 2.5051 216.1953 0.2219
7034.5000 3.7785 3.6512 3.4476 88.9318 139.5297 7.8021 -0.0028 0.2265 3.0185 2.5120 216.1161 0.2126
7035.0000 3.4149 3.3244 3.1582 89.4516 135.9198 7.8271 -0.0048 0.2352 3.0245 2.5168 216.2188 0.2099
7035.5000 2.9961 2.8742 2.7706 88.5872 140.0806 7.8271 -0.0051 0.2497 3.0945 2.5153 216.2500 0.2199
7036.0000 2.9947 2.8162 2.7200 88.2817 136.3178 7.8271 -0.0065 0.2467 3.1514 2.5145 216.0781 0.2339
