~VERSION INFORMATION
VERS.           1.2   :CWLS Log ASCII Standard - VERSION 1.2
WRAP.           NO    :One Line per depth step
PROD.  Schlumberger   :LAS Producer
PROG.  DLIS to ASCII 17C0-152                          :LAS Program name and version
CREA.        2013/11/03 06:14                          :LAS Creation date {YYYY/MM/DD hh:mm}
DLIS_CREA.  2013-Nov-02 20:25                          :DLIS Creation date and time {YYYY-MMM-DD hh:mm}
SOURCE.     36f617ea-a8f9-4f31-9cfe-b4906ac6e0fc       :DLIS File Name
#--------------------------------------------------
~WELL INFORMATION
#MNEM.UNIT      DATA             DESCRIPTION
#---- ------ --------------   -----------------------------
STRT .F      1000.5000       :START DEPTH        # original; data subset to 5500-8000
STOP .F      7745.0000       :STOP DEPTH        # original; data subset to 5500-8000
STEP .F       0.5000         :STEP       
NULL .          -999.25      :NULL VALUE
COMP .                 COMPANY:  Bear Oil & Gas, Inc.               
WELL .                    WELL:  Marquardt 34-31                    
FLD  .                   FIELD:  Wildcat                            
LOC  .                LOCATION:  SWSE, Sec. 31, T16N, R60W          
CNTY .                  COUNTY:  Laramie                            
STAT .                   STATE:  Wyoming                            
CTRY .                 COUNTRY:                                     
SRVC .         SERVICE COMPANY:  Schlumberger                       
LATI .DEG             LATITUDE:  41.305550 degrees                  
LONG .DEG            LONGITUDE:  -104.12401 degrees                 
API  .              API NUMBER:  49-021-21046-0000                  
DATE .                LOG DATE:  02-Nov-2013
UWI  .          UNIQUE WELL ID:                                     
#-----------------------------------------------------------------------------
~PARAMETER INFORMATION
#MNEM.UNIT    VALUE                      DESCRIPTION
#---- -----   --------------------       ------------------------
CN   .        Bear Oil & Gas  Inc.       :Company Name
WN   .        Marquardt 34-31            :Well Name
FN   .        Wildcat                    :Field Name
FL   .        SWSE  Sec. 31  T16N  R60W  :Field Location
FL1  .        SHL  1265' FSL X 1340' FEL :Field Location, Line 1
COUN .        Laramie                    :County or Parish
STAT .        Wyoming                    :State or Province
NATI .                                   :Nation
DATE .        02-Nov-2013                :Tools Above Rotary Table Date
APIN .        49-021-21046-0000          :API Well Number
SECT .        31                         :Section
TOWN .        16N                        :Township
RANG .        60W                        :Range
DMF  .        KB                         :Drilling Measured From (Name of Drilling Elevation Reference)
LMF  .        KB                         :Logging Measured From (Name of Logging Elevation Reference)
PDAT .        GL                         :Permanent Datum
ENGI .        Heather Hoffman            :Engineer s Name
WITN .        Terry Eittreim             :Witness s Name
LATI .        41.305550 degrees          :Latitude
LONG .        -104.12401 degrees         :Longitude
LUL  .        Fort Morgan  CO            :Logging Unit Location
LUN  .        2135                       :Logging Unit Number
RUN  .        PEX BHC AIT                :Run Number
SON  .        CQQL-00004                 :Service Order Number
BHT  .DEGF     185.00000                 :Bottom Hole Temperature
BS   .IN         7.87500                 :Bit Size
MDEN .G/C3       2.65000                 :Matrix Density for Density Porosity
DFD  .LB/G       9.10000                 :Drilling Fluid Density
DFV  .S         82.00000                 :Drilling Fluid Viscosity
DFL  .C3      -999.25000                 :Drilling Fluid Loss
RMFS .OHMM       1.18400                 :Resistivity of Mud Filtrate Sample
EKB  .F       10594.00000                :Elevation of Kelly Bushing
EGL  .F       5291.00000                 :Elevation of Ground Level
BLI  .F       7724.00000                 :Bottom Log Interval
BSAL .PPM        0.00000                 :Borehole Salinity
FLEV .F         50.00000                 :Depth of Drilling Fluid Level to LMF (Log Measured From)
MCST .DEGF      85.00000                 :Mudcake Sample Temperature
MFST .DEGF      85.00000                 :Mud Filtrate Sample Temperature
MRT  .DEGF     185.00000                 :Maximum Recorded Temperature
MST  .DEGF      85.00000                 :Mud Sample Temperature
RMCS .OHMM       1.77600                 :Resistivity of Mud Cake Sample
RMS  .OHMM       1.48000                 :Resistivity of Mud Sample
RW   .OHMM       1.00000                 :Connate Water Resistivity
TDD  .F       7719.99951                 :Driller Total Depth
TDL  .F       7724.00000                 :Logger Total Depth
TLI  .F       1024.00000                 :Top Log Interval
HIDE .        Wildcat                    :Header Identifier
MATR .        SAND                       :Rock Matrix for Neutron Porosity Corrections
FNUM .           1.00000                 :F-Numerator for Formation Factor Formula
FEXP .           2.00000                 :Exponent "m" for Formation Factor Formula
DFT  .        WATER                      :Drilling Fluid Type
DFPH .        -999.25000                 :Drilling Fluid pH
MCSS .        Calculated                 :Mudcake Sample Source
MFSS .        Calculated                 :Mud Filtrate Sample Source
FD   .G/C3       1.00000                 :Fluid Density
MSS  .        Active Tank                :Mud Sample Source
OS1  .                                   :Other Services Line 1
OS2  .                                   :Other Services Line 2
OS3  .                                   :Other Services Line 3
OS4  .                                   :Other Services Line 4
OS5  .                                   :Other Services Line 5
R1   .                                   :Remarks Line 1
R2   .                                   :Remarks Line 2
R3   .                                   :Remarks Line 3
R4   .                                   :Remarks Line 4
R5   .                                   :Remarks Line 5
R6   .                                   :Remarks Line 6
R7   .                                   :Remarks Line 7
R8   .        This is first run in hole. :Remarks Line 8
TCS  .        09 55 00                   :Time Circulation Stopped
TLAB .        20 18 33                   :Time Logger At Bottom
NMT  .        NOBARITE                   :HRDD Mud Type for Nuclear Devices
EPD  .C3         5291.000000             :Elevation of Permanent Datum above Mean Sea Level
APD  .F         5303.000000              :Elevation of Depth Reference (LMF) above Permanent Datum
#-----------------------------------------------------------------------------
~CURVE INFORMATION
#MNEM.UNIT   API CODE                                  DESCRIPTION
#---- -----  --------                                  -----------------------
DEPT .F                                                :DEPTH (BOREHOLE) {F12.4}
AT10 .OHMM                                             :Array Induction Two Foot Resistivity A10 {F11.4}
AT30 .OHMM                                             :Array Induction Two Foot Resistivity A30 {F11.4}
AT90 .OHMM                                             :Array Induction Two Foot Resistivity A90 {F11.4}
DT   .US/F                                             :Delta-T (also called Slowness or Interval Transit Time) {F11.4}
GR   .GAPI                                             :Gamma Ray {F11.4}
HCAL .IN                                               :HRCC Caliper Calibrated {F11.4}
HDRA .G/C3                                             :Density Standoff Correction {F11.4}
NPHI .CFCF                                             :Thermal Neutron Porosity (original Ratio Method) in Selected Lithology {F11.4}
PEFZ .                                                 :Standard Resolution Formation Photoelectric Factor {F11.4}
RHOZ .G/C3                                             :Standard Resolution Formation Density {F11.4}
SP   .MV                                               :Spontaneous Potential {F11.4}
TNPH .CFCF                                             :Thermal Neutron Porosity (Ratio Method) in Selected Lithology {F11.4}
#-----------------------------------------------------------------------------
# 
#      DEPT        AF10       AF20       AF30       AF60       AF90       AO10       AO20       AO30       AO60       AO90       AT10       AT20       AT30       AT60       AT90     AHFCO60      AHMF      AHORT      AHORX      AHSCA     AHTCO10    AHTCO20    AHTCO30    AHTCO60    AHTCO90     AHTD1      AHTD2      AHTRT      AHTRX       CDF        CFTC       CNTC       CTEM       DCAL       DNPH       DPHZ       DSOZ        DT        ECGR        ED        GDEV        GR        GTEM       HCAL       HDRA       HDRB       HGR        HMIN       HMNO       HNPO       HPRA       HTNP       ITT         ND        NPHI       NPOR       PEFZ    PXND_HILT     RHOZ       RSOZ     RWA_HILT     RXO8       RXOZ        SP        SPAR       SPHI       STIT       TENS       TNPH     HTNP_SAN
#
~A  DEPT AT10 AT30 AT90 DT GR HCAL HDRA NPHI PEFZ RHOZ SP TNPH
5500.0000 2.5303 2.3973 2.3079 92.8124 96.3886 7.6918 0.0061 0.3333 3.2631 2.5074 -196.9286 0.3171
5500.5000 2.5681 2.4289 2.3417 92.8040 98.7392 7.6918 0.0138 0.3081 3.3309 2.5374 -196.8571 0.3157
5501.0000 2.5285 2.3967 2.3189 91.3028 105.5862 7.7364 0.0156 0.3055 3.3054 2.5472 -196.6607 0.3044
5501.5000 2.5103 2.3830 2.3080 92.5591 109.3478 7.7587 0.0155 0.3102 3.2258 2.5469 -196.8125 0.3056
5502.0000 2.4848 2.3627 2.2918 92.5919 102.2949 7.7809 0.0105 0.3101 3.1552 2.5297 -196.6071 0.3023
5502.5000 2.4620 2.3381 2.2722 92.4442 98.2691 7.7809 0.0098 0.3048 3.1318 2.5194 -196.4531 0.2981
5503.0000 2.4482 2.3327 2.2669 92.9495 95.4477 7.8255 0.0122 0.3165 3.1179 2.5108 -196.4375 0.2973
5503.5000 2.4153 2.3193 2.2540 93.2718 97.5636 7.8255 0.0107 0.3311 3.0998 2.4996 -196.5089 0.3113
5504.0000 2.3860 2.2851 2.2295 93.3464 99.9143 7.7364 0.0091 0.3543 3.0847 2.4935 -196.8393 0.3223
5504.5000 2.3702 2.2735 2.2127 93.8344 103.9112 7.7809 0.0013 0.3320 3.0129 2.4859 -197.0446 0.3335
5505.0000 2.3596 2.2771 2.2117 93.7312 108.8478 7.7587 0.0015 0.3194 2.9523 2.4972 -197.0268 0.3238
5505.5000 2.3690 2.2753 2.2132 93.1141 110.3173 7.8255 0.0021 0.3082 2.9004 2.5063 -197.0893 0.3137
5506.0000 2.4076 2.3091 2.2375 93.1769 107.7312 7.8032 0.0015 0.3110 2.9482 2.4991 -196.7321 0.3028
5506.5000 2.4242 2.3218 2.2499 93.1846 107.4966 7.7809 0.0023 0.2997 2.9987 2.4868 -196.7589 0.3065
5507.0000 2.3622 2.2708 2.2074 93.0478 111.1993 7.7921 0.0078 0.3102 3.0441 2.4749 -197.0357 0.2937
5507.5000 2.2939 2.2050 2.1451 93.6434 110.0235 7.7809 0.0256 0.3215 3.0454 2.4784 -197.2232 0.3055
5508.0000 2.2443 2.1619 2.1035 93.8604 107.7902 7.7364 0.0433 0.3234 3.0452 2.4944 -197.2500 0.3122
5508.5000 2.2053 2.1252 2.0740 94.4121 100.5023 7.7364 0.0568 0.3299 3.0433 2.5052 -196.9643 0.3152
5509.0000 2.1312 2.0606 2.0150 94.8527 102.6184 7.7587 0.0622 0.3381 3.0248 2.5098 -196.9375 0.3264
5509.5000 2.0498 1.9591 1.9125 96.1292 102.5009 7.7364 0.0554 0.3530 2.9826 2.5007 -196.6071 0.3330
5510.0000 2.0944 1.9953 1.9437 95.2412 104.3817 7.7809 0.0371 0.3418 2.9307 2.4974 -196.3393 0.3350
5510.5000 2.3210 2.2353 2.1698 94.7297 104.3230 7.7587 0.0148 0.3166 2.9420 2.4971 -196.5625 0.3124
5511.0000 2.5591 2.4221 2.3504 93.2905 110.6704 7.7809 0.0165 0.3201 3.0359 2.5222 -196.7143 0.2929
5511.5000 2.5734 2.4336 2.3579 91.4108 113.2563 7.7809 0.0276 0.3035 3.1435 2.5505 -196.7768 0.3014
5512.0000 2.5582 2.4275 2.3555 91.6965 119.8972 7.7921 0.0300 0.3187 3.1866 2.5602 -197.0179 0.2972
5512.5000 2.5456 2.4216 2.3527 92.2586 114.9015 7.7809 0.0162 0.3123 3.1722 2.5411 -197.1071 0.3129
5513.0000 2.5421 2.4155 2.3464 91.9631 116.3124 7.8032 0.0044 0.3122 3.1790 2.5188 -197.1429 0.3067
5513.5000 2.5335 2.4036 2.3339 92.2616 107.8492 7.7809 0.0023 0.3073 3.1898 2.5108 -197.1094 0.3034
5514.0000 2.4954 2.3675 2.3005 92.5770 106.0276 7.8032 0.0038 0.3109 3.1871 2.5080 -196.8125 0.3025
5514.5000 2.4460 2.3352 2.2669 93.0677 110.4940 7.8478 0.0103 0.3339 3.1494 2.5169 -196.8036 0.3053
5515.0000 2.4150 2.3048 2.2382 93.4784 110.7290 7.8255 0.0191 0.3281 3.1319 2.5348 -197.0982 0.3224
5515.5000 2.4180 2.2898 2.2188 93.4215 112.8447 7.8032 0.0220 0.3290 3.1261 2.5518 -197.2946 0.3192
5516.0000 2.4400 2.3121 2.2374 93.4260 104.8520 7.8032 0.0221 0.3232 3.1331 2.5542 -197.4018 0.3180
5516.5000 2.4205 2.3114 2.2297 93.3966 112.3746 7.8255 0.0232 0.3298 3.1365 2.5509 -197.4018 0.3133
5517.0000 2.4035 2.2819 2.2271 93.8226 107.4376 7.8032 0.0256 0.3278 3.1475 2.5493 -197.0000 0.3178
5517.5000 2.4024 2.2788 2.2084 93.3955 106.2031 7.8255 0.0200 0.3132 3.1556 2.5398 -196.8125 0.3194
5518.0000 2.4510 2.3260 2.2387 92.8263 101.5016 7.8144 0.0083 0.2952 3.1814 2.5175 -196.6607 0.3074
5518.5000 2.4716 2.3612 2.2851 92.6401 109.2597 7.8032 0.0016 0.2975 3.1876 2.5003 -196.8571 0.2869
5519.0000 2.4937 2.3828 2.3064 92.1834 113.5501 7.8478 0.0015 0.3220 3.1812 2.4976 -197.1696 0.2882
5519.5000 2.5040 2.4062 2.3345 91.9979 112.6100 7.8924 0.0029 0.3371 3.1640 2.4998 -197.0268 0.3122
5520.0000 2.5302 2.4178 2.3527 92.4157 106.4974 7.8255 0.0028 0.3218 3.1102 2.5024 -197.1161 0.3293
5520.5000 2.5452 2.4272 2.3637 91.8203 99.6798 7.8255 0.0039 0.3017 3.0498 2.5148 -197.2232 0.3089
5521.0000 2.5662 2.4384 2.3846 91.8915 94.9780 7.8255 0.0036 0.3069 2.9701 2.5238 -197.1875 0.2996
5521.5000 2.5746 2.4579 2.4106 91.9394 101.3251 7.8478 0.0027 0.3120 2.9504 2.5222 -197.0268 0.2993
5522.0000 2.5931 2.4750 2.4288 91.7456 107.1440 7.8478 0.0009 0.3110 2.9747 2.5100 -197.1250 0.2944
5522.5000 2.6214 2.5034 2.4530 91.5474 109.0246 7.8255 0.0040 0.3149 3.0409 2.5171 -197.1964 0.2952
5523.0000 2.6743 2.5594 2.4957 91.4845 106.6739 7.9035 0.0045 0.3108 3.0904 2.5249 -197.2500 0.3020
5523.5000 2.7131 2.6026 2.5173 91.5072 102.5007 7.8255 0.0035 0.3241 3.1357 2.5306 -197.1094 0.3014
5524.0000 2.6726 2.5512 2.4659 91.3899 106.9677 7.8032 -0.0004 0.3110 3.1560 2.5187 -196.8661 0.3175
5524.5000 2.5452 2.4365 2.3512 91.8767 103.2060 7.8032 0.0023 0.3202 3.1846 2.5158 -196.7589 0.3077
5525.0000 2.4672 2.3517 2.2630 92.4188 110.7290 7.8144 0.0128 0.3163 3.1998 2.5262 -196.6339 0.3199
5525.5000 2.3818 2.2618 2.1839 92.7134 103.4408 7.8701 0.0171 0.3202 3.1795 2.5303 -196.5982 0.3173
5526.0000 2.3292 2.2067 2.1346 93.0801 103.6761 7.8701 0.0207 0.3160 3.1511 2.5293 -196.6250 0.3168
5526.5000 2.3086 2.1730 2.0845 93.8701 94.5075 7.8701 0.0116 0.3262 3.0935 2.5082 -196.8661 0.2997
5527.0000 2.3282 2.2025 2.1024 93.5517 95.4479 7.8924 0.0078 0.3274 3.0693 2.5022 -196.9196 0.3076
5527.5000 2.4160 2.2709 2.1490 92.6802 96.8588 7.9035 0.0020 0.3333 3.0328 2.5081 -196.8661 0.3069
5528.0000 2.5270 2.3572 2.2075 91.5121 100.8550 7.9147 0.0046 0.3284 3.0305 2.5319 -196.7857 0.3161
5528.5000 2.5805 2.3956 2.2320 89.4489 107.9077 7.8701 0.0070 0.3145 3.0161 2.5445 -196.7857 0.3300
5529.0000 2.5814 2.3962 2.2001 86.8943 106.0269 7.8701 0.0061 0.3135 3.0377 2.5417 -197.0313 0.3185
5529.5000 2.6671 2.4713 2.2564 83.8861 100.6492 7.8701 0.0057 0.2925 3.0778 2.5305 -197.2857 0.3076
5530.0000 2.8065 2.6158 2.3714 78.8983 97.3581 7.8701 0.0044 0.3241 3.1054 2.5219 -197.7143 0.2832
5530.5000 2.8522 2.6611 2.3979 73.2453 99.4738 7.8924 0.0067 0.3316 3.1319 2.5210 -197.8036 0.3073
5531.0000 2.8487 2.6605 2.3909 70.8768 99.9150 7.8924 0.0050 0.3262 3.1269 2.5140 -197.8125 0.3107
5531.5000 2.8668 2.7068 2.4238 72.8491 100.6201 7.8924 0.0050 0.3033 3.1302 2.5164 -197.7411 0.3057
5532.0000 2.7063 2.5802 2.3561 74.0840 98.9747 7.8032 0.0034 0.2967 3.0867 2.5205 -197.5000 0.3019
5532.5000 2.5274 2.4002 2.2124 80.9989 101.7956 7.8367 0.0007 0.3186 3.0424 2.5092 -197.2054 0.3053
5533.0000 2.3806 2.2559 2.1094 85.9036 102.2655 7.8255 -0.0012 0.3331 3.0250 2.4943 -197.0089 0.3200
5533.5000 2.2630 2.1410 2.0102 86.2719 105.5569 7.8701 -0.0006 0.3655 3.0406 2.4785 -196.9018 0.3279
5534.0000 2.2504 2.1307 2.0089 86.9190 101.3248 7.8255 0.0013 0.3603 3.0534 2.4771 -196.8672 0.3489
5534.5000 2.2635 2.1580 2.0385 89.6292 102.0307 7.8478 0.0051 0.3693 3.0287 2.4848 -197.1518 0.3397
5535.0000 2.3416 2.2116 2.0983 88.4975 100.8553 7.8701 0.0028 0.3349 2.9970 2.4798 -197.4375 0.3455
5535.5000 2.4446 2.3033 2.1885 88.0689 104.1468 7.8701 0.0024 0.3454 2.9491 2.4941 -197.3393 0.3233
5536.0000 2.4736 2.3270 2.2043 90.2040 99.2099 7.8924 -0.0025 0.3269 2.9711 2.4899 -196.8393 0.3352
5536.5000 2.4031 2.2574 2.1482 89.2228 97.3283 7.8255 0.0002 0.3286 3.0065 2.5071 -195.1429 0.3158
5537.0000 2.3390 2.2023 2.1083 91.0271 97.0932 7.8478 0.0016 0.3225 3.0828 2.5079 -197.2054 0.3222
5537.5000 2.2847 2.1568 2.0713 93.4150 104.1457 7.8589 0.0060 0.3313 3.1087 2.5183 -197.6250 0.3143
5538.0000 2.2434 2.1231 2.0472 95.0538 102.0307 7.8255 0.0071 0.3223 3.1377 2.5111 -198.1641 0.3290
5538.5000 2.2003 2.0785 2.0142 95.5950 105.0871 7.8255 0.0140 0.3276 3.1602 2.5170 -198.4643 0.3209
5539.0000 2.1609 2.0379 1.9686 96.6052 102.5010 7.8478 0.0262 0.3128 3.1768 2.5243 -197.2679 0.3223
5539.5000 2.1560 2.0347 1.9563 96.1863 104.6458 7.8478 0.0339 0.3384 3.1621 2.5221 -196.2679 0.3115
5540.0000 2.1769 2.0533 1.9699 96.0771 98.2985 7.8032 0.0278 0.3338 3.1202 2.5041 -197.5714 0.3261
