~VERSION INFORMATION
VERS.           1.2   :CWLS Log ASCII Standard - VERSION 1.2
WRAP.           NO    :One Line per depth step
PROD.  Schlumberger   :LAS Producer
PROG.  DLIS to ASCII 17C0-152                          :LAS Program name and version
CREA.        2013/10/21 20:50                          :LAS Creation date {YYYY/MM/DD hh:mm}
DLIS_CREA.  2013-Oct-21 08:39                          :DLIS Creation date and time {YYYY-MMM-DD hh:mm}
SOURCE.     9ec8b34d-aca5-43ef-91a8-8c41069c79cd       :DLIS File Name
#--------------------------------------------------
~WELL INFORMATION
#MNEM.UNIT      DATA             DESCRIPTION
#---- ------ --------------   -----------------------------
STRT .F      901.5000        :START DEPTH        # original; data subset to 5500-8000
STOP .F      7746.5000       :STOP DEPTH        # original; data subset to 5500-8000
STEP .F       0.5000         :STEP       
NULL .          -999.25      :NULL VALUE
COMP .                 COMPANY:  Bear Oil and Gas, Inc.             
WELL .                    WELL:  McGahan Farms 32 31                
FLD  .                   FIELD:  Wildcat                            
LOC  .                LOCATION:  SHL: SWNE 2563' FNL & 1423' FEL    
CNTY .                  COUNTY:  Laramie                            
STAT .                   STATE:  Wyoming                            
CTRY .                 COUNTRY:  United States                      
SRVC .         SERVICE COMPANY:  Schlumberger                       
LATI .DEG             LATITUDE:  41.309490 degrees                  
LONG .DEG            LONGITUDE:  -104.12429 degrees                 
API  .              API NUMBER:  49-021-21045                       
DATE .                LOG DATE:  21-Oct-2013
UWI  .          UNIQUE WELL ID:  49021210450000                     
#-----------------------------------------------------------------------------
~PARAMETER INFORMATION
#MNEM.UNIT    VALUE                      DESCRIPTION
#---- -----   --------------------       ------------------------
CN   .        Bear Oil and Gas  Inc.     :Company Name
WN   .        McGahan Farms 32 31        :Well Name
FN   .        Wildcat                    :Field Name
FL   .        SHL  SWNE 2563' FNL & 1423' FEL :Field Location
FL1  .        Section 31  Township 16N  Range 60W :Field Location, Line 1
COUN .        Laramie                    :County or Parish
STAT .        Wyoming                    :State or Province
NATI .        United States              :Nation
DATE .        21-Oct-2013                :Tools Above Rotary Table Date
APIN .        49-021-21045               :API Well Number
SECT .        31                         :Section
TOWN .        16N                        :Township
RANG .        60W                        :Range
DMF  .        KB                         :Drilling Measured From (Name of Drilling Elevation Reference)
LMF  .        KB                         :Logging Measured From (Name of Logging Elevation Reference)
PDAT .        GL                         :Permanent Datum
ENGI .        Max Pace                   :Engineer s Name
WITN .        Terry                      :Witness s Name
LATI .        41.309490 degrees          :Latitude
LONG .        -104.12429 degrees         :Longitude
LUL  .        Fort Morgan  CO            :Logging Unit Location
LUN  .        3022                       :Logging Unit Number
RUN  .        Run 1                      :Run Number
SON  .        CA0R-00056                 :Service Order Number
BHT  .DEGF     166.00000                 :Bottom Hole Temperature
BS   .IN         7.87500                 :Bit Size
MDEN .G/C3       2.65000                 :Matrix Density for Density Porosity
DFD  .LB/G       9.10000                 :Drilling Fluid Density
DFV  .S         63.00000                 :Drilling Fluid Viscosity
DFL  .C3         8.80000                 :Drilling Fluid Loss
RMFS .OHMM       1.24500                 :Resistivity of Mud Filtrate Sample
EKB  .F       5307.00000                 :Elevation of Kelly Bushing
EGL  .F       5295.00000                 :Elevation of Ground Level
BLI  .F       7730.00000                 :Bottom Log Interval
BSAL .PPM        0.00000                 :Borehole Salinity
FLEV .F          8.00000                 :Depth of Drilling Fluid Level to LMF (Log Measured From)
MCST .DEGF      61.00000                 :Mudcake Sample Temperature
MFST .DEGF      61.00000                 :Mud Filtrate Sample Temperature
MRT  .DEGF     166.00000                 :Maximum Recorded Temperature
MST  .DEGF      61.00000                 :Mud Sample Temperature
RMCS .OHMM       2.07500                 :Resistivity of Mud Cake Sample
RMS  .OHMM       1.66000                 :Resistivity of Mud Sample
RW   .OHMM       1.00000                 :Connate Water Resistivity
TDD  .F       7719.99951                 :Driller Total Depth
TDL  .F       7730.00000                 :Logger Total Depth
TLI  .F       1023.75000                 :Top Log Interval
HIDE .        Wildcat                    :Header Identifier
MATR .        SAND                       :Rock Matrix for Neutron Porosity Corrections
FNUM .           1.00000                 :F-Numerator for Formation Factor Formula
FEXP .           2.00000                 :Exponent "m" for Formation Factor Formula
DFT  .        Fresh Water                :Drilling Fluid Type
DFPH .           7.50000                 :Drilling Fluid pH
MCSS .        Calculated                 :Mudcake Sample Source
MFSS .        Calculated                 :Mud Filtrate Sample Source
FD   .G/C3       1.00000                 :Fluid Density
MSS  .        Active Tank                :Mud Sample Source
OS1  .                                   :Other Services Line 1
OS2  .                                   :Other Services Line 2
OS3  .                                   :Other Services Line 3
OS4  .                                   :Other Services Line 4
OS5  .                                   :Other Services Line 5
R1   .        Tool string run as per tool sketch :Remarks Line 1
R2   .        All Schlumberger depth control procedures followed :Remarks Line 2
R3   .        IDW used as primary depth reference :Remarks Line 3
R4   .        Z Chart used as secondary depth reference :Remarks Line 4
R5   .        Matrix Density zoned as per client request :Remarks Line 5
R6   .        Crew  Max Pace  Tyler Riter  Cody Bruns :Remarks Line 6
R7   .                                   :Remarks Line 7
R8   .                                   :Remarks Line 8
TCS  .        19 00 00                   :Time Circulation Stopped
TLAB .        06 35 50                   :Time Logger At Bottom
NMT  .        NOBARITE                   :HRDD Mud Type for Nuclear Devices
EPD  .C3         5295.000000             :Elevation of Permanent Datum above Mean Sea Level
APD  .F          12.000000               :Elevation of Depth Reference (LMF) above Permanent Datum
#-----------------------------------------------------------------------------
~CURVE INFORMATION
#MNEM.UNIT   API CODE                                  DESCRIPTION
#---- -----  --------                                  -----------------------
DEPT .F                                                :DEPTH (BOREHOLE) {F12.4}
AT10 .OHMM                                             :Array Induction Two Foot Resistivity A10 {F11.4}
AT30 .OHMM                                             :Array Induction Two Foot Resistivity A30 {F11.4}
AT90 .OHMM                                             :Array Induction Two Foot Resistivity A90 {F11.4}
DT   .US/F                                             :Delta-T (also called Slowness or Interval Transit Time) {F11.4}
GR   .GAPI                                             :Gamma Ray {F11.4}
HCAL .IN                                               :HRCC Caliper Calibrated {F11.4}
HDRA .G/C3                                             :Density Standoff Correction {F11.4}
NPHI .CFCF                                             :Thermal Neutron Porosity (original Ratio Method) in Selected Lithology {F11.4}
PEFZ .                                                 :Standard Resolution Formation Photoelectric Factor {F11.4}
RHOZ .G/C3                                             :Standard Resolution Formation Density {F11.4}
SP   .MV                                               :Spontaneous Potential {F11.4}
TNPH .CFCF                                             :Thermal Neutron Porosity (Ratio Method) in Selected Lithology {F11.4}
#-----------------------------------------------------------------------------
# 
#      DEPT        AF10       AF20       AF30       AF60       AF90       AO10       AO20       AO30       AO60       AO90       AT10       AT20       AT30       AT60       AT90     AHFCO60      AHMF      AHORT      AHORX      AHSCA     AHTCO10    AHTCO20    AHTCO30    AHTCO60    AHTCO90     AHTD1      AHTD2      AHTRT      AHTRX       CDF        CFTC       CNTC       CTEM       DCAL       DNPH       DPHZ       DSOZ        DT        ECGR        ED        GDEV        GR        GTEM       HCAL       HDRA       HDRB       HGR        HMIN       HMNO       HNPO       HPRA       HTNP       ITT         ND        NPHI       NPOR       PEFZ    PXND_HILT     RHOZ       RSOZ     RWA_HILT     RXO8       RXOZ        SP        SPAR       SPHI       STIT       TENS       TNPH     HTNP_SAN
#
~A  DEPT AT10 AT30 AT90 DT GR HCAL HDRA NPHI PEFZ RHOZ SP TNPH
5500.0000 2.3260 2.2660 2.2335 93.8557 114.9857 7.8021 0.0470 0.3472 3.1791 2.5080 176.3125 0.3399
5500.5000 2.3114 2.2543 2.2209 94.2147 110.3348 7.8271 0.0471 0.3312 3.1978 2.5073 176.3036 0.3305
5501.0000 2.3717 2.2811 2.2444 93.3174 103.5230 7.8021 0.0371 0.3064 3.2216 2.5055 176.1786 0.3151
5501.5000 2.3910 2.3251 2.2810 93.0906 94.9569 7.8021 0.0244 0.3082 3.2361 2.5010 176.3229 0.3009
5502.0000 2.4111 2.3466 2.3050 92.6960 98.5876 7.8021 0.0195 0.3131 3.2338 2.4968 176.5000 0.2976
5502.5000 2.4242 2.3623 2.3175 92.2754 105.1957 7.8021 0.0209 0.3128 3.2235 2.5053 176.3482 0.2967
5503.0000 2.4712 2.4179 2.3650 92.3111 114.9846 7.7771 0.0349 0.3301 3.2510 2.5312 176.2411 0.3041
5503.5000 2.5023 2.4545 2.4006 91.9537 113.5571 7.7896 0.0459 0.3204 3.2906 2.5486 176.1518 0.3158
5504.0000 2.5263 2.4623 2.4068 91.6347 118.9009 7.8021 0.0466 0.3157 3.2995 2.5449 176.2054 0.3031
5504.5000 2.5220 2.4749 2.4157 91.3467 114.4963 7.7771 0.0318 0.2961 3.2469 2.5274 176.4479 0.2995
5505.0000 2.4426 2.4023 2.3446 90.6884 110.8255 7.8021 0.0133 0.3072 3.1450 2.5020 176.6071 0.2867
5505.5000 2.3867 2.3412 2.2886 91.6680 102.2997 7.8271 0.0097 0.3066 3.0871 2.4990 176.5893 0.3005
5506.0000 2.3766 2.3388 2.2899 91.8951 102.0146 7.8271 0.0182 0.3242 3.0759 2.5106 176.4732 0.3013
5506.5000 2.3484 2.3159 2.2740 92.4399 102.7480 7.9020 0.0321 0.3322 3.0976 2.5161 176.3542 0.3198
5507.0000 2.3326 2.2740 2.2428 93.3631 102.9930 7.8770 0.0430 0.3427 3.1060 2.5139 176.3125 0.3268
5507.5000 2.3261 2.2672 2.2323 93.2875 104.0126 8.0020 0.0441 0.3255 3.0923 2.5029 176.4107 0.3272
5508.0000 2.3566 2.2838 2.2475 92.9178 110.3763 7.7771 0.0451 0.3181 3.0887 2.5122 176.7232 0.3123
5508.5000 2.3698 2.2881 2.2524 92.3991 114.9448 7.8520 0.0498 0.3155 3.0998 2.5135 176.6979 0.3004
5509.0000 2.3947 2.3156 2.2771 92.2640 112.0072 7.8021 0.0655 0.3086 3.1460 2.5146 176.4018 0.3050
5509.5000 2.3787 2.2962 2.2438 92.2779 107.8466 7.7271 0.0796 0.2985 3.2006 2.5027 176.3661 0.3019
5510.0000 2.3130 2.2351 2.1765 92.5854 106.2149 7.7271 0.0844 0.3030 3.2179 2.5037 176.5446 0.2932
5510.5000 2.2755 2.1761 2.1168 92.8339 111.5990 7.6521 0.0820 0.3125 3.1892 2.5050 176.9464 0.2928
5511.0000 2.2319 2.1368 2.0643 93.2562 108.9075 7.7771 0.0807 0.3443 3.1783 2.5143 176.7679 0.3015
5511.5000 2.1916 2.1111 2.0192 93.0081 109.6412 8.0519 0.0779 0.3782 3.2446 2.5065 176.7083 0.3227
5512.0000 2.2001 2.1197 2.0049 91.4675 104.9917 7.8520 0.0692 0.3882 3.3778 2.5000 176.8036 0.3550
5512.5000 2.4304 2.2835 2.1465 89.4776 97.1597 7.8021 0.0551 0.3338 3.4714 2.4987 176.7768 0.3543
5513.0000 2.6547 2.5324 2.3092 88.6771 86.6366 7.7521 0.0531 0.2845 3.4919 2.5267 176.6250 0.3047
5513.5000 2.6985 2.5836 2.3694 87.8008 87.6155 7.7771 0.0482 0.2860 3.3920 2.5454 176.4479 0.2745
5514.0000 2.6435 2.5048 2.3223 88.1322 97.1602 7.8021 0.0354 0.3050 3.2344 2.5403 176.5536 0.2785
5514.5000 2.6461 2.5089 2.3315 89.7689 104.7470 7.8271 0.0115 0.3430 3.1222 2.5003 176.5982 0.2933
5515.0000 2.6716 2.5306 2.3659 89.7964 106.3784 7.8021 0.0049 0.3364 3.0683 2.4876 176.4911 0.3196
5515.5000 2.6579 2.5311 2.3794 90.3185 110.5389 7.7771 0.0152 0.3452 3.1087 2.5051 176.5089 0.3222
5516.0000 2.6201 2.5273 2.3863 90.0313 107.8471 7.7271 0.0320 0.3170 3.1370 2.5443 176.7396 0.3290
5516.5000 2.5769 2.5041 2.3949 90.5010 109.6421 7.7021 0.0431 0.3129 3.2120 2.5659 176.8125 0.3081
5517.0000 2.5397 2.4843 2.3742 91.1101 107.7657 7.7521 0.0470 0.3087 3.2880 2.5610 176.7054 0.3064
5517.5000 2.5128 2.4642 2.3597 91.6178 111.1919 7.8021 0.0520 0.3116 3.3836 2.5377 176.5179 0.3020
5518.0000 2.4999 2.4439 2.3476 91.8301 109.7236 7.7521 0.0627 0.3182 3.4808 2.5249 176.3839 0.3055
5518.5000 2.4911 2.4269 2.3369 91.8996 104.5023 7.7271 0.0651 0.3227 3.5166 2.5025 176.5938 0.3104
5519.0000 2.4691 2.4143 2.3258 92.3890 101.8099 7.8021 0.0621 0.3286 3.4781 2.4950 176.7500 0.3179
5519.5000 2.4480 2.3857 2.3039 92.1983 100.9122 7.7021 0.0452 0.3194 3.3330 2.4854 176.7946 0.3179
5520.0000 2.4693 2.3866 2.3079 92.1188 103.6045 7.7271 0.0333 0.3359 3.1654 2.5034 176.8125 0.3000
5520.5000 2.5116 2.4350 2.3589 92.1039 103.1151 7.7646 0.0239 0.3360 3.0477 2.5269 176.6429 0.3180
5521.0000 2.5495 2.4811 2.4057 91.4165 108.9068 7.8021 0.0217 0.3711 3.0374 2.5375 176.5208 0.3271
5521.5000 2.4955 2.4399 2.3702 91.6230 102.2996 7.8271 0.0180 0.3435 3.0858 2.5294 176.6339 0.3582
5522.0000 2.4709 2.4125 2.3453 91.8626 108.5094 7.8021 0.0137 0.3258 3.1206 2.5132 176.5893 0.3392
5522.5000 2.4845 2.4170 2.3523 91.3409 101.2901 7.8021 0.0067 0.3052 3.1067 2.4994 176.6607 0.3172
5523.0000 2.4799 2.4097 2.3499 92.0034 105.4509 7.7771 0.0097 0.3024 3.1242 2.5098 176.6771 0.2992
5523.5000 2.4981 2.4359 2.3753 92.3713 99.2409 7.8520 0.0244 0.3088 3.2003 2.5357 176.5714 0.2943
5524.0000 2.4615 2.4197 2.3584 91.8853 103.5236 7.8021 0.0399 0.3268 3.2777 2.5427 176.5268 0.2986
5524.5000 2.4260 2.3762 2.3260 92.4902 105.7252 7.8520 0.0527 0.3460 3.3234 2.5374 176.8393 0.3118
5525.0000 2.3932 2.3386 2.2882 92.4713 110.3751 7.7896 0.0530 0.3661 3.3040 2.5061 176.7917 0.3279
5525.5000 2.3570 2.3100 2.2573 92.5579 110.1309 7.7021 0.0563 0.3553 3.2864 2.4996 176.8304 0.3479
5526.0000 2.3188 2.2717 2.2256 93.1202 106.3373 7.6771 0.0571 0.3423 3.2386 2.4954 176.8929 0.3436
5526.5000 2.2876 2.2290 2.1885 93.3379 101.9326 7.7521 0.0583 0.3247 3.1774 2.5011 176.8929 0.3394
5527.0000 2.2850 2.2218 2.1875 93.8434 99.4853 7.8396 0.0511 0.3281 3.0960 2.5036 177.0357 0.3196
5527.5000 2.3263 2.2448 2.2032 93.9391 100.8317 7.9270 0.0413 0.3161 3.0309 2.5059 177.1071 0.3146
5528.0000 2.3405 2.2747 2.2162 93.6583 106.2157 7.8520 0.0332 0.3176 3.0367 2.5156 177.0521 0.3061
5528.5000 2.3517 2.2798 2.2099 93.3864 106.3378 7.8520 0.0257 0.3105 3.0986 2.5120 176.9375 0.3086
5529.0000 2.3588 2.2717 2.2078 93.3437 105.8488 7.8520 0.0242 0.3371 3.1825 2.5122 177.0179 0.3055
5529.5000 2.3610 2.2759 2.2059 92.3473 101.9330 7.8146 0.0207 0.3518 3.1991 2.5082 177.0536 0.3225
5530.0000 2.4453 2.3346 2.2383 90.5464 108.4179 7.8520 0.0209 0.3701 3.1758 2.5195 176.8750 0.3286
5530.5000 2.5042 2.4069 2.2859 89.6170 112.4150 7.8770 0.0151 0.3373 3.1174 2.5139 176.8958 0.3416
5531.0000 2.5243 2.4517 2.3133 88.3942 110.4571 7.8770 0.0103 0.3423 3.0845 2.5035 177.0714 0.3216
5531.5000 2.6598 2.5844 2.4133 84.9905 106.5419 7.9020 0.0124 0.3296 3.0955 2.5143 176.9643 0.3275
5532.0000 2.8393 2.7673 2.5702 84.6280 101.0760 7.8021 0.0164 0.3378 3.1307 2.5378 176.8393 0.3239
5532.5000 2.6101 2.5850 2.4089 84.3465 100.7496 7.8271 0.0248 0.3170 3.1668 2.5612 176.6042 0.3321
5533.0000 2.4452 2.3839 2.2252 84.6183 97.8126 7.8520 0.0332 0.3033 3.1709 2.5545 176.9821 0.3096
5533.5000 2.3578 2.2985 2.1706 89.3365 101.4838 7.9270 0.0435 0.3057 3.1547 2.5459 177.0714 0.3044
5534.0000 2.3524 2.3056 2.1693 90.2022 102.7893 7.8271 0.0495 0.3075 3.1321 2.5318 177.1250 0.3031
5534.5000 2.3332 2.3143 2.1772 89.4527 100.5865 7.8271 0.0490 0.3085 3.1254 2.5211 176.9286 0.3045
5535.0000 2.2816 2.2616 2.1415 89.5560 97.4048 7.8520 0.0502 0.3147 3.1617 2.5056 176.9375 0.2988
5535.5000 2.2206 2.1934 2.0722 89.7310 99.1179 7.7521 0.0502 0.3547 3.2185 2.5019 177.0446 0.3043
5536.0000 2.2050 2.1728 2.0655 93.1238 100.8311 7.8021 0.0491 0.3627 3.2531 2.4914 177.1071 0.3407
5536.5000 2.2548 2.2241 2.1112 92.6720 102.5442 7.8021 0.0528 0.3716 3.2719 2.5011 176.9375 0.3371
5537.0000 2.2806 2.2705 2.1549 92.0159 109.3968 7.7021 0.0499 0.3378 3.2431 2.4986 177.0000 0.3430
5537.5000 2.3254 2.3068 2.1966 92.0197 117.3910 7.8021 0.0459 0.3567 3.2023 2.5048 177.0417 0.3279
5538.0000 2.3864 2.3684 2.2554 91.3316 120.8182 7.7521 0.0386 0.3276 3.1712 2.5064 176.9375 0.3391
5538.5000 2.3974 2.4024 2.2914 92.1407 115.4336 8.0020 0.0422 0.3259 3.1688 2.5166 176.9107 0.3187
5539.0000 2.3654 2.3722 2.2707 92.5190 111.5998 7.8271 0.0483 0.3220 3.1835 2.5228 177.0446 0.3238
5539.5000 2.3373 2.3189 2.2267 92.5052 107.4390 7.8770 0.0500 0.3312 3.1894 2.5194 177.0982 0.3107
5540.0000 2.2917 2.2725 2.1879 93.2079 109.1524 7.8770 0.0446 0.3362 3.1943 2.5154 177.0521 0.3165
