~VERSION INFORMATION
VERS.           1.2   :CWLS Log ASCII Standard - VERSION 1.2
WRAP.           NO    :One Line per depth step
PROD.  Schlumberger   :LAS Producer
PROG.  DLIS to ASCII 17C0-152                          :LAS Program name and version
CREA.        2013/11/03 06:14                          :LAS Creation date {YYYY/MM/DD hh:mm}
DLIS_CREA.  2013-Nov-02 20:25                          :DLIS Creation date and time {YYYY-MMM-DD hh:mm}
SOURCE.     36f617ea-a8f9-4f31-9cfe-b4906ac6e0fc       :DLIS File Name
#--------------------------------------------------
~WELL INFORMATION
#MNEM.UNIT      DATA             DESCRIPTION
#---- ------ --------------   -----------------------------
STRT .F      1000.5000       :START DEPTH        # original; data subset to 5500-8000
STOP .F      7745.0000       :STOP DEPTH        # original; data subset to 5500-8000
STEP .F       0.5000         :STEP       
NULL .          -999.25      :NULL VALUE
COMP .                 COMPANY:  Bear Oil & Gas, Inc.               
WELL .                    WELL:  Marquardt 34-31                    
FLD  .                   FIELD:  Wildcat                            
LOC  .                LOCATION:  SWSE, Sec. 31, T16N, R60W          
CNTY .                  COUNTY:  Laramie                            
STAT .                   STATE:  Wyoming                            
CTRY .                 COUNTRY:                                     
SRVC .         SERVICE COMPANY:  Schlumberger                       
LATI .DEG             LATITUDE:  41.305550 degrees                  
LONG .DEG            LONGITUDE:  -104.12401 degrees                 
API  .              API NUMBER:  49-021-21046-0000                  
DATE .                LOG DATE:  02-Nov-2013
UWI  .          UNIQUE WELL ID:                                     
#-----------------------------------------------------------------------------
~PARAMETER INFORMATION
#MNEM.UNIT    VALUE                      DESCRIPTION
#---- -----   --------------------       ------------------------
CN   .        Bear Oil & Gas  Inc.       :Company Name
WN   .        Marquardt 34-31            :Well Name
FN   .        Wildcat                    :Field Name
FL   .        SWSE  Sec. 31  T16N  R60W  :Field Location
FL1  .        SHL  1265' FSL X 1340' FEL :Field Location, Line 1
COUN .        Laramie                    :County or Parish
STAT .        Wyoming                    :State or Province
NATI .                                   :Nation
DATE .        02-Nov-2013                :Tools Above Rotary Table Date
APIN .        49-021-21046-0000          :API Well Number
SECT .        31                         :Section
TOWN .        16N                        :Township
RANG .        60W                        :Range
DMF  .        KB                         :Drilling Measured From (Name of Drilling Elevation Reference)
LMF  .        KB                         :Logging Measured From (Name of Logging Elevation Reference)
PDAT .        GL                         :Permanent Datum
ENGI .        Heather Hoffman            :Engineer s Name
WITN .        Terry Eittreim             :Witness s Name
LATI .        41.305550 degrees          :Latitude
LONG .        -104.12401 degrees         :Longitude
LUL  .        Fort Morgan  CO            :Logging Unit Location
LUN  .        2135                       :Logging Unit Number
RUN  .        PEX BHC AIT                :Run Number
SON  .        CQQL-00004                 :Service Order Number
BHT  .DEGF     185.00000                 :Bottom Hole Temperature
BS   .IN         7.87500                 :Bit Size
MDEN .G/C3       2.65000                 :Matrix Density for Density Porosity
DFD  .LB/G       9.10000                 :Drilling Fluid Density
DFV  .S         82.00000                 :Drilling Fluid Viscosity
DFL  .C3      -999.25000                 :Drilling Fluid Loss
RMFS .OHMM       1.18400                 :Resistivity of Mud Filtrate Sample
EKB  .F       10594.00000                :Elevation of Kelly Bushing
EGL  .F       5291.00000                 :Elevation of Ground Level
BLI  .F       7724.00000                 :Bottom Log Interval
BSAL .PPM        0.00000                 :Borehole Salinity
FLEV .F         50.00000                 :Depth of Drilling Fluid Level to LMF (Log Measured From)
MCST .DEGF      85.00000                 :Mudcake Sample Temperature
MFST .DEGF      85.00000                 :Mud Filtrate Sample Temperature
MRT  .DEGF     185.00000                 :Maximum Recorded Temperature
MST  .DEGF      85.00000                 :Mud Sample Temperature
RMCS .OHMM       1.77600                 :Resistivity of Mud Cake Sample
RMS  .OHMM       1.48000                 :Resistivity of Mud Sample
RW   .OHMM       1.00000                 :Connate Water Resistivity
TDD  .F       7719.99951                 :Driller Total Depth
TDL  .F       7724.00000                 :Logger Total Depth
TLI  .F       1024.00000                 :Top Log Interval
HIDE .        Wildcat                    :Header Identifier
MATR .        SAND                       :Rock Matrix for Neutron Porosity Corrections
FNUM .           1.00000                 :F-Numerator for Formation Factor Formula
FEXP .           2.00000                 :Exponent "m" for Formation Factor Formula
DFT  .        WATER                      :Drilling Fluid Type
DFPH .        -999.25000                 :Drilling Fluid pH
MCSS .        Calculated                 :Mudcake Sample Source
MFSS .        Calculated                 :Mud Filtrate Sample Source
FD   .G/C3       1.00000                 :Fluid Density
MSS  .        Active Tank                :Mud Sample Source
OS1  .                                   :Other Services Line 1
OS2  .                                   :Other Services Line 2
OS3  .                                   :Other Services Line 3
OS4  .                                   :Other Services Line 4
OS5  .                                   :Other Services Line 5
R1   .                                   :Remarks Line 1
R2   .                                   :Remarks Line 2
R3   .                                   :Remarks Line 3
R4   .                                   :Remarks Line 4
R5   .                                   :Remarks Line 5
R6   .                                   :Remarks Line 6
R7   .                                   :Remarks Line 7
R8   .        This is first run in hole. :Remarks Line 8
TCS  .        09 55 00                   :Time Circulation Stopped
TLAB .        20 18 33                   :Time Logger At Bottom
NMT  .        NOBARITE                   :HRDD Mud Type for Nuclear Devices
EPD  .C3         5291.000000             :Elevation of Permanent Datum above Mean Sea Level
APD  .F         5303.000000              :Elevation of Depth Reference (LMF) above Permanent Datum
#-----------------------------------------------------------------------------
~CURVE INFORMATION
#MNEM.UNIT   API CODE                                  DESCRIPTION
#---- -----  --------                                  -----------------------
DEPT .F                                                :DEPTH (BOREHOLE) {F12.4}
AT10 .OHMM                                             :Array Induction Two Foot Resistivity A10 {F11.4}
AT30 .OHMM                                             :Array Induction Two Foot Resistivity A30 {F11.4}
AT90 .OHMM                                             :Array Induction Two Foot Resistivity A90 {F11.4}
DT   .US/F                                             :Delta-T (also called Slowness or Interval Transit Time) {F11.4}
GR   .GAPI                                             :Gamma Ray {F11.4}
HCAL .IN                                               :HRCC Caliper Calibrated {F11.4}
HDRA .G/C3                                             :Density Standoff Correction {F11.4}
NPHI .CFCF                                             :Thermal Neutron Porosity (original Ratio Method) in Selected Lithology {F11.4}
PEFZ .                                                 :Standard Resolution Formation Photoelectric Factor {F11.4}
RHOZ .G/C3                                             :Standard Resolution Formation Density {F11.4}
SP   .MV                                               :Spontaneous Potential {F11.4}
TNPH .CFCF                                             :Thermal Neutron Porosity (Ratio Method) in Selected Lithology {F11.4}
#-----------------------------------------------------------------------------
# 
#      DEPT        AF10       AF20       AF30       AF60       AF90       AO10       AO20       AO30       AO60       AO90       AT10       AT20       AT30       AT60       AT90     AHFCO60      AHMF      AHORT      AHORX      AHSCA     AHTCO10    AHTCO20    AHTCO30    AHTCO60    AHTCO90     AHTD1      AHTD2      AHTRT      AHTRX       CDF        CFTC       CNTC       CTEM       DCAL       DNPH       DPHZ       DSOZ        DT        ECGR        ED        GDEV        GR        GTEM       HCAL       HDRA       HDRB       HGR        HMIN       HMNO       HNPO       HPRA       HTNP       ITT         ND        NPHI       NPOR       PEFZ    PXND_HILT     RHOZ       RSOZ     RWA_HILT     RXO8       RXOZ        SP        SPAR       SPHI       STIT       TENS       TNPH     HTNP_SAN
#
~A  DEPT AT10 AT30 AT90 DT GR HCAL HDRA NPHI PEFZ RHOZ SP TNPH
# ...
6221.5000 3.2549 3.0620 2.9327 86.7638 104.2047 7.6918 -0.0024 0.2678 2.9849 2.5278 -199.0859 0.2676
6222.0000 3.2444 3.0541 2.9162 87.0098 102.7948 7.7141 0.0009 0.2716 2.9360 2.5374 -198.9732 0.2671
6222.5000 3.1680 2.9836 2.8592 86.7960 97.4459 7.6918 0.0014 0.2654 2.9343 2.5377 -198.9922 0.2698
6223.0000 3.1173 2.9371 2.8123 87.2240 97.9161 7.7141 0.0050 0.2801 2.9362 2.5448 -199.0714 0.2611
6223.5000 3.1068 2.9248 2.7968 87.4277 103.2352 7.6918 0.0054 0.2776 2.9511 2.5380 -199.1953 0.2661
6224.0000 3.0765 2.9118 2.7841 87.4111 104.7635 7.6918 0.0090 0.2778 2.9657 2.5362 -199.1518 0.2620
6224.5000 3.0623 2.8920 2.7620 87.5458 106.8499 7.7141 0.0079 0.2621 2.9554 2.5305 -198.9063 0.2678
6225.0000 3.0793 2.9051 2.7762 87.4832 100.5902 7.6918 0.0064 0.2810 2.9157 2.5351 -198.9554 0.2512
6225.5000 3.1147 2.9565 2.8233 87.9172 102.9708 7.7364 0.0000 0.2895 2.8902 2.5309 -199.3594 0.2702
6226.0000 3.2337 3.0157 2.8859 86.7124 100.8848 7.6918 -0.0012 0.2930 2.8607 2.5429 -199.8047 0.2722
6226.5000 3.3504 3.1532 3.0074 86.0978 98.9157 7.7364 -0.0010 0.2826 2.8892 2.5498 -199.9196 0.2736
6227.0000 3.4159 3.2238 3.0829 85.9614 96.0652 7.7141 0.0013 0.2851 2.9134 2.5574 -199.7679 0.2704
6227.5000 3.4231 3.2260 3.1058 85.0262 102.8824 7.7141 0.0013 0.2739 2.9758 2.5601 -199.4922 0.2761
6228.0000 3.4481 3.2660 3.1387 85.8327 107.6729 7.7364 0.0020 0.2675 3.0417 2.5721 -199.4609 0.2619
6228.5000 3.4189 3.2431 3.1193 85.7070 101.6778 7.7141 0.0052 0.2649 3.0915 2.5845 -199.5625 0.2579
6229.0000 3.3294 3.1760 3.0553 85.6503 96.7406 7.7364 0.0061 0.2853 3.0882 2.5844 -199.5234 0.2630
6229.5000 3.2761 3.1183 3.0040 86.9698 100.5903 7.7141 0.0063 0.3005 3.0232 2.5637 -199.3839 0.2808
6230.0000 3.1691 3.0449 2.9325 87.0209 107.2903 7.7364 0.0034 0.2982 2.9653 2.5452 -199.2109 0.2860
6230.5000 3.2271 3.0421 2.9263 86.7147 106.2623 7.7364 0.0024 0.2927 2.9548 2.5340 -199.3929 0.2836
6231.0000 3.2698 3.1165 2.9954 86.7600 99.8263 7.7364 0.0008 0.2777 2.9667 2.5357 -199.4844 0.2816
6231.5000 3.2643 3.1085 2.9823 86.4164 100.7378 7.7587 -0.0011 0.2795 2.9751 2.5325 -199.3393 0.2738
6232.0000 3.2313 3.0695 2.9510 86.5548 100.5902 7.7587 -0.0029 0.2831 2.9772 2.5273 -199.4219 0.2803
6232.5000 3.1920 3.0350 2.9286 87.2751 104.8223 7.7364 -0.0049 0.2888 2.9975 2.5242 -199.4464 0.2795
6233.0000 3.1872 3.0247 2.9290 87.0496 101.9423 7.7587 -0.0048 0.2845 3.0009 2.5338 -199.2266 0.2760
6233.5000 3.2689 3.0900 2.9822 86.6238 105.7043 7.7364 -0.0052 0.2846 3.0079 2.5400 -199.2054 0.2764
6234.0000 3.3181 3.1430 3.0291 86.4950 101.1195 7.7587 -0.0044 0.2726 3.0028 2.5428 -199.3203 0.2727
6234.5000 3.3256 3.1481 3.0407 86.1722 109.6709 7.7809 -0.0044 0.2680 3.0147 2.5335 -199.3571 0.2603
6235.0000 3.3448 3.1677 3.0589 85.9820 110.7877 7.7364 -0.0026 0.2660 3.0162 2.5298 -199.1328 0.2571
6235.5000 3.3726 3.1981 3.0862 85.8181 119.1336 7.7364 -0.0032 0.2709 3.0514 2.5229 -199.0357 0.2551
6236.0000 3.3355 3.1515 3.0396 85.5473 114.9020 7.7809 -0.0006 0.2762 3.0713 2.5336 -199.1172 0.2674
6236.5000 3.2471 3.0938 2.9853 85.8809 114.7257 7.7587 -0.0003 0.2677 3.0626 2.5353 -199.0536 0.2685
6237.0000 3.1720 3.0323 2.9268 86.6775 108.8485 7.7587 -0.0001 0.2677 3.0302 2.5358 -199.1172 0.2611
6237.5000 3.1223 2.9659 2.8604 86.7801 107.2029 7.7587 -0.0026 0.2706 3.0088 2.5274 -199.1071 0.2619
6238.0000 3.1632 2.9981 2.8888 87.0864 102.0304 7.7809 -0.0023 0.2742 2.9870 2.5322 -199.1328 0.2587
6238.5000 3.1803 3.0194 2.9014 87.3585 101.5603 7.7587 -0.0006 0.2693 2.9779 2.5393 -198.9643 0.2677
6239.0000 3.1528 2.9836 2.8760 87.0586 98.5040 7.7809 0.0022 0.2703 2.9790 2.5496 -198.9531 0.2600
6239.5000 3.1411 2.9773 2.8733 87.1449 96.6527 7.7809 0.0039 0.2670 3.0086 2.5545 -199.2321 0.2638
6240.0000 3.1649 3.0006 2.8945 87.0190 104.1753 7.7809 0.0052 0.2797 3.0002 2.5614 -199.4609 0.2621
6240.5000 3.1910 3.0174 2.9134 86.5912 102.5005 7.7475 0.0042 0.2752 2.9593 2.5607 -199.6696 0.2686
6241.0000 3.2154 3.0499 2.9374 86.3206 112.1685 7.7809 0.0019 0.2741 2.9552 2.5480 -199.5469 0.2607
6241.5000 3.1963 3.0305 2.9235 86.4004 100.6495 7.7698 0.0016 0.2689 2.9875 2.5346 -199.5714 0.2595
6242.0000 3.1404 2.9738 2.8719 86.6887 102.5008 7.7587 0.0031 0.2699 3.0433 2.5276 -199.4063 0.2619
6242.5000 3.0628 2.9088 2.8127 87.4279 97.9753 7.8032 0.0033 0.2700 3.0365 2.5410 -199.3036 0.2673
6243.0000 3.1041 2.9053 2.8021 87.0338 99.7677 7.7587 0.0022 0.2776 3.0004 2.5565 -199.5078 0.2641
6243.5000 3.1485 2.9751 2.8611 87.1712 103.1174 7.7809 0.0005 0.2789 2.9778 2.5606 -199.5859 0.2733
6244.0000 3.1029 2.9559 2.8440 86.9717 110.1117 7.7809 0.0022 0.2784 2.9877 2.5591 -199.5625 0.2747
6244.5000 3.0955 2.9132 2.8042 86.8764 112.5506 7.7587 0.0011 0.2764 3.0229 2.5482 -199.3906 0.2699
6245.0000 3.1085 2.9346 2.8075 87.1527 108.5547 7.8032 -0.0017 0.2696 3.0347 2.5417 -199.1875 0.2632
6245.5000 3.1126 2.9406 2.8206 87.1139 101.7666 7.7809 -0.0050 0.2748 3.0167 2.5332 -199.0156 0.2569
6246.0000 3.0589 2.8744 2.7586 87.3803 97.5350 7.7809 -0.0044 0.2645 2.9773 2.5357 -198.7768 0.2672
6246.5000 2.9764 2.8145 2.7028 87.9726 103.5297 7.8032 -0.0029 0.2772 2.9592 2.5390 -198.8281 0.2621
6247.0000 2.8928 2.7218 2.6180 88.3745 102.6185 7.7809 -0.0028 0.2789 2.9971 2.5365 -198.9196 0.2686
6247.5000 2.8758 2.6986 2.5920 88.6020 109.7595 7.7921 -0.0024 0.2779 3.0393 2.5382 -199.1328 0.2700
6248.0000 2.9209 2.7465 2.6312 88.3485 100.2382 7.7809 -0.0012 0.2767 3.0745 2.5423 -199.4732 0.2700
6248.5000 2.9438 2.7801 2.6653 88.1241 102.3829 7.7809 0.0014 0.2869 3.0609 2.5493 -199.3203 0.2653
6249.0000 2.9267 2.7554 2.6412 88.1065 102.0595 7.7809 0.0018 0.2859 3.0451 2.5435 -199.2500 0.2762
6249.5000 2.9218 2.7380 2.6192 87.8574 104.9983 7.7809 0.0042 0.2759 3.0058 2.5439 -199.1786 0.2713
6250.0000 2.9598 2.7778 2.6638 88.2987 106.6147 7.8255 0.0041 0.2712 2.9464 2.5350 -199.3516 0.2631
6250.5000 2.9478 2.7776 2.6626 88.0876 97.6812 7.7587 0.0057 0.2796 2.9044 2.5354 -199.5781 0.2621
6251.0000 2.9440 2.7689 2.6581 87.9050 102.0304 7.7587 0.0074 0.2864 2.9061 2.5407 -199.6964 0.2728
6251.5000 2.9415 2.7709 2.6548 87.9499 94.8602 7.7809 0.0130 0.2855 2.9704 2.5613 -199.8750 0.2780
6252.0000 2.9186 2.7445 2.6380 87.9135 97.9165 7.7698 0.0140 0.2928 3.0265 2.5775 -199.4732 0.2757
6252.5000 2.8853 2.7188 2.6207 87.8340 100.5613 7.8032 0.0119 0.2913 3.0416 2.5704 -199.1406 0.2823
6253.0000 2.8868 2.7086 2.6054 87.9898 106.3212 7.7809 0.0129 0.2871 3.0506 2.5646 -198.9286 0.2820
6253.5000 2.8662 2.6887 2.5896 88.3161 107.1735 7.7809 0.0137 0.2808 3.0531 2.5523 -198.9844 0.2842
6254.0000 2.7474 2.5917 2.4921 88.9175 104.0586 7.7809 0.0121 0.2869 3.0334 2.5416 -198.9911 0.2837
6254.5000 2.6496 2.4839 2.3976 89.2874 102.4129 7.8144 0.0068 0.3023 3.0187 2.5311 -199.0234 0.2886
6255.0000 2.6308 2.4648 2.3675 89.5378 105.5572 7.8255 0.0050 0.3101 3.0228 2.5345 -199.1696 0.2922
6255.5000 2.6519 2.4947 2.3817 89.5427 101.6779 7.8032 0.0063 0.2997 3.0618 2.5444 -199.3281 0.2986
6256.0000 2.6545 2.5088 2.3943 89.6956 100.5024 7.8032 0.0063 0.3076 3.0517 2.5463 -199.3482 0.2887
6256.5000 2.6430 2.4640 2.3617 89.9096 99.2098 7.8032 0.0058 0.3099 3.0169 2.5374 -199.2969 0.3002
6257.0000 2.6653 2.4881 2.3763 89.6099 106.6153 7.7809 0.0022 0.3198 3.0013 2.5181 -199.1875 0.2999
6257.5000 2.7671 2.5779 2.4430 89.5958 108.0259 7.8032 0.0016 0.3007 3.0047 2.5098 -199.2411 0.3021
6258.0000 2.8309 2.6354 2.5088 88.2806 105.1456 7.8255 0.0050 0.2897 3.0470 2.5214 -199.2969 0.2871
6258.5000 2.9343 2.7304 2.5954 87.2632 95.5064 7.8255 0.0040 0.2852 3.0835 2.5451 -199.6429 0.2851
6259.0000 3.0413 2.8279 2.6865 87.4388 92.3912 7.8032 0.0048 0.2846 3.1290 2.5697 -199.8359 0.2828
6259.5000 2.9135 2.7047 2.5778 87.1248 95.1538 7.7809 0.0023 0.2842 3.1180 2.5697 -199.7679 0.2764
6260.0000 2.7577 2.5848 2.4645 88.0746 101.0900 7.7809 0.0069 0.2964 3.0582 2.5667 -199.5938 0.2694
6260.5000 2.6491 2.4934 2.3836 89.3125 103.7352 7.7921 0.0064 0.2863 2.9777 2.5501 -199.1071 0.2837
6261.0000 2.5918 2.4330 2.3290 89.4571 106.5269 7.8032 0.0064 0.2990 2.9368 2.5415 -199.1797 0.2837
