~VERSION INFORMATION
VERS.           1.2   :CWLS Log ASCII Standard - VERSION 1.2
WRAP.           NO    :One Line per depth step
PROD.  Schlumberger   :LAS Producer
PROG.  DLIS to ASCII 17C0-152                          :LAS Program name and version
CREA.        2013/10/21 20:50                          :LAS Creation date {YYYY/MM/DD hh:mm}
DLIS_CREA.  2013-Oct-21 08:39                          :DLIS Creation date and time {YYYY-MMM-DD hh:mm}
SOURCE.     9ec8b34d-aca5-43ef-91a8-8c41069c79cd       :DLIS File Name
#--------------------------------------------------
~WELL INFORMATION
#MNEM.UNIT      DATA             DESCRIPTION
#---- ------ --------------   -----------------------------
STRT .F      901.5000        :START DEPTH        # original; data subset to 5500-8000
STOP .F      7746.5000       :STOP DEPTH        # original; data subset to 5500-8000
STEP .F       0.5000         :STEP       
NULL .          -999.25      :NULL VALUE
COMP .                 COMPANY:  Bear Oil and Gas, Inc.             
WELL .                    WELL:  McGahan Farms 32 31                
FLD  .                   FIELD:  Wildcat                            
LOC  .                LOCATION:  SHL: SWNE 2563' FNL & 1423' FEL    
CNTY .                  COUNTY:  Laramie                            
STAT .                   STATE:  Wyoming                            
CTRY .                 COUNTRY:  United States                      
SRVC .         SERVICE COMPANY:  Schlumberger                       
LATI .DEG             LATITUDE:  41.309490 degrees                  
LONG .DEG            LONGITUDE:  -104.12429 degrees                 
API  .              API NUMBER:  49-021-21045                       
DATE .                LOG DATE:  21-Oct-2013
UWI  .          UNIQUE WELL ID:  49021210450000                     
#-----------------------------------------------------------------------------
~PARAMETER INFORMATION
#MNEM.UNIT    VALUE                      DESCRIPTION
#---- -----   --------------------       ------------------------
CN   .        Bear Oil and Gas  Inc.     :Company Name
WN   .        McGahan Farms 32 31        :Well Name
FN   .        Wildcat                    :Field Name
FL   .        SHL  SWNE 2563' FNL & 1423' FEL :Field Location
FL1  .        Section 31  Township 16N  Range 60W :Field Location, Line 1
COUN .        Laramie                    :County or Parish
STAT .        Wyoming                    :State or Province
NATI .        United States              :Nation
DATE .        21-Oct-2013                :Tools Above Rotary Table Date
APIN .        49-021-21045               :API Well Number
SECT .        31                         :Section
TOWN .        16N                        :Township
RANG .        60W                        :Range
DMF  .        KB                         :Drilling Measured From (Name of Drilling Elevation Reference)
LMF  .        KB                         :Logging Measured From (Name of Logging Elevation Reference)
PDAT .        GL                         :Permanent Datum
ENGI .        Max Pace                   :Engineer s Name
WITN .        Terry                      :Witness s Name
LATI .        41.309490 degrees          :Latitude
LONG .        -104.12429 degrees         :Longitude
LUL  .        Fort Morgan  CO            :Logging Unit Location
LUN  .        3022                       :Logging Unit Number
RUN  .        Run 1                      :Run Number
SON  .        CA0R-00056                 :Service Order Number
BHT  .DEGF     166.00000                 :Bottom Hole Temperature
BS   .IN         7.87500                 :Bit Size
MDEN .G/C3       2.65000                 :Matrix Density for Density Porosity
DFD  .LB/G       9.10000                 :Drilling Fluid Density
DFV  .S         63.00000                 :Drilling Fluid Viscosity
DFL  .C3         8.80000                 :Drilling Fluid Loss
RMFS .OHMM       1.24500                 :Resistivity of Mud Filtrate Sample
EKB  .F       5307.00000                 :Elevation of Kelly Bushing
EGL  .F       5295.00000                 :Elevation of Ground Level
BLI  .F       7730.00000                 :Bottom Log Interval
BSAL .PPM        0.00000                 :Borehole Salinity
FLEV .F          8.00000                 :Depth of Drilling Fluid Level to LMF (Log Measured From)
MCST .DEGF      61.00000                 :Mudcake Sample Temperature
MFST .DEGF      61.00000                 :Mud Filtrate Sample Temperature
MRT  .DEGF     166.00000                 :Maximum Recorded Temperature
MST  .DEGF      61.00000                 :Mud Sample Temperature
RMCS .OHMM       2.07500                 :Resistivity of Mud Cake Sample
RMS  .OHMM       1.66000                 :Resistivity of Mud Sample
RW   .OHMM       1.00000                 :Connate Water Resistivity
TDD  .F       7719.99951                 :Driller Total Depth
TDL  .F       7730.00000                 :Logger Total Depth
TLI  .F       1023.75000                 :Top Log Interval
HIDE .        Wildcat                    :Header Identifier
MATR .        SAND                       :Rock Matrix for Neutron Porosity Corrections
FNUM .           1.00000                 :F-Numerator for Formation Factor Formula
FEXP .           2.00000                 :Exponent "m" for Formation Factor Formula
DFT  .        Fresh Water                :Drilling Fluid Type
DFPH .           7.50000                 :Drilling Fluid pH
MCSS .        Calculated                 :Mudcake Sample Source
MFSS .        Calculated                 :Mud Filtrate Sample Source
FD   .G/C3       1.00000                 :Fluid Density
MSS  .        Active Tank                :Mud Sample Source
OS1  .                                   :Other Services Line 1
OS2  .                                   :Other Services Line 2
OS3  .                                   :Other Services Line 3
OS4  .                                   :Other Services Line 4
OS5  .                                   :Other Services Line 5
R1   .        Tool string run as per tool sketch :Remarks Line 1
R2   .        All Schlumberger depth control procedures followed :Remarks Line 2
R3   .        IDW used as primary depth reference :Remarks Line 3
R4   .        Z Chart used as secondary depth reference :Remarks Line 4
R5   .        Matrix Density zoned as per client request :Remarks Line 5
R6   .        Crew  Max Pace  Tyler Riter  Cody Bruns :Remarks Line 6
R7   .                                   :Remarks Line 7
R8   .                                   :Remarks Line 8
TCS  .        19 00 00                   :Time Circulation Stopped
TLAB .        06 35 50                   :Time Logger At Bottom
NMT  .        NOBARITE                   :HRDD Mud Type for Nuclear Devices
EPD  .C3         5295.000000             :Elevation of Permanent Datum above Mean Sea Level
APD  .F          12.000000               :Elevation of Depth Reference (LMF) above Permanent Datum
#-----------------------------------------------------------------------------
~CURVE INFORMATION
#MNEM.UNIT   API CODE                                  DESCRIPTION
#---- -----  --------                                  -----------------------
DEPT .F                                                :DEPTH (BOREHOLE) {F12.4}
AT10 .OHMM                                             :Array Induction Two Foot Resistivity A10 {F11.4}
AT30 .OHMM                                             :Array Induction Two Foot Resistivity A30 {F11.4}
AT90 .OHMM                                             :Array Induction Two Foot Resistivity A90 {F11.4}
DT   .US/F                                             :Delta-T (also called Slowness or Interval Transit Time) {F11.4}
GR   .GAPI                                             :Gamma Ray {F11.4}
HCAL .IN                                               :HRCC Caliper Calibrated {F11.4}
HDRA .G/C3                                             :Density Standoff Correction {F11.4}
NPHI .CFCF                                             :Thermal Neutron Porosity (original Ratio Method) in Selected Lithology {F11.4}
PEFZ .                                                 :Standard Resolution Formation Photoelectric Factor {F11.4}
RHOZ .G/C3                                             :Standard Resolution Formation Density {F11.4}
SP   .MV                                               :Spontaneous Potential {F11.4}
TNPH .CFCF                                             :Thermal Neutron Porosity (Ratio Method) in Selected Lithology {F11.4}
#-----------------------------------------------------------------------------
# 
#      DEPT        AF10       AF20       AF30       AF60       AF90       AO10       AO20       AO30       AO60       AO90       AT10       AT20       AT30       AT60       AT90     AHFCO60      AHMF      AHORT      AHORX      AHSCA     AHTCO10    AHTCO20    AHTCO30    AHTCO60    AHTCO90     AHTD1      AHTD2      AHTRT      AHTRX       CDF        CFTC       CNTC       CTEM       DCAL       DNPH       DPHZ       DSOZ        DT        ECGR        ED        GDEV        GR        GTEM       HCAL       HDRA       HDRB       HGR        HMIN       HMNO       HNPO       HPRA       HTNP       ITT         ND        NPHI       NPOR       PEFZ    PXND_HILT     RHOZ       RSOZ     RWA_HILT     RXO8       RXOZ        SP        SPAR       SPHI       STIT       TENS       TNPH     HTNP_SAN
#
~A  DEPT AT10 AT30 AT90 DT GR HCAL HDRA NPHI PEFZ RHOZ SP TNPH
# ...
6672.5000 18.1596 16.9676 16.2580 83.5671 190.6488 7.7771 -0.0044 0.2467 5.0281 2.4159 183.5547 0.2271
6673.0000 18.3104 18.5378 17.5564 79.6335 171.2839 7.7771 -0.0066 0.2331 5.1033 2.4203 182.6161 0.2104
6673.5000 18.9698 19.3423 18.5331 77.3613 159.0467 7.7521 -0.0076 0.1983 5.1305 2.4266 182.3672 0.1985
6674.0000 18.1950 18.6811 18.1790 76.6529 156.0807 7.7646 -0.0055 0.1916 5.0538 2.4385 183.1161 0.1759
6674.5000 17.9599 18.1496 17.8294 76.4658 163.9420 7.7521 -0.0040 0.1935 5.0050 2.4392 183.5000 0.1809
6675.0000 18.7154 17.9026 17.1442 79.7672 172.3243 7.7521 -0.0020 0.1980 4.9712 2.4377 183.1016 0.1829
6675.5000 17.6861 16.6535 15.8671 79.7899 177.2491 7.7771 -0.0036 0.2082 5.0672 2.4232 183.4286 0.1870
6676.0000 16.0836 15.2937 14.5050 79.3248 168.6845 7.7521 -0.0036 0.1989 5.0880 2.4293 182.3906 0.1895
6676.5000 15.4908 15.1321 14.1239 78.4689 157.7637 7.7771 -0.0055 0.1903 5.1421 2.4311 180.7500 0.1732
6677.0000 15.2814 15.3247 14.1287 77.9873 157.2735 7.7771 -0.0046 0.1888 5.1185 2.4381 180.6071 0.1708
6677.5000 15.5825 15.0468 13.7105 77.2545 161.6175 7.7771 -0.0037 0.2006 5.1042 2.4374 181.0156 0.1711
6678.0000 16.3336 16.2300 14.8275 77.5709 168.3165 7.7771 -0.0041 0.1913 5.1123 2.4367 180.5703 0.1828
6678.5000 16.3957 15.5117 14.3144 76.2583 151.6748 7.7646 -0.0049 0.1697 5.0855 2.4433 180.5156 0.1684
6679.0000 15.0407 13.6183 12.7641 76.7645 140.4783 7.7771 -0.0056 0.1727 5.0201 2.4517 181.0982 0.1512
6679.5000 12.3665 11.2369 10.6019 76.4544 125.2129 7.7521 -0.0052 0.1896 4.9165 2.4602 182.1094 0.1581
6680.0000 9.7942 9.3806 8.9960 75.5474 110.7738 7.7771 -0.0058 0.1944 4.8880 2.4619 181.7344 0.1677
6680.5000 8.1944 7.9360 7.6720 75.6923 93.1525 7.7771 -0.0060 0.1822 4.9228 2.4614 181.3929 0.1640
6681.0000 7.9487 7.6915 7.4169 73.1856 84.3727 7.7521 -0.0069 0.1781 4.9242 2.4643 182.4063 0.1602
6681.5000 8.3977 7.9463 7.6974 75.1686 98.3228 7.7771 -0.0053 0.1936 4.8280 2.4727 183.7946 0.1732
6682.0000 8.6077 8.0543 7.6797 77.1967 108.7238 7.7521 -0.0063 0.2101 4.7684 2.4711 185.8984 0.1918
6682.5000 8.7385 8.0680 7.6006 79.8880 124.9379 7.7646 -0.0059 0.2206 4.7771 2.4626 185.9375 0.2050
6683.0000 9.0062 8.2288 7.6920 80.0387 127.9972 7.7771 -0.0077 0.2178 4.8619 2.4499 184.6071 0.2029
6683.5000 8.6408 7.9179 7.4731 78.4079 120.2879 7.7646 -0.0033 0.2024 4.8952 2.4484 182.0469 0.1868
6684.0000 8.0527 7.4805 7.1519 76.9700 103.2175 7.7771 -0.0022 0.1859 4.8931 2.4541 180.2891 0.1706
6684.5000 7.5121 6.9777 6.6404 74.0471 84.9844 7.7771 0.0075 0.1749 4.8521 2.4636 178.4219 0.1591
6685.0000 7.4663 6.8833 6.5303 72.7933 88.6251 7.7771 0.0087 0.1683 4.8637 2.4671 178.4844 0.1533
6685.5000 7.7900 7.4632 7.0925 74.0313 103.0035 7.7771 0.0074 0.1835 4.8954 2.4633 180.3929 0.1578
6686.0000 8.6194 8.1496 7.7376 76.7744 129.1595 7.7771 0.0008 0.1979 4.8757 2.4608 183.2344 0.1811
6686.5000 9.6288 8.9422 8.5034 80.2170 155.3768 7.7771 -0.0028 0.2223 4.8336 2.4530 184.9766 0.1960
6687.0000 11.0544 9.8234 9.2229 81.3997 163.4522 7.7771 -0.0019 0.2246 4.8111 2.4494 183.9375 0.2081
6687.5000 12.0745 10.9460 10.3128 78.6575 159.8124 7.7771 -0.0053 0.2130 4.9053 2.4407 181.7031 0.1974
6688.0000 10.9232 10.4667 9.8922 76.2841 134.0236 7.7771 -0.0059 0.1897 4.9239 2.4509 179.2188 0.1738
6688.5000 10.5358 10.0079 9.5228 74.2103 111.9977 7.7771 -0.0064 0.1760 4.9596 2.4567 178.3359 0.1567
6689.0000 10.7503 10.4279 9.9748 71.3104 95.8447 7.7771 -0.0062 0.1665 4.9755 2.4576 178.5268 0.1566
6689.5000 11.3282 10.7357 10.4195 73.5095 98.4142 7.7521 -0.0079 0.1728 5.0370 2.4466 180.0859 0.1590
6690.0000 12.2228 11.6244 10.9571 74.6360 119.7064 7.7771 -0.0088 0.1825 5.0753 2.4361 180.8750 0.1676
6690.5000 12.2702 11.5775 10.9199 76.7874 127.0789 7.7521 -0.0087 0.2009 5.0841 2.4342 180.7143 0.1762
6691.0000 11.6251 10.2570 9.7196 76.8482 116.7694 7.7521 -0.0087 0.1894 5.1390 2.4350 179.6719 0.1805
6691.5000 9.7513 9.1220 8.6914 75.1102 95.6917 7.7771 -0.0049 0.1688 5.0881 2.4584 179.6953 0.1634
6692.0000 8.2262 7.9473 7.5379 74.3334 85.1375 7.7521 -0.0019 0.1650 5.0670 2.4745 180.9732 0.1591
6692.5000 7.4784 7.0271 6.6668 74.1039 91.5926 7.7771 0.0021 0.1882 5.0490 2.4932 180.3594 0.1583
6693.0000 8.4441 7.5715 7.1316 74.4946 89.1758 7.7771 0.0031 0.1978 5.0450 2.4917 176.4375 0.1702
6693.5000 9.0975 8.3088 7.7485 73.6134 78.4076 7.7771 0.0038 0.1906 4.9750 2.4953 173.2143 0.1630
6694.0000 9.3254 8.4666 7.8311 71.6497 67.4861 7.7771 0.0004 0.1657 4.8994 2.4857 171.7734 0.1534
6694.5000 9.0845 8.3138 7.5935 70.1747 61.1227 7.7521 -0.0037 0.1561 4.8742 2.4808 171.8750 0.1423
6695.0000 8.6002 7.9798 7.4582 68.9060 65.0993 7.7646 -0.0082 0.1458 4.9662 2.4620 173.7813 0.1407
6695.5000 8.2434 7.6647 7.1924 70.9012 80.5790 7.7521 -0.0072 0.1593 4.9577 2.4586 176.9911 0.1417
6696.0000 8.2550 7.6952 7.3251 74.0667 95.9975 7.7771 -0.0054 0.1862 4.9277 2.4574 180.5391 0.1608
6696.5000 8.4556 7.9098 7.5065 75.0652 97.8940 7.7771 -0.0042 0.1978 4.8626 2.4687 181.7109 0.1766
6697.0000 8.5111 8.0460 7.6530 76.0051 89.3285 7.7771 -0.0054 0.1916 4.8943 2.4738 181.8750 0.1742
6697.5000 8.5383 8.0539 7.6733 73.8628 79.4777 7.7771 -0.0051 0.1714 4.9165 2.4802 182.8516 0.1629
6698.0000 8.7124 8.1621 7.7647 73.5102 83.6387 7.7771 -0.0028 0.1707 4.8845 2.4853 182.9464 0.1568
6698.5000 8.8434 8.3781 7.9601 73.8007 85.2904 7.7771 -0.0011 0.1670 4.8381 2.4874 182.7266 0.1560
6699.0000 8.8739 8.4919 8.1064 73.4298 86.5754 7.7771 -0.0018 0.1638 4.8394 2.4819 182.8125 0.1530
6699.5000 9.4174 8.9716 8.4864 74.8548 92.2959 7.7771 -0.0012 0.1647 4.9214 2.4667 184.0938 0.1530
6700.0000 9.8998 9.6483 9.1190 75.9162 100.4333 7.7771 0.0056 0.1710 4.9555 2.4571 186.1071 0.1574
6700.5000 10.4953 10.0298 9.5913 76.9021 108.3568 7.7771 0.0145 0.1865 4.9684 2.4528 186.3906 0.1623
6701.0000 10.6458 10.2027 9.6163 76.1921 102.8807 7.7521 0.0206 0.1862 4.9384 2.4587 185.9688 0.1680
6701.5000 10.8217 10.4341 9.7895 74.8661 95.8139 7.7521 0.0197 0.1765 4.9578 2.4584 186.0268 0.1628
6702.0000 11.0106 10.6433 10.1085 75.9100 96.4557 7.7771 0.0169 0.1772 4.9610 2.4569 188.2969 0.1545
6702.5000 10.3713 10.5274 10.0493 75.9211 107.2860 7.7771 0.0080 0.1904 4.9198 2.4586 191.4141 0.1647
6703.0000 9.4250 9.4258 8.9709 78.0637 115.5760 7.7771 0.0025 0.1980 4.7787 2.4751 193.4821 0.1820
6703.5000 8.5740 8.3046 8.0308 80.0460 120.0734 7.7771 -0.0042 0.2112 4.6854 2.4841 195.6172 0.1913
6704.0000 8.5431 8.0591 7.7160 79.3756 118.2990 7.7771 -0.0041 0.2043 4.6285 2.4883 196.5625 0.2005
6704.5000 8.8089 8.5065 8.0897 79.1730 116.8615 7.7771 -0.0066 0.2073 4.7062 2.4800 196.6429 0.1853
6705.0000 9.1910 8.9039 8.3306 78.0436 107.7146 7.7771 -0.0066 0.1861 4.7457 2.4870 196.8672 0.1757
6705.5000 8.6451 8.4469 7.9094 77.5445 99.4240 7.7771 0.0003 0.1908 4.7797 2.4977 198.0234 0.1631
6706.0000 8.1335 7.8513 7.4359 76.4986 93.4282 7.7771 0.0071 0.1995 4.7782 2.5076 198.8750 0.1726
6706.5000 7.8006 7.5884 7.1490 77.4691 98.8120 7.7521 0.0069 0.1930 4.7507 2.5116 199.1172 0.1841
6707.0000 7.5253 7.2237 6.8409 78.5422 104.5941 7.7771 0.0015 0.1916 4.6217 2.5211 199.7500 0.1805
6707.5000 7.3111 7.0013 6.5925 80.0588 113.0067 7.7771 -0.0020 0.2000 4.5612 2.5144 200.3304 0.1821
6708.0000 8.2712 7.7282 7.2320 81.6911 123.1941 7.7521 0.0010 0.2224 4.5402 2.5083 200.6094 0.1883
6708.5000 8.7118 8.3638 7.6979 80.5687 119.7674 7.7771 -0.0010 0.2169 4.6299 2.5014 200.2109 0.1948
6709.0000 9.1538 8.8406 8.2088 78.7187 112.1806 7.7771 -0.0018 0.1944 4.5963 2.5247 199.3594 0.1861
6709.5000 9.4959 8.9104 8.3170 75.9538 89.6953 7.7771 -0.0027 0.1719 4.5594 2.5438 198.6094 0.1660
6710.0000 9.5963 8.9133 8.3440 75.5756 85.6268 7.7521 0.0003 0.1600 4.4848 2.5571 198.8839 0.1550
6710.5000 8.6961 8.4756 7.9576 77.1758 90.0320 7.7771 0.0032 0.1681 4.4830 2.5645 199.8828 0.1563
6711.0000 8.0442 7.6324 7.2386 79.0737 100.7396 7.7896 0.0051 0.1787 4.4427 2.5708 201.4688 0.1632
6711.5000 7.7086 7.5014 7.1266 81.3128 111.2329 7.7521 0.0039 0.2060 4.4009 2.5648 201.9554 0.1712
6712.0000 8.0562 7.6930 7.2759 80.9394 115.8520 7.7896 0.0005 0.2030 4.3383 2.5502 202.0469 0.1871
