~VERSION INFORMATION
VERS.           2.0   :CWLS Log ASCII Standard - VERSION 2.0
WRAP.           NO    :One Line per depth step
PROD.  Schlumberger   :LAS Producer
PROG.  DLIS to ASCII 19C1-222                          :LAS Program name and version
CREA.        2013/09/09 02:34                          :LAS Creation date {YYYY/MM/DD hh:mm}
DLIS_CREA.  2013-Sep-09 02:29                          :DLIS Creation date and time {YYYY-MMM-DD hh:mm}
SOURCE.     049-021-21038_Marquardt 44-31_Run_PEX-AIT_Mainpass.dlis  :DLIS File Name
FILE-ID.     MaxWell_4Dlis                             :File Identification Number
#--------------------------------------------------
~WELL INFORMATION
#MNEM.UNIT      DATA             DESCRIPTION
#---- ------ --------------   -----------------------------
STRT .F      952.5           :START DEPTH        # original; data subset to 5500-8000
STOP .F      7703.0          :STOP DEPTH        # original; data subset to 5500-8000
STEP .F       0.5            :STEP     
NULL .          -999.25      :NULL VALUE
COMP .        Bear Oil & Gas, Inc                      :COMPANY
WELL .        Marquardt 44-31                          :WELL
FLD  .        Wildcat                                  :FIELD
LOC  .        Lat/Long : 41.3038/-104.1202             :LOCATION
CNTY .        Laramie                                  :COUNTY
STAT .        Wyoming                                  :STATE
CTRY .        USA                                      :COUNTRY
API  .        049-021-21038                            :API NUMBER
UWI  .        049021210380000                          :UNIQUE WELL ID
DATE .        08-Sep-2013                              :LOG DATE {DD-MMM-YYYY}
SRVC .        Schlumberger                             :SERVICE COMPANY
LATI .DEG     41.303800 degrees                        :LATITUDE
LONG .DEG     -104.12020 degrees                       :LONGITUDE
GDAT .                                                 :GeoDetic Datum
SECT .        31                                       :Section
RANG .        60W                                      :Range
TOWN .        16N                                      :Township
#-----------------------------------------------------------------------------
~PARAMETER INFORMATION
#MNEM.UNIT    VALUE                      DESCRIPTION
#---- -----   --------------------       ------------------------
CN   .        Bear Oil & Gas  Inc        :Company Name
WN   .        Marquardt 44-31            :Well Name
FN   .        Wildcat                    :Field Name
FL   .        Lat/Long   41.3038/-104.1202 :Field Location
FL1  .        SHL   766' FSL X 245' FEL SESE :Field Location, Line 1
COUN .        Laramie                    :County or Parish
STAT .        Wyoming                    :State or Province
NATI .        USA                        :Nation
DATE .        08-Sep-2013                :Tools Above Rotary Table Date
APIN .        049-021-21038              :API Well Number
SECT .        31                         :Section
TOWN .        16N                        :Township
RANG .        60W                        :Range
DMF  .        KB                         :Drilling Measured From (Name of Drilling Elevation Reference)
LMF  .        KB                         :Logging Measured From (Name of Logging Elevation Reference)
PDAT .        GL                         :Permanent Datum
ENGI .        Arvin Shi                  :Engineer s Name
WITN .        Terry Eittreim             :Witness s Name
LATI .        41.303800 degrees          :Latitude
LONG .        -104.12020 degrees         :Longitude
LUL  .        Fort Morgan                :Logging Unit Location
LUN  .        3030                       :Logging Unit Number
RUN  .        Run 1                      :Run Number
SON  .        C6VJ-00075                 :Service Order Number
BHT  .DEGF     184.00000                 :Bottom Hole Temperature
BS   .IN         7.87500                 :Bit Size
MDEN .G/C3       2.65000                 :Matrix Density for Density Porosity
DFD  .LB/G       9.00000                 :Drilling Fluid Density
DFV  .S         80.00000                 :Drilling Fluid Viscosity
DFL  .C3      -999.25000                 :Drilling Fluid Loss
RMFS .OHMM       0.80250                 :Resistivity of Mud Filtrate Sample
EKB  .F       5298.00000                 :Elevation of Kelly Bushing
EGL  .F       5286.00000                 :Elevation of Ground Level
BLI  .F       7686.00000                 :Bottom Log Interval
BSAL .PPM     4641.08936                 :Borehole Salinity
FLEV .F          8.00000                 :Depth of Drilling Fluid Level to LMF (Log Measured From)
MCST .DEGF      84.00000                 :Mudcake Sample Temperature
MFST .DEGF      84.00000                 :Mud Filtrate Sample Temperature
MRT  .DEGF     184.00000                 :Maximum Recorded Temperature
MST  .DEGF      84.00000                 :Mud Sample Temperature
RMCS .OHMM       1.33750                 :Resistivity of Mud Cake Sample
RMS  .OHMM       1.07000                 :Resistivity of Mud Sample
RW   .OHMM       1.00000                 :Connate Water Resistivity
TDD  .F       7680.00000                 :Driller Total Depth
TDL  .F       7686.00000                 :Logger Total Depth
TLI  .F       1023.00000                 :Top Log Interval
HIDE .        Wildcat                    :Header Identifier
MATR .        SAND                       :Rock Matrix for Neutron Porosity Corrections
FNUM .           1.00000                 :F-Numerator for Formation Factor Formula
FEXP .           2.00000                 :Exponent "m" for Formation Factor Formula
DFT  .        Fresh Water                :Drilling Fluid Type
DFPH .        -999.25000                 :Drilling Fluid pH
MCSS .        Calculated                 :Mudcake Sample Source
MFSS .        Calculated                 :Mud Filtrate Sample Source
FD   .G/C3       1.00000                 :Fluid Density
MSS  .        Flowline                   :Mud Sample Source
OS1  .                                   :Other Services Line 1
OS2  .                                   :Other Services Line 2
OS3  .                                   :Other Services Line 3
OS4  .                                   :Other Services Line 4
OS5  .                                   :Other Services Line 5
R1   .                                   :Remarks Line 1
R2   .                                   :Remarks Line 2
R3   .                                   :Remarks Line 3
R4   .                                   :Remarks Line 4
R5   .                                   :Remarks Line 5
R6   .                                   :Remarks Line 6
R7   .                                   :Remarks Line 7
R8   .                                   :Remarks Line 8
TCS  .        15 00 00                   :Time Circulation Stopped
TLAB .        00 30 46                   :Time Logger At Bottom
NMT  .        NOBARITE                   :HRDD Mud Type for Nuclear Devices
EPD  .C3         5286.000000             :Elevation of Permanent Datum above Mean Sea Level
APD  .F          12.000000               :Elevation of Depth Reference (LMF) above Permanent Datum
#-----------------------------------------------------------------------------
~CURVE INFORMATION
#MNEM.UNIT   API CODE                                  DESCRIPTION
#---- -----  --------                                  -----------------------
DEPT .F                                                :DEPTH (BOREHOLE) {F10.1}
AT10 .OHMM                                             :Array Induction Two Foot Resistivity A10 {F11.4}
AT30 .OHMM                                             :Array Induction Two Foot Resistivity A30 {F11.4}
AT90 .OHMM                                             :Array Induction Two Foot Resistivity A90 {F11.4}
GR   .GAPI                                             :Gamma Ray {F11.4}
HCAL .IN                                               :HRCC Caliper Calibrated {F11.4}
HDRA .G/C3                                             :Density Standoff Correction {F11.4}
NPHI .CFCF                                             :Thermal Neutron Porosity (original Ratio Method) in Selected Lithology {F11.4}
PEFZ .                                                 :Standard Resolution Formation Photoelectric Factor {F11.4}
RHOZ .G/C3                                             :Standard Resolution Formation Density {F11.4}
SP   .MV                                               :Spontaneous Potential {F11.4}
TNPH .CFCF                                             :Thermal Neutron Porosity (Ratio Method) in Selected Lithology {F11.4}
#-----------------------------------------------------------------------------
# 
#     DEPT       AF10       AF20       AF30       AF60       AF90       AO10       AO20       AO30       AO60       AO90       AT10       AT20       AT30       AT60       AT90     AHFCO60      AHMF      AHORT      AHORX      AHSCA     AHTCO10    AHTCO20    AHTCO30    AHTCO60    AHTCO90     AHTD1      AHTD2      AHTRT      AHTRX       CDF        CFTC       CNTC       CTEM       DCAL       DNPH       DPHZ       DSOZ       ECGR        ED        GDEV        GR        GTEM       HCAL       HDRA       HDRB       HGR        HMIN       HMNO       HNPO       HPRA       HTNP        ND        NPHI       NPOR       PEFZ    PXND_HILT     RHOZ       RSOZ     RWA_HILT     RXO8       RXOZ        SP        SPAR       STIT       TENS       TNPH     HTNP_SAN
#
~A  DEPT AT10 AT30 AT90 GR HCAL HDRA NPHI PEFZ RHOZ SP TNPH
# ...
6496.0 2.1924 2.0774 1.9937 158.5815 7.7796 0.0130 0.3203 3.0824 2.4532 -477.3125 0.2981
6496.5 2.2031 2.0840 2.0053 164.5821 7.8241 0.0009 0.3267 3.1372 2.4680 -477.0938 0.3048
6497.0 2.2021 2.0810 2.0070 157.7888 7.7796 0.0026 0.3222 3.3062 2.5079 -476.6696 0.3190
6497.5 2.1960 2.1115 2.0373 160.5628 7.7796 0.0176 0.3525 3.4814 2.5446 -476.7578 0.3150
6498.0 2.1178 2.0135 1.9628 158.5246 7.8018 0.0337 0.3494 3.4914 2.5481 -476.9375 0.3459
6498.5 2.0279 1.9304 1.8785 168.2631 7.8241 0.0393 0.3591 3.3117 2.5266 -477.2344 0.3324
6499.0 2.1570 2.0132 1.9513 163.7051 7.7796 0.0240 0.3396 3.1057 2.4864 -477.3214 0.3457
6499.5 2.1972 2.0884 2.0129 167.7821 7.7796 0.0173 0.3316 3.1012 2.4825 -477.4141 0.3303
6500.0 2.2510 2.1211 2.0463 170.9236 7.8018 0.0202 0.3142 3.2323 2.4883 -477.4107 0.3239
6500.5 2.2503 2.1421 2.0701 177.5191 7.8018 0.0363 0.3388 3.3962 2.5057 -477.3906 0.3082
6501.0 2.1940 2.0825 2.0129 180.5765 7.8018 0.0279 0.3664 3.3920 2.4849 -477.2857 0.3222
6501.5 2.1478 2.0360 1.9660 188.7576 7.7573 0.0152 0.3650 3.3747 2.4735 -476.9375 0.3418
6502.0 2.1601 2.0456 1.9746 199.2035 7.7907 0.0007 0.3591 3.3786 2.4764 -476.6719 0.3438
6502.5 2.1728 2.0595 1.9898 203.6198 7.7796 0.0021 0.3511 3.4502 2.4918 -476.7679 0.3500
6503.0 2.1895 2.0815 2.0028 195.2406 7.8018 0.0046 0.3429 3.4572 2.4883 -476.8661 0.3524
6503.5 2.1975 2.0801 2.0030 196.1182 7.8018 0.0058 0.3156 3.4305 2.4760 -476.7266 0.3367
6504.0 2.2024 2.0732 1.9933 196.2594 7.7573 0.0026 0.3249 3.4033 2.4596 -476.7321 0.2996
6504.5 2.2983 2.1441 2.0750 200.3352 7.7573 0.0005 0.3427 3.3856 2.4628 -477.0938 0.3063
6505.0 2.3680 2.2252 2.1506 196.9390 7.7796 -0.0023 0.3502 3.3972 2.4811 -477.5234 0.3129
6505.5 2.4406 2.2411 2.1708 191.5882 7.7796 -0.0005 0.3288 3.4722 2.5187 -478.1964 0.3279
6506.0 2.4001 2.2679 2.2034 191.5888 7.7685 0.0126 0.3509 3.6087 2.5590 -478.3125 0.3208
6506.5 2.3052 2.1739 2.1293 189.5497 7.7573 0.0158 0.3534 3.6513 2.5445 -477.3750 0.3433
6507.0 2.2414 2.1195 2.0632 191.1355 7.7685 0.0152 0.3737 3.5451 2.5157 -477.1641 0.3350
6507.5 2.2827 2.1820 2.1267 196.7690 7.7796 0.0045 0.3410 3.3770 2.4741 -476.9732 0.3546
6508.0 2.3638 2.2262 2.1722 199.9391 7.7573 0.0013 0.3330 3.3293 2.4622 -476.5313 0.3291
6508.5 2.4533 2.2928 2.2350 212.4223 7.7796 -0.0015 0.3326 3.4266 2.4543 -476.1786 0.3275
6509.0 2.5583 2.3975 2.3113 218.5648 7.7907 -0.0055 0.3324 3.5842 2.4607 -476.0859 0.3196
6509.5 2.6023 2.4329 2.3681 229.8605 7.8018 -0.0082 0.3373 3.7458 2.4751 -475.8661 0.3224
6510.0 2.5903 2.4404 2.3759 231.4185 7.7796 -0.0069 0.3374 3.8592 2.4935 -475.7813 0.3271
6510.5 2.5719 2.4350 2.3765 228.4465 7.7796 -0.0070 0.3370 3.9216 2.4893 -475.5089 0.3313
6511.0 2.5504 2.4068 2.3594 234.3625 7.8018 -0.0071 0.3499 3.8963 2.4717 -475.5703 0.3273
6511.5 2.4962 2.3764 2.3313 241.5239 7.7573 -0.0043 0.3452 3.8047 2.4683 -475.6518 0.3423
6512.0 2.4459 2.3167 2.2798 255.5922 7.7685 -0.0030 0.3550 3.7571 2.4618 -475.8203 0.3359
6512.5 2.4661 2.3328 2.2937 253.0448 7.7796 0.0028 0.3586 3.8025 2.4612 -475.8594 0.3511
6513.0 2.6557 2.4761 2.4362 256.3001 7.7351 0.0024 0.3641 3.9433 2.4474 -475.4732 0.3494
6513.5 2.8001 2.6505 2.5945 262.0466 7.8018 0.0002 0.3690 4.0695 2.4495 -475.2321 0.3574
6514.0 3.0248 2.8494 2.8001 273.4270 7.8241 -0.0057 0.3733 4.1613 2.4514 -475.4922 0.3472
6514.5 3.0239 2.8944 2.8541 286.8161 7.7796 -0.0096 0.3801 4.2244 2.4437 -475.5982 0.3556
6515.0 2.9926 2.8454 2.8238 285.1469 7.8241 -0.0093 0.4108 4.2037 2.4421 -475.7266 0.3694
6515.5 3.0249 2.8556 2.8351 293.3833 7.8018 -0.0071 0.4175 4.1195 2.4492 -475.7344 0.4078
6516.0 3.0768 2.9225 2.9037 291.5437 7.8018 -0.0045 0.4119 4.0052 2.4596 -475.6964 0.4162
6516.5 3.0763 2.9732 2.9492 290.4395 7.7796 -0.0042 0.4030 3.9830 2.4467 -475.8984 0.4064
6517.0 2.9471 2.8405 2.8155 284.6927 7.7796 -0.0061 0.3766 3.9930 2.4246 -475.9554 0.3947
6517.5 2.7590 2.6676 2.6457 291.6850 7.7573 -0.0081 0.3888 4.0343 2.4024 -475.8359 0.3673
6518.0 3.0879 2.8496 2.8250 310.9071 7.7796 -0.0077 0.3914 4.0843 2.3921 -475.6250 0.3832
6518.5 3.3103 3.2038 3.1645 333.1008 7.7796 -0.0053 0.4093 4.1277 2.3939 -475.3359 0.3796
6519.0 3.2980 3.2476 3.2021 339.2426 7.7796 -0.0039 0.4077 4.1893 2.3980 -475.4286 0.4031
6519.5 3.2584 3.1426 3.1086 336.2974 7.7573 -0.0046 0.4006 4.2405 2.4028 -475.3359 0.4009
6520.0 3.3552 3.2155 3.2121 328.3712 7.8018 -0.0077 0.4051 4.3351 2.3974 -475.4196 0.3975
6520.5 3.4736 3.3162 3.3076 324.2950 7.8018 -0.0055 0.4153 4.3809 2.3947 -475.4531 0.3954
6521.0 3.4448 3.3513 3.3268 314.1617 7.7796 -0.0007 0.4273 4.3475 2.3944 -475.3036 0.3890
6521.5 3.2801 3.1936 3.1845 302.0742 7.7796 0.0007 0.4628 4.2678 2.3909 -475.3125 0.4205
6522.0 3.0840 2.9852 2.9882 296.1872 7.8018 0.0002 0.4516 4.1883 2.3824 -475.5357 0.4733
6522.5 3.1302 3.0137 2.9902 293.4121 7.7685 -0.0050 0.4399 4.1423 2.3701 -475.6953 0.4605
6523.0 3.1404 3.0763 3.0422 282.1180 7.7573 -0.0066 0.4227 4.0839 2.3546 -475.9375 0.4496
6523.5 2.9270 2.8851 2.8367 252.6768 7.7907 -0.0101 0.4183 3.9672 2.3337 -476.2031 0.4212
6524.0 2.6412 2.5723 2.5332 231.6725 7.8018 -0.0024 0.4004 3.7617 2.3352 -476.3571 0.4089
6524.5 2.2978 2.2089 2.1755 217.2071 7.7907 0.0040 0.3691 3.5553 2.3423 -476.4219 0.3857
6525.0 2.5553 2.3597 2.3084 217.8867 7.8018 0.0058 0.3770 3.4563 2.3529 -476.1161 0.3612
6525.5 2.6306 2.5718 2.4477 210.5833 7.8018 -0.0013 0.3645 3.4773 2.3469 -475.9531 0.3652
6526.0 2.9232 2.6762 2.5728 206.0253 7.7796 -0.0049 0.3710 3.5022 2.3456 -475.9063 0.3413
6526.5 2.5615 2.5094 2.4192 203.5344 7.7796 -0.0042 0.3696 3.4684 2.3370 -476.0982 0.3531
6527.0 2.1440 2.0178 1.9839 206.6764 7.7351 0.0007 0.3967 3.4013 2.3268 -476.3839 0.3709
6527.5 1.8826 1.8084 1.7583 202.8835 7.7351 -0.0008 0.4363 3.4003 2.2996 -476.0234 0.4060
6528.0 2.5420 2.2971 2.2246 191.3905 7.7573 -0.0037 0.4370 3.4886 2.2865 -475.7411 0.4161
6528.5 3.0157 2.8522 2.7395 188.9272 7.7796 -0.0100 0.4457 3.6254 2.2787 -475.4453 0.4114
6529.0 3.4539 3.2089 3.0602 196.2875 7.7796 -0.0145 0.4377 3.7757 2.2840 -475.6875 0.4409
6529.5 3.6504 3.3754 3.2385 209.8186 7.7796 -0.0146 0.4298 3.8239 2.3076 -475.7109 0.4365
6530.0 3.3856 3.2394 3.0865 215.0565 7.7796 -0.0142 0.4099 3.8383 2.3276 -476.0313 0.4197
6530.5 3.0328 2.8842 2.7804 213.1312 7.7796 -0.0114 0.3612 3.7512 2.3538 -476.3393 0.3926
6531.0 2.8009 2.7034 2.5769 197.4200 7.7796 -0.0117 0.3504 3.6755 2.3572 -476.2734 0.3533
6531.5 2.6100 2.5569 2.4381 185.1623 7.7796 -0.0108 0.3480 3.5540 2.3551 -476.5179 0.3455
6532.0 2.2353 2.2011 2.0937 178.3679 7.7573 -0.0095 0.3668 3.4253 2.3463 -476.9453 0.3401
6532.5 2.1482 2.0233 1.9124 172.8204 7.8018 -0.0077 0.3681 3.2703 2.3405 -476.5804 0.3429
6533.0 2.3856 2.3220 2.1448 167.0452 7.7796 -0.0072 0.3699 3.1291 2.3389 -476.5625 0.3361
6533.5 2.3631 2.3141 2.1372 157.0810 7.7573 -0.0048 0.3749 3.0021 2.3450 -476.4018 0.3522
6534.0 2.2808 2.1816 2.0443 164.2140 7.8018 -0.0021 0.3876 2.9268 2.3547 -476.4141 0.3739
6534.5 2.3946 2.3366 2.1747 169.9891 7.8686 0.0006 0.3883 2.9385 2.3661 -476.1071 0.3866
6535.0 2.7614 2.6139 2.3903 174.2074 7.7573 -0.0026 0.3713 3.0656 2.3665 -475.8984 0.3695
6535.5 3.2342 3.2793 2.9260 177.4632 7.7796 -0.0066 0.3616 3.2177 2.3635 -475.9375 0.3576
6536.0 3.2199 3.2260 3.0219 179.6146 7.7573 -0.0084 0.3576 3.2521 2.3569 -475.9531 0.3500
6536.5 2.4620 2.5890 2.5156 181.0581 7.7796 -0.0031 0.3632 3.1335 2.3626 -476.3036 0.3492
6537.0 2.1000 2.0048 1.9865 170.4144 7.7907 0.0017 0.3782 2.9641 2.3710 -476.3047 0.3431
6537.5 2.3023 2.1206 2.0979 157.3355 7.8241 0.0013 0.3655 2.9010 2.3740 -475.8214 0.3506
6538.0 2.4864 2.4830 2.4089 140.5778 7.7907 -0.0015 0.3718 2.9499 2.3731 -475.9609 0.3423
6538.5 2.8400 2.2202 2.1436 132.1132 7.7351 0.0023 0.3273 3.0046 2.3579 -476.1696 0.3614
6539.0 1.6588 1.5067 1.4220 140.3226 7.7462 0.0060 0.3622 2.9313 2.3085 -476.6875 0.3423
6539.5 0.9084 0.8532 0.8522 159.9959 7.7128 0.0087 0.3931 2.8005 2.2569 -477.4732 0.3828
6540.0 0.6892 0.7014 0.6899 170.0454 7.7573 0.0035 0.4140 2.7620 2.2391 -477.2578 0.3907
6540.5 1.1111 1.0600 1.0160 182.8411 7.7128 0.0022 0.3789 2.9915 2.2857 -476.9375 0.3855
