~VERSION INFORMATION
VERS.           1.2   :CWLS Log ASCII Standard - VERSION 1.2
WRAP.           NO    :One Line per depth step
PROD.  Schlumberger   :LAS Producer
PROG.  DLIS to ASCII 17C0-152                          :LAS Program name and version
CREA.        2013/10/21 20:50                          :LAS Creation date {YYYY/MM/DD hh:mm}
DLIS_CREA.  2013-Oct-21 08:39                          :DLIS Creation date and time {YYYY-MMM-DD hh:mm}
SOURCE.     9ec8b34d-aca5-43ef-91a8-8c41069c79cd       :DLIS File Name
#--------------------------------------------------
~WELL INFORMATION
#MNEM.UNIT      DATA             DESCRIPTION
#---- ------ --------------   -----------------------------
STRT .F      901.5000        :START DEPTH        # original; data subset to 5500-8000
STOP .F      7746.5000       :STOP DEPTH        # original; data subset to 5500-8000
STEP .F       0.5000         :STEP       
NULL .          -999.25      :NULL VALUE
COMP .                 COMPANY:  Bear Oil and Gas, Inc.             
WELL .                    WELL:  McGahan Farms 32 31                
FLD  .                   FIELD:  Wildcat                            
LOC  .                LOCATION:  SHL: SWNE 2563' FNL & 1423' FEL    
CNTY .                  COUNTY:  Laramie                            
STAT .                   STATE:  Wyoming                            
CTRY .                 COUNTRY:  United States                      
SRVC .         SERVICE COMPANY:  Schlumberger                       
LATI .DEG             LATITUDE:  41.309490 degrees                  
LONG .DEG            LONGITUDE:  -104.12429 degrees                 
API  .              API NUMBER:  49-021-21045                       
DATE .                LOG DATE:  21-Oct-2013
UWI  .          UNIQUE WELL ID:  49021210450000                     
#-----------------------------------------------------------------------------
~PARAMETER INFORMATION
#MNEM.UNIT    VALUE                      DESCRIPTION
#---- -----   --------------------       ------------------------
CN   .        Bear Oil and Gas  Inc.     :Company Name
WN   .        McGahan Farms 32 31        :Well Name
FN   .        Wildcat                    :Field Name
FL   .        SHL  SWNE 2563' FNL & 1423' FEL :Field Location
FL1  .        Section 31  Township 16N  Range 60W :Field Location, Line 1
COUN .        Laramie                    :County or Parish
STAT .        Wyoming                    :State or Province
NATI .        United States              :Nation
DATE .        21-Oct-2013                :Tools Above Rotary Table Date
APIN .        49-021-21045               :API Well Number
SECT .        31                         :Section
TOWN .        16N                        :Township
RANG .        60W                        :Range
DMF  .        KB                         :Drilling Measured From (Name of Drilling Elevation Reference)
LMF  .        KB                         :Logging Measured From (Name of Logging Elevation Reference)
PDAT .        GL                         :Permanent Datum
ENGI .        Max Pace                   :Engineer s Name
WITN .        Terry                      :Witness s Name
LATI .        41.309490 degrees          :Latitude
LONG .        -104.12429 degrees         :Longitude
LUL  .        Fort Morgan  CO            :Logging Unit Location
LUN  .        3022                       :Logging Unit Number
RUN  .        Run 1                      :Run Number
SON  .        CA0R-00056                 :Service Order Number
BHT  .DEGF     166.00000                 :Bottom Hole Temperature
BS   .IN         7.87500                 :Bit Size
MDEN .G/C3       2.65000                 :Matrix Density for Density Porosity
DFD  .LB/G       9.10000                 :Drilling Fluid Density
DFV  .S         63.00000                 :Drilling Fluid Viscosity
DFL  .C3         8.80000                 :Drilling Fluid Loss
RMFS .OHMM       1.24500                 :Resistivity of Mud Filtrate Sample
EKB  .F       5307.00000                 :Elevation of Kelly Bushing
EGL  .F       5295.00000                 :Elevation of Ground Level
BLI  .F       7730.00000                 :Bottom Log Interval
BSAL .PPM        0.00000                 :Borehole Salinity
FLEV .F          8.00000                 :Depth of Drilling Fluid Level to LMF (Log Measured From)
MCST .DEGF      61.00000                 :Mudcake Sample Temperature
MFST .DEGF      61.00000                 :Mud Filtrate Sample Temperature
MRT  .DEGF     166.00000                 :Maximum Recorded Temperature
MST  .DEGF      61.00000                 :Mud Sample Temperature
RMCS .OHMM       2.07500                 :Resistivity of Mud Cake Sample
RMS  .OHMM       1.66000                 :Resistivity of Mud Sample
RW   .OHMM       1.00000                 :Connate Water Resistivity
TDD  .F       7719.99951                 :Driller Total Depth
TDL  .F       7730.00000                 :Logger Total Depth
TLI  .F       1023.75000                 :Top Log Interval
HIDE .        Wildcat                    :Header Identifier
MATR .        SAND                       :Rock Matrix for Neutron Porosity Corrections
FNUM .           1.00000                 :F-Numerator for Formation Factor Formula
FEXP .           2.00000                 :Exponent "m" for Formation Factor Formula
DFT  .        Fresh Water                :Drilling Fluid Type
DFPH .           7.50000                 :Drilling Fluid pH
MCSS .        Calculated                 :Mudcake Sample Source
MFSS .        Calculated                 :Mud Filtrate Sample Source
FD   .G/C3       1.00000                 :Fluid Density
MSS  .        Active Tank                :Mud Sample Source
OS1  .                                   :Other Services Line 1
OS2  .                                   :Other Services Line 2
OS3  .                                   :Other Services Line 3
OS4  .                                   :Other Services Line 4
OS5  .                                   :Other Services Line 5
R1   .        Tool string run as per tool sketch :Remarks Line 1
R2   .        All Schlumberger depth control procedures followed :Remarks Line 2
R3   .        IDW used as primary depth reference :Remarks Line 3
R4   .        Z Chart used as secondary depth reference :Remarks Line 4
R5   .        Matrix Density zoned as per client request :Remarks Line 5
R6   .        Crew  Max Pace  Tyler Riter  Cody Bruns :Remarks Line 6
R7   .                                   :Remarks Line 7
R8   .                                   :Remarks Line 8
TCS  .        19 00 00                   :Time Circulation Stopped
TLAB .        06 35 50                   :Time Logger At Bottom
NMT  .        NOBARITE                   :HRDD Mud Type for Nuclear Devices
EPD  .C3         5295.000000             :Elevation of Permanent Datum above Mean Sea Level
APD  .F          12.000000               :Elevation of Depth Reference (LMF) above Permanent Datum
#-----------------------------------------------------------------------------
~CURVE INFORMATION
#MNEM.UNIT   API CODE                                  DESCRIPTION
#---- -----  --------                                  -----------------------
DEPT .F                                                :DEPTH (BOREHOLE) {F12.4}
AT10 .OHMM                                             :Array Induction Two Foot Resistivity A10 {F11.4}
AT30 .OHMM                                             :Array Induction Two Foot Resistivity A30 {F11.4}
AT90 .OHMM                                             :Array Induction Two Foot Resistivity A90 {F11.4}
DT   .US/F                                             :Delta-T (also called Slowness or Interval Transit Time) {F11.4}
GR   .GAPI                                             :Gamma Ray {F11.4}
HCAL .IN                                               :HRCC Caliper Calibrated {F11.4}
HDRA .G/C3                                             :Density Standoff Correction {F11.4}
NPHI .CFCF                                             :Thermal Neutron Porosity (original Ratio Method) in Selected Lithology {F11.4}
PEFZ .                                                 :Standard Resolution Formation Photoelectric Factor {F11.4}
RHOZ .G/C3                                             :Standard Resolution Formation Density {F11.4}
SP   .MV                                               :Spontaneous Potential {F11.4}
TNPH .CFCF                                             :Thermal Neutron Porosity (Ratio Method) in Selected Lithology {F11.4}
#-----------------------------------------------------------------------------
# 
#      DEPT        AF10       AF20       AF30       AF60       AF90       AO10       AO20       AO30       AO60       AO90       AT10       AT20       AT30       AT60       AT90     AHFCO60      AHMF      AHORT      AHORX      AHSCA     AHTCO10    AHTCO20    AHTCO30    AHTCO60    AHTCO90     AHTD1      AHTD2      AHTRT      AHTRX       CDF        CFTC       CNTC       CTEM       DCAL       DNPH       DPHZ       DSOZ        DT        ECGR        ED        GDEV        GR        GTEM       HCAL       HDRA       HDRB       HGR        HMIN       HMNO       HNPO       HPRA       HTNP       ITT         ND        NPHI       NPOR       PEFZ    PXND_HILT     RHOZ       RSOZ     RWA_HILT     RXO8       RXOZ        SP        SPAR       SPHI       STIT       TENS       TNPH     HTNP_SAN
#
~A  DEPT AT10 AT30 AT90 DT GR HCAL HDRA NPHI PEFZ RHOZ SP TNPH
# ...
5662.0000 2.2140 2.1447 2.0868 93.7228 112.3336 7.9770 0.0064 0.3315 2.9380 2.4868 180.8125 0.3065
5662.5000 2.1892 2.1232 2.0777 94.0655 113.4753 8.0020 0.0039 0.3299 2.9027 2.4861 180.5938 0.3179
5663.0000 2.1503 2.1011 2.0642 94.4196 112.2520 7.9270 0.0041 0.3189 2.9212 2.4939 180.5089 0.3204
5663.5000 2.1090 2.0801 2.0572 94.7773 112.7412 7.9520 0.0142 0.3325 2.9655 2.4858 180.5000 0.3173
5664.0000 2.0697 2.0339 2.0107 95.3156 107.9281 8.0270 0.0311 0.3670 3.0218 2.4830 180.6339 0.3348
5664.5000 2.0685 2.0256 2.0068 94.8960 115.0254 7.9770 0.0409 0.3662 3.0543 2.4825 180.5714 0.3545
5665.0000 2.1257 2.0799 2.0493 94.4252 113.0682 8.0145 0.0387 0.3373 3.0798 2.4979 180.4688 0.3387
5665.5000 2.2074 2.1542 2.1353 94.2263 114.0472 7.9270 0.0322 0.3284 3.0913 2.5071 180.6071 0.3254
5666.0000 2.1673 2.0959 2.0728 93.8508 108.9078 8.0769 0.0337 0.3435 3.0947 2.5172 180.6161 0.3240
5666.5000 2.0928 2.0379 2.0145 94.5181 111.5996 7.9520 0.0386 0.3391 3.0772 2.5103 180.6250 0.3447
5667.0000 2.0310 1.9894 1.9574 94.9234 117.4327 8.1894 0.0422 0.3496 3.0576 2.5000 180.6146 0.3348
5667.5000 1.9521 1.9094 1.8829 95.4237 119.8801 8.2519 0.0478 0.3365 3.0568 2.5017 180.9375 0.3423
5668.0000 1.9032 1.8598 1.8273 96.1365 122.3270 8.2019 0.0471 0.3502 3.0451 2.4951 180.9107 0.3255
5668.5000 1.9106 1.8702 1.8333 95.5875 115.5150 8.1019 0.0446 0.3600 3.0198 2.4968 180.6875 0.3321
5669.0000 1.9685 1.9118 1.8704 95.6049 115.5154 8.1894 0.0301 0.3582 2.9614 2.4795 180.6071 0.3345
5669.5000 2.0215 1.9599 1.8972 95.1988 109.8458 8.2269 0.0192 0.3530 2.9232 2.4760 180.5625 0.3305
5670.0000 2.0953 2.0390 1.9899 94.8616 109.6011 8.2019 0.0274 0.3299 2.9080 2.4917 180.7321 0.3323
5670.5000 2.0668 2.0105 1.9700 94.6767 112.7826 8.3518 0.0255 0.3357 2.8615 2.4882 180.7500 0.3283
5671.0000 2.0507 1.9768 1.9465 93.8836 118.9421 8.1269 0.0233 0.3331 2.8221 2.4858 180.6786 0.3379
5671.5000 2.0120 1.9484 1.9094 94.7035 133.3811 8.1769 0.0113 0.3570 2.8015 2.4674 180.9196 0.3165
5672.0000 1.9784 1.8945 1.8958 95.4844 140.6007 8.2019 0.0172 0.3702 2.8163 2.4774 181.2946 0.3395
5672.5000 1.9716 1.8843 1.8877 94.2693 136.4405 8.2019 0.0146 0.3702 2.8253 2.4776 181.3333 0.3395
5673.0000 2.1385 2.0437 2.0041 93.3139 129.0984 8.2019 0.0086 0.3192 2.8549 2.4842 180.7857 0.3353
5673.5000 2.2847 2.2035 2.1190 91.4795 113.5570 8.2269 0.0138 0.2967 2.9623 2.4981 180.5536 0.3013
5674.0000 2.3237 2.2396 2.1599 91.3116 109.8455 8.2019 0.0290 0.2844 3.0516 2.5206 180.4464 0.2893
5674.5000 2.3006 2.2021 2.1229 92.2351 105.1960 8.2019 0.0412 0.2797 3.0708 2.5288 180.4271 0.2763
5675.0000 2.3060 2.1915 2.1233 91.9581 102.0146 8.2019 0.0346 0.2679 3.0042 2.5226 180.3929 0.2808
5675.5000 2.3906 2.2419 2.1720 92.1194 107.9288 8.1769 0.0225 0.2875 2.9443 2.5122 180.5000 0.2656
5676.0000 2.4557 2.3073 2.2273 91.4225 110.5392 8.2519 0.0105 0.3040 2.9155 2.5022 180.6607 0.2780
5676.5000 2.5077 2.3086 2.2294 91.1159 114.4547 8.3143 0.0058 0.3080 2.8868 2.4889 180.5938 0.2955
5677.0000 2.4854 2.3117 2.2308 91.1168 112.7411 8.2768 0.0060 0.3076 2.8656 2.4840 180.4554 0.3055
5677.5000 2.4231 2.2732 2.1978 91.7338 114.0469 8.2519 0.0046 0.2941 2.8285 2.4962 180.2411 0.3091
5678.0000 2.3817 2.2196 2.1634 91.7401 111.8444 8.2768 0.0030 0.2887 2.8137 2.5095 180.5268 0.2944
5678.5000 2.4536 2.3159 2.2622 92.5668 109.6418 8.3268 -0.0001 0.2908 2.8302 2.5081 180.7500 0.2848
5679.0000 2.4063 2.3192 2.2209 92.4666 103.2787 8.4018 -0.0007 0.3193 2.8656 2.4827 180.6518 0.2884
5679.5000 2.4167 2.3860 2.2787 91.3194 101.5654 8.3518 0.0015 0.3527 2.9651 2.4743 180.5729 0.3088
5680.0000 2.6104 2.3821 2.2895 86.9389 99.8520 8.2768 0.0037 0.3146 3.1924 2.4915 180.4196 0.3143
5680.5000 3.0437 2.7810 2.5428 83.0748 86.1464 8.1269 0.0092 0.2660 3.5463 2.5177 179.9375 0.2892
5681.0000 3.7685 3.3298 3.0899 82.1244 86.3916 8.0145 0.0419 0.2424 3.8270 2.5815 179.6518 0.2628
5681.5000 2.7090 2.6584 2.5177 82.9615 84.9643 8.0270 0.0623 0.2787 3.7667 2.5859 180.3438 0.2580
5682.0000 2.4621 2.3057 2.2015 87.5164 104.7874 8.0270 0.0777 0.3396 3.4807 2.5807 180.7679 0.2823
5682.5000 2.2944 2.1485 2.0710 93.3069 107.7242 8.0519 0.0610 0.3473 3.1906 2.5206 180.8125 0.3245
5683.0000 2.2437 2.1186 2.0402 94.2734 115.0256 8.0020 0.0571 0.3591 3.0801 2.5056 180.6518 0.3358
5683.5000 2.2747 2.1663 2.0735 94.5555 117.1062 8.0270 0.0423 0.3530 3.0285 2.4947 180.5104 0.3386
5684.0000 2.4048 2.2703 2.1799 93.3242 125.9166 8.0519 0.0276 0.3277 3.0021 2.5088 180.6518 0.3244
5684.5000 2.5258 2.3992 2.3015 92.6134 116.1273 8.0519 0.0094 0.3133 2.9746 2.5177 180.7054 0.3016
5685.0000 2.6185 2.5032 2.4019 91.3991 116.2496 8.0270 0.0028 0.2894 2.9760 2.5317 180.4911 0.2960
5685.5000 2.5878 2.4847 2.3977 91.1114 116.2492 8.0270 -0.0019 0.3091 3.0064 2.5214 180.2857 0.2866
5686.0000 2.6039 2.4810 2.4029 91.5454 125.5900 8.0769 -0.0043 0.3141 3.0651 2.5139 180.3214 0.2952
5686.5000 2.6172 2.5050 2.4307 90.9040 122.6532 8.0769 -0.0048 0.3215 3.1040 2.5134 180.3750 0.2956
5687.0000 2.6186 2.5182 2.4516 90.4083 118.2485 8.0519 -0.0057 0.3216 3.1515 2.5072 180.4732 0.3127
5687.5000 2.6034 2.4884 2.4276 90.4851 122.3679 8.0519 -0.0025 0.3137 3.1027 2.5093 180.4821 0.3188
5688.0000 2.4939 2.4561 2.3926 91.1497 121.3895 8.0270 0.0081 0.3038 3.0797 2.5179 180.3393 0.3190
5688.5000 2.4337 2.3697 2.3294 91.9494 115.9644 8.0519 0.0109 0.2950 2.9927 2.5138 180.4732 0.3062
5689.0000 2.3495 2.2959 2.2419 92.8803 113.0270 7.9770 0.0108 0.2962 2.9631 2.5069 180.5208 0.2957
5689.5000 2.3344 2.2717 2.2159 93.6481 107.8870 8.0769 0.0007 0.3197 2.9359 2.4864 180.5536 0.2859
5690.0000 2.3660 2.2985 2.2316 93.6350 112.0890 8.0769 0.0007 0.3509 2.9298 2.4933 180.5357 0.2999
5690.5000 2.4043 2.3433 2.2667 93.2152 107.4797 8.0769 0.0023 0.3629 2.9564 2.5011 180.5268 0.3328
5691.0000 2.4524 2.3878 2.3100 92.8161 107.9695 8.0769 0.0052 0.3294 2.9884 2.5193 180.5625 0.3487
5691.5000 2.4267 2.3794 2.3018 92.2980 110.4159 8.1019 0.0068 0.3058 3.0080 2.5276 180.4732 0.3224
5692.0000 2.3824 2.3395 2.2674 92.7432 111.8441 8.1019 0.0106 0.2992 3.0083 2.5318 180.5536 0.2975
5692.5000 2.3391 2.3082 2.2356 93.1884 122.1231 8.2768 0.0181 0.3166 3.0157 2.5368 180.6429 0.2930
5693.0000 2.3170 2.2829 2.2177 93.5412 116.3313 8.1519 0.0218 0.3376 3.0248 2.5317 180.8125 0.3049
5693.5000 2.3060 2.2699 2.2010 94.0961 115.3530 8.1269 0.0226 0.3408 3.0593 2.5181 180.4792 0.3316
5694.0000 2.2358 2.2583 2.1903 94.3656 108.9893 8.1519 0.0173 0.3233 3.0750 2.4835 180.2589 0.3404
5694.5000 2.1588 2.1529 2.0941 95.6500 117.4738 8.2019 0.0152 0.3383 3.0695 2.4639 180.1339 0.3227
5695.0000 2.0977 2.1008 2.0548 96.3845 123.1019 8.2643 0.0103 0.3393 3.0040 2.4600 180.2679 0.3279
5695.5000 2.2709 2.2268 2.1760 95.8143 123.6324 8.3018 0.0044 0.3558 2.9381 2.4745 180.3839 0.3313
5696.0000 2.4362 2.4186 2.3480 95.0220 123.8771 8.3518 -0.0001 0.3175 2.9407 2.4981 180.2411 0.3321
5696.5000 2.5517 2.5615 2.4873 93.1969 115.0667 8.3018 -0.0037 0.3106 2.9865 2.5100 180.2083 0.3014
5697.0000 2.4795 2.4780 2.4102 94.1379 112.5783 8.3018 -0.0055 0.2972 3.0309 2.5044 180.1696 0.3082
5697.5000 2.4365 2.4117 2.3370 93.9156 105.7257 8.2768 -0.0031 0.3330 2.9906 2.4997 180.2500 0.2952
5698.0000 2.4674 2.4604 2.3745 94.2072 108.1731 8.3018 0.0016 0.3385 2.9664 2.4929 180.2411 0.3226
5698.5000 2.4718 2.4805 2.3708 94.0643 106.7048 8.3518 0.0130 0.3472 3.0046 2.5055 180.0714 0.3344
5699.0000 2.4168 2.4382 2.3155 93.7881 107.6839 8.3768 0.0217 0.3186 3.0935 2.5106 180.2708 0.3394
5699.5000 2.3819 2.3692 2.2458 94.0431 107.1943 8.4767 0.0389 0.3083 3.1592 2.5224 180.4643 0.3163
5700.0000 2.3494 2.3116 2.1867 94.0045 112.0077 8.3643 0.0520 0.3229 3.1595 2.5254 180.5625 0.3074
5700.5000 2.3096 2.2940 2.1573 94.2183 112.9863 8.3518 0.0635 0.3152 3.1569 2.5193 180.5089 0.3149
5701.0000 2.2949 2.2742 2.1370 94.5344 116.4127 8.3768 0.0680 0.3263 3.1571 2.5097 180.5521 0.3049
5701.5000 2.2745 2.2411 2.1133 95.9107 117.2282 8.4018 0.0672 0.3088 3.1640 2.5078 180.6429 0.3062
5702.0000 2.3029 2.2400 2.1128 96.0317 117.6769 8.3393 0.0575 0.3172 3.1789 2.5144 180.5357 0.2934
