~VERSION INFORMATION
VERS.           1.2   :CWLS Log ASCII Standard - VERSION 1.2
WRAP.           NO    :One Line per depth step
PROD.  Schlumberger   :LAS Producer
PROG.  DLIS to ASCII 17C0-152                          :LAS Program name and version
CREA.        2013/10/21 20:50                          :LAS Creation date {YYYY/MM/DD hh:mm}
DLIS_CREA.  2013-Oct-21 08:39                          :DLIS Creation date and time {YYYY-MMM-DD hh:mm}
SOURCE.     9ec8b34d-aca5-43ef-91a8-8c41069c79cd       :DLIS File Name
#--------------------------------------------------
~WELL INFORMATION
#MNEM.UNIT      DATA             DESCRIPTION
#---- ------ --------------   -----------------------------
STRT .F      901.5000        :START DEPTH        # original; data subset to 5500-8000
STOP .F      7746.5000       :STOP DEPTH        # original; data subset to 5500-8000
STEP .F       0.5000         :STEP       
NULL .          -999.25      :NULL VALUE
COMP .                 COMPANY:  Bear Oil and Gas, Inc.             
WELL .                    WELL:  McGahan Farms 32 31                
FLD  .                   FIELD:  Wildcat                            
LOC  .                LOCATION:  SHL: SWNE 2563' FNL & 1423' FEL    
CNTY .                  COUNTY:  Laramie                            
STAT .                   STATE:  Wyoming                            
CTRY .                 COUNTRY:  United States                      
SRVC .         SERVICE COMPANY:  Schlumberger                       
LATI .DEG             LATITUDE:  41.309490 degrees                  
LONG .DEG            LONGITUDE:  -104.12429 degrees                 
API  .              API NUMBER:  49-021-21045                       
DATE .                LOG DATE:  21-Oct-2013
UWI  .          UNIQUE WELL ID:  49021210450000                     
#-----------------------------------------------------------------------------
~PARAMETER INFORMATION
#MNEM.UNIT    VALUE                      DESCRIPTION
#---- -----   --------------------       ------------------------
CN   .        Bear Oil and Gas  Inc.     :Company Name
WN   .        McGahan Farms 32 31        :Well Name
FN   .        Wildcat                    :Field Name
FL   .        SHL  SWNE 2563' FNL & 1423' FEL :Field Location
FL1  .        Section 31  Township 16N  Range 60W :Field Location, Line 1
COUN .        Laramie                    :County or Parish
STAT .        Wyoming                    :State or Province
NATI .        United States              :Nation
DATE .        21-Oct-2013                :Tools Above Rotary Table Date
APIN .        49-021-21045               :API Well Number
SECT .        31                         :Section
TOWN .        16N                        :Township
RANG .        60W                        :Range
DMF  .        KB                         :Drilling Measured From (Name of Drilling Elevation Reference)
LMF  .        KB                         :Logging Measured From (Name of Logging Elevation Reference)
PDAT .        GL                         :Permanent Datum
ENGI .        Max Pace                   :Engineer s Name
WITN .        Terry                      :Witness s Name
LATI .        41.309490 degrees          :Latitude
LONG .        -104.12429 degrees         :Longitude
LUL  .        Fort Morgan  CO            :Logging Unit Location
LUN  .        3022                       :Logging Unit Number
RUN  .        Run 1                      :Run Number
SON  .        CA0R-00056                 :Service Order Number
BHT  .DEGF     166.00000                 :Bottom Hole Temperature
BS   .IN         7.87500                 :Bit Size
MDEN .G/C3       2.65000                 :Matrix Density for Density Porosity
DFD  .LB/G       9.10000                 :Drilling Fluid Density
DFV  .S         63.00000                 :Drilling Fluid Viscosity
DFL  .C3         8.80000                 :Drilling Fluid Loss
RMFS .OHMM       1.24500                 :Resistivity of Mud Filtrate Sample
EKB  .F       5307.00000                 :Elevation of Kelly Bushing
EGL  .F       5295.00000                 :Elevation of Ground Level
BLI  .F       7730.00000                 :Bottom Log Interval
BSAL .PPM        0.00000                 :Borehole Salinity
FLEV .F          8.00000                 :Depth of Drilling Fluid Level to LMF (Log Measured From)
MCST .DEGF      61.00000                 :Mudcake Sample Temperature
MFST .DEGF      61.00000                 :Mud Filtrate Sample Temperature
MRT  .DEGF     166.00000                 :Maximum Recorded Temperature
MST  .DEGF      61.00000                 :Mud Sample Temperature
RMCS .OHMM       2.07500                 :Resistivity of Mud Cake Sample
RMS  .OHMM       1.66000                 :Resistivity of Mud Sample
RW   .OHMM       1.00000                 :Connate Water Resistivity
TDD  .F       7719.99951                 :Driller Total Depth
TDL  .F       7730.00000                 :Logger Total Depth
TLI  .F       1023.75000                 :Top Log Interval
HIDE .        Wildcat                    :Header Identifier
MATR .        SAND                       :Rock Matrix for Neutron Porosity Corrections
FNUM .           1.00000                 :F-Numerator for Formation Factor Formula
FEXP .           2.00000                 :Exponent "m" for Formation Factor Formula
DFT  .        Fresh Water                :Drilling Fluid Type
DFPH .           7.50000                 :Drilling Fluid pH
MCSS .        Calculated                 :Mudcake Sample Source
MFSS .        Calculated                 :Mud Filtrate Sample Source
FD   .G/C3       1.00000                 :Fluid Density
MSS  .        Active Tank                :Mud Sample Source
OS1  .                                   :Other Services Line 1
OS2  .                                   :Other Services Line 2
OS3  .                                   :Other Services Line 3
OS4  .                                   :Other Services Line 4
OS5  .                                   :Other Services Line 5
R1   .        Tool string run as per tool sketch :Remarks Line 1
R2   .        All Schlumberger depth control procedures followed :Remarks Line 2
R3   .        IDW used as primary depth reference :Remarks Line 3
R4   .        Z Chart used as secondary depth reference :Remarks Line 4
R5   .        Matrix Density zoned as per client request :Remarks Line 5
R6   .        Crew  Max Pace  Tyler Riter  Cody Bruns :Remarks Line 6
R7   .                                   :Remarks Line 7
R8   .                                   :Remarks Line 8
TCS  .        19 00 00                   :Time Circulation Stopped
TLAB .        06 35 50                   :Time Logger At Bottom
NMT  .        NOBARITE                   :HRDD Mud Type for Nuclear Devices
EPD  .C3         5295.000000             :Elevation of Permanent Datum above Mean Sea Level
APD  .F          12.000000               :Elevation of Depth Reference (LMF) above Permanent Datum
#-----------------------------------------------------------------------------
~CURVE INFORMATION
#MNEM.UNIT   API CODE                                  DESCRIPTION
#---- -----  --------                                  -----------------------
DEPT .F                                                :DEPTH (BOREHOLE) {F12.4}
AT10 .OHMM                                             :Array Induction Two Foot Resistivity A10 {F11.4}
AT30 .OHMM                                             :Array Induction Two Foot Resistivity A30 {F11.4}
AT90 .OHMM                                             :Array Induction Two Foot Resistivity A90 {F11.4}
DT   .US/F                                             :Delta-T (also called Slowness or Interval Transit Time) {F11.4}
GR   .GAPI                                             :Gamma Ray {F11.4}
HCAL .IN                                               :HRCC Caliper Calibrated {F11.4}
HDRA .G/C3                                             :Density Standoff Correction {F11.4}
NPHI .CFCF                                             :Thermal Neutron Porosity (original Ratio Method) in Selected Lithology {F11.4}
PEFZ .                                                 :Standard Resolution Formation Photoelectric Factor {F11.4}
RHOZ .G/C3                                             :Standard Resolution Formation Density {F11.4}
SP   .MV                                               :Spontaneous Potential {F11.4}
TNPH .CFCF                                             :Thermal Neutron Porosity (Ratio Method) in Selected Lithology {F11.4}
#-----------------------------------------------------------------------------
# 
#      DEPT        AF10       AF20       AF30       AF60       AF90       AO10       AO20       AO30       AO60       AO90       AT10       AT20       AT30       AT60       AT90     AHFCO60      AHMF      AHORT      AHORX      AHSCA     AHTCO10    AHTCO20    AHTCO30    AHTCO60    AHTCO90     AHTD1      AHTD2      AHTRT      AHTRX       CDF        CFTC       CNTC       CTEM       DCAL       DNPH       DPHZ       DSOZ        DT        ECGR        ED        GDEV        GR        GTEM       HCAL       HDRA       HDRB       HGR        HMIN       HMNO       HNPO       HPRA       HTNP       ITT         ND        NPHI       NPOR       PEFZ    PXND_HILT     RHOZ       RSOZ     RWA_HILT     RXO8       RXOZ        SP        SPAR       SPHI       STIT       TENS       TNPH     HTNP_SAN
#
~A  DEPT AT10 AT30 AT90 DT GR HCAL HDRA NPHI PEFZ RHOZ SP TNPH
# ...
7722.5000 1.8444 1.9718 1.9627 89.2809 120.6159 2.0674 -999.2500 0.2454 -999.2500 -999.2500 248.9875 0.2409
7723.0000 1.8751 1.9859 1.9959 89.2789 120.6159 2.0674 -999.2500 0.2454 -999.2500 -999.2500 249.0294 0.2409
7723.5000 1.9356 2.1324 2.0488 89.2771 120.6159 2.0674 -999.2500 0.2454 -999.2500 -999.2500 248.8047 0.2409
7724.0000 1.9648 2.1366 2.0865 89.2743 120.6159 2.0674 -999.2500 0.2454 -999.2500 -999.2500 248.5898 0.2409
7724.5000 1.9856 2.2386 2.1355 89.2721 120.6159 2.0674 -999.2500 0.2454 -999.2500 -999.2500 248.5551 0.2409
7725.0000 1.9609 2.2468 2.0841 89.2721 120.6159 2.0674 -999.2500 0.2454 -999.2500 -999.2500 248.6953 0.2409
7725.5000 1.9346 2.2101 2.0430 89.2721 120.6159 2.0674 -999.2500 0.2454 -999.2500 -999.2500 248.3419 0.2409
7726.0000 1.9030 2.1940 2.0250 89.2721 120.6159 2.0674 -999.2500 0.2454 -999.2500 -999.2500 248.2852 0.2409
7726.5000 1.8871 2.1968 1.9974 89.2721 120.6159 2.0674 -999.2500 0.2454 -999.2500 -999.2500 248.4570 0.2409
7727.0000 1.8725 2.1737 1.9662 89.2721 120.6159 2.0674 -999.2500 0.2454 -999.2500 -999.2500 248.6719 0.2409
7727.5000 1.8667 2.1611 1.9550 89.2721 120.6159 2.0674 -999.2500 0.2454 -999.2500 -999.2500 248.4297 0.2409
7728.0000 1.8672 2.1687 1.9543 89.2721 120.6159 2.0674 -999.2500 0.2454 -999.2500 -999.2500 248.4301 0.2409
7728.5000 1.8673 2.1742 1.9681 89.2721 120.6159 2.0674 -999.2500 0.2454 -999.2500 -999.2500 248.5234 0.2409
7729.0000 1.8667 2.1744 1.9727 89.2721 120.6159 2.0674 -999.2500 0.2454 -999.2500 -999.2500 248.7656 0.2409
7729.5000 1.8663 2.1758 1.9794 89.2721 120.6159 2.0674 -999.2500 0.2454 -999.2500 -999.2500 248.8088 0.2409
7730.0000 1.8658 2.1786 1.9867 89.2721 120.6159 2.0674 -999.2500 0.2454 -999.2500 -999.2500 248.8984 0.2409
7730.5000 1.8651 2.1792 1.9919 89.2721 120.6159 2.0674 -999.2500 0.2454 -999.2500 -999.2500 248.5977 0.2409
7731.0000 1.8658 2.1807 1.9955 89.2721 120.6159 2.0674 -999.2500 0.2454 -999.2500 -999.2500 248.0000 0.2409
7731.5000 1.8658 2.1832 1.9990 89.2721 120.6159 2.0674 -999.2500 0.2454 -999.2500 -999.2500 247.8750 0.2409
7732.0000 1.8650 2.1800 1.9984 89.2721 120.6159 2.0674 -999.2500 0.2454 -999.2500 -999.2500 247.8320 0.2409
7732.5000 1.8650 2.1811 2.0011 89.2721 120.6159 2.0674 -999.2500 0.2454 -999.2500 -999.2500 247.9609 0.2409
7733.0000 1.8651 2.1804 2.0013 89.2721 120.6159 2.0674 -999.2500 0.2454 -999.2500 -999.2500 248.0586 0.2409
7733.5000 1.8651 2.1806 2.0024 89.2721 120.6159 2.0674 -999.2500 0.2454 -999.2500 -999.2500 248.0742 0.2409
7734.0000 1.8647 2.1816 2.0040 89.2721 120.6159 2.0674 -999.2500 0.2454 -999.2500 -999.2500 248.0508 0.2409
7734.5000 1.8651 2.1821 2.0052 89.2721 120.6159 2.0674 -999.2500 0.2454 -999.2500 -999.2500 248.2109 0.2409
7735.0000 1.8654 2.1823 2.0061 89.2721 120.6159 2.0674 -999.2500 0.2454 -999.2500 -999.2500 248.1949 0.2409
7735.5000 1.8652 2.1809 2.0060 89.2721 120.6159 2.0674 -999.2500 0.2454 -999.2500 -999.2500 248.2833 0.2409
7736.0000 1.8653 2.1807 2.0062 89.2721 120.6159 2.0674 -999.2500 0.2454 -999.2500 -999.2500 248.6641 0.2409
7736.5000 1.8648 2.1812 2.0069 89.2721 120.6159 2.0674 -999.2500 0.2454 -999.2500 -999.2500 248.8750 0.2409
7737.0000 1.8643 2.1820 2.0077 89.2721 120.6159 2.0674 -999.2500 0.2454 -999.2500 -999.2500 249.0000 0.2409
7737.5000 1.8653 2.1820 2.0080 89.2721 120.6159 2.0674 -999.2500 0.2454 -999.2500 -999.2500 249.4750 0.2409
7738.0000 1.8648 2.1813 2.0080 89.2721 120.6159 2.0674 -999.2500 0.2454 -999.2500 -999.2500 249.4958 0.2409
7738.5000 1.8648 2.1836 2.0094 89.2721 120.6159 2.0674 -999.2500 0.2454 -999.2500 -999.2500 249.7125 0.2409
7739.0000 1.8648 2.1836 2.0094 89.2721 120.6159 2.0674 -999.2500 0.2454 -999.2500 -999.2500 249.7750 0.2409
7739.5000 1.8648 2.1836 2.0094 89.2721 120.6159 2.0674 -999.2500 0.2454 -999.2500 -999.2500 249.7875 0.2409
7740.0000 1.8648 2.1836 2.0094 89.2721 120.6159 2.0674 -999.2500 0.2454 -999.2500 -999.2500 249.7125 0.2409
7740.5000 1.8648 2.1836 2.0094 89.2721 120.6159 2.0674 -999.2500 0.2454 -999.2500 -999.2500 249.8042 0.2409
7741.0000 1.8648 2.1836 2.0094 89.2721 120.6159 2.0674 -999.2500 0.2454 -999.2500 -999.2500 250.0083 0.2409
7741.5000 1.8648 2.1836 2.0094 89.2721 120.6159 2.0674 -999.2500 0.2454 -999.2500 -999.2500 250.4598 0.2409
7742.0000 1.8648 2.1836 2.0094 89.2721 120.6159 2.0674 -999.2500 0.2454 -999.2500 -999.2500 250.4034 0.2409
7742.5000 1.8648 2.1836 2.0094 89.2721 120.6159 2.0674 -999.2500 0.2454 -999.2500 -999.2500 250.5052 0.2409
7743.0000 1.8648 2.1836 2.0094 89.2721 120.6159 2.0674 -999.2500 0.2454 -999.2500 -999.2500 250.5417 0.2409
7743.5000 1.8648 2.1836 2.0094 89.2721 120.6159 2.0674 -999.2500 0.2454 -999.2500 -999.2500 250.4323 0.2409
7744.0000 1.8648 2.1836 2.0094 89.2721 120.6159 2.0674 -999.2500 0.2454 -999.2500 -999.2500 250.4545 0.2409
7744.5000 1.8648 2.1836 2.0094 89.2721 120.6159 2.0674 -999.2500 0.2454 -999.2500 -999.2500 250.4271 0.2409
7745.0000 1.8648 2.1836 2.0094 89.2721 120.6159 2.0674 -999.2500 0.2454 -999.2500 -999.2500 250.7083 0.2409
7745.5000 1.8648 2.1836 2.0094 89.2721 120.6159 2.0674 -999.2500 0.2454 -999.2500 -999.2500 250.6250 0.2409
7746.0000 1.8648 2.1836 2.0094 89.2721 120.6159 2.0674 -999.2500 0.2454 -999.2500 -999.2500 251.0921 0.2409
7746.5000 1.8648 2.1836 2.0094 89.2721 120.6159 2.0674 -999.2500 0.2454 -999.2500 -999.2500 251.0921 0.2409
