~VERSION INFORMATION
VERS.           1.2   :CWLS Log ASCII Standard - VERSION 1.2
WRAP.           NO    :One Line per depth step
PROD.  Schlumberger   :LAS Producer
PROG.  DLIS to ASCII 17C0-152                          :LAS Program name and version
CREA.        2013/10/21 20:50                          :LAS Creation date {YYYY/MM/DD hh:mm}
DLIS_CREA.  2013-Oct-21 08:39                          :DLIS Creation date and time {YYYY-MMM-DD hh:mm}
SOURCE.     9ec8b34d-aca5-43ef-91a8-8c41069c79cd       :DLIS File Name
#--------------------------------------------------
~WELL INFORMATION
#MNEM.UNIT      DATA             DESCRIPTION
#---- ------ --------------   -----------------------------
STRT .F      901.5000        :START DEPTH        # original; data subset to 5500-8000
STOP .F      7746.5000       :STOP DEPTH        # original; data subset to 5500-8000
STEP .F       0.5000         :STEP       
NULL .          -999.25      :NULL VALUE
COMP .                 COMPANY:  Bear Oil and Gas, Inc.             
WELL .                    WELL:  McGahan Farms 32 31                
FLD  .                   FIELD:  Wildcat                            
LOC  .                LOCATION:  SHL: SWNE 2563' FNL & 1423' FEL    
CNTY .                  COUNTY:  Laramie                            
STAT .                   STATE:  Wyoming                            
CTRY .                 COUNTRY:  United States                      
SRVC .         SERVICE COMPANY:  Schlumberger                       
LATI .DEG             LATITUDE:  41.309490 degrees                  
LONG .DEG            LONGITUDE:  -104.12429 degrees                 
API  .              API NUMBER:  49-021-21045                       
DATE .                LOG DATE:  21-Oct-2013
UWI  .          UNIQUE WELL ID:  49021210450000                     
#-----------------------------------------------------------------------------
~PARAMETER INFORMATION
#MNEM.UNIT    VALUE                      DESCRIPTION
#---- -----   --------------------       ------------------------
CN   .        Bear Oil and Gas  Inc.     :Company Name
WN   .        McGahan Farms 32 31        :Well Name
FN   .        Wildcat                    :Field Name
FL   .        SHL  SWNE 2563' FNL & 1423' FEL :Field Location
FL1  .        Section 31  Township 16N  Range 60W :Field Location, Line 1
COUN .        Laramie                    :County or Parish
STAT .        Wyoming                    :State or Province
NATI .        United States              :Nation
DATE .        21-Oct-2013                :Tools Above Rotary Table Date
APIN .        49-021-21045               :API Well Number
SECT .        31                         :Section
TOWN .        16N                        :Township
RANG .        60W                        :Range
DMF  .        KB                         :Drilling Measured From (Name of Drilling Elevation Reference)
LMF  .        KB                         :Logging Measured From (Name of Logging Elevation Reference)
PDAT .        GL                         :Permanent Datum
ENGI .        Max Pace                   :Engineer s Name
WITN .        Terry                      :Witness s Name
LATI .        41.309490 degrees          :Latitude
LONG .        -104.12429 degrees         :Longitude
LUL  .        Fort Morgan  CO            :Logging Unit Location
LUN  .        3022                       :Logging Unit Number
RUN  .        Run 1                      :Run Number
SON  .        CA0R-00056                 :Service Order Number
BHT  .DEGF     166.00000                 :Bottom Hole Temperature
BS   .IN         7.87500                 :Bit Size
MDEN .G/C3       2.65000                 :Matrix Density for Density Porosity
DFD  .LB/G       9.10000                 :Drilling Fluid Density
DFV  .S         63.00000                 :Drilling Fluid Viscosity
DFL  .C3         8.80000                 :Drilling Fluid Loss
RMFS .OHMM       1.24500                 :Resistivity of Mud Filtrate Sample
EKB  .F       5307.00000                 :Elevation of Kelly Bushing
EGL  .F       5295.00000                 :Elevation of Ground Level
BLI  .F       7730.00000                 :Bottom Log Interval
BSAL .PPM        0.00000                 :Borehole Salinity
FLEV .F          8.00000                 :Depth of Drilling Fluid Level to LMF (Log Measured From)
MCST .DEGF      61.00000                 :Mudcake Sample Temperature
MFST .DEGF      61.00000                 :Mud Filtrate Sample Temperature
MRT  .DEGF     166.00000                 :Maximum Recorded Temperature
MST  .DEGF      61.00000                 :Mud Sample Temperature
RMCS .OHMM       2.07500                 :Resistivity of Mud Cake Sample
RMS  .OHMM       1.66000                 :Resistivity of Mud Sample
RW   .OHMM       1.00000                 :Connate Water Resistivity
TDD  .F       7719.99951                 :Driller Total Depth
TDL  .F       7730.00000                 :Logger Total Depth
TLI  .F       1023.75000                 :Top Log Interval
HIDE .        Wildcat                    :Header Identifier
MATR .        SAND                       :Rock Matrix for Neutron Porosity Corrections
FNUM .           1.00000                 :F-Numerator for Formation Factor Formula
FEXP .           2.00000                 :Exponent "m" for Formation Factor Formula
DFT  .        Fresh Water                :Drilling Fluid Type
DFPH .           7.50000                 :Drilling Fluid pH
MCSS .        Calculated                 :Mudcake Sample Source
MFSS .        Calculated                 :Mud Filtrate Sample Source
FD   .G/C3       1.00000                 :Fluid Density
MSS  .        Active Tank                :Mud Sample Source
OS1  .                                   :Other Services Line 1
OS2  .                                   :Other Services Line 2
OS3  .                                   :Other Services Line 3
OS4  .                                   :Other Services Line 4
OS5  .                                   :Other Services Line 5
R1   .        Tool string run as per tool sketch :Remarks Line 1
R2   .        All Schlumberger depth control procedures followed :Remarks Line 2
R3   .        IDW used as primary depth reference :Remarks Line 3
R4   .        Z Chart used as secondary depth reference :Remarks Line 4
R5   .        Matrix Density zoned as per client request :Remarks Line 5
R6   .        Crew  Max Pace  Tyler Riter  Cody Bruns :Remarks Line 6
R7   .                                   :Remarks Line 7
R8   .                                   :Remarks Line 8
TCS  .        19 00 00                   :Time Circulation Stopped
TLAB .        06 35 50                   :Time Logger At Bottom
NMT  .        NOBARITE                   :HRDD Mud Type for Nuclear Devices
EPD  .C3         5295.000000             :Elevation of Permanent Datum above Mean Sea Level
APD  .F          12.000000               :Elevation of Depth Reference (LMF) above Permanent Datum
#-----------------------------------------------------------------------------
~CURVE INFORMATION
#MNEM.UNIT   API CODE                                  DESCRIPTION
#---- -----  --------                                  -----------------------
DEPT .F                                                :DEPTH (BOREHOLE) {F12.4}
AT10 .OHMM                                             :Array Induction Two Foot Resistivity A10 {F11.4}
AT30 .OHMM                                             :Array Induction Two Foot Resistivity A30 {F11.4}
AT90 .OHMM                                             :Array Induction Two Foot Resistivity A90 {F11.4}
DT   .US/F                                             :Delta-T (also called Slowness or Interval Transit Time) {F11.4}
GR   .GAPI                                             :Gamma Ray {F11.4}
HCAL .IN                                               :HRCC Caliper Calibrated {F11.4}
HDRA .G/C3                                             :Density Standoff Correction {F11.4}
NPHI .CFCF                                             :Thermal Neutron Porosity (original Ratio Method) in Selected Lithology {F11.4}
PEFZ .                                                 :Standard Resolution Formation Photoelectric Factor {F11.4}
RHOZ .G/C3                                             :Standard Resolution Formation Density {F11.4}
SP   .MV                                               :Spontaneous Potential {F11.4}
TNPH .CFCF                                             :Thermal Neutron Porosity (Ratio Method) in Selected Lithology {F11.4}
#-----------------------------------------------------------------------------
# 
#      DEPT        AF10       AF20       AF30       AF60       AF90       AO10       AO20       AO30       AO60       AO90       AT10       AT20       AT30       AT60       AT90     AHFCO60      AHMF      AHORT      AHORX      AHSCA     AHTCO10    AHTCO20    AHTCO30    AHTCO60    AHTCO90     AHTD1      AHTD2      AHTRT      AHTRX       CDF        CFTC       CNTC       CTEM       DCAL       DNPH       DPHZ       DSOZ        DT        ECGR        ED        GDEV        GR        GTEM       HCAL       HDRA       HDRB       HGR        HMIN       HMNO       HNPO       HPRA       HTNP       ITT         ND        NPHI       NPOR       PEFZ    PXND_HILT     RHOZ       RSOZ     RWA_HILT     RXO8       RXOZ        SP        SPAR       SPHI       STIT       TENS       TNPH     HTNP_SAN
#
~A  DEPT AT10 AT30 AT90 DT GR HCAL HDRA NPHI PEFZ RHOZ SP TNPH
# ...
7441.5000 3.1217 2.9905 2.9239 85.5577 139.6218 8.2269 0.1766 0.3617 3.1029 2.5390 233.8214 0.3595
7442.0000 3.1571 3.0932 2.9950 84.0725 138.9793 8.2269 0.1976 0.3525 3.1494 2.5593 233.7500 0.3567
7442.5000 3.0911 3.0926 2.9689 83.8924 131.0552 7.8271 0.2187 0.3342 3.1506 2.5514 233.7109 0.3502
7443.0000 2.9931 2.9524 2.8652 84.8234 137.6936 8.2768 0.2436 0.3232 3.0672 2.5166 233.8214 0.3189
7443.5000 2.9439 2.8808 2.7558 84.9822 132.5546 7.8520 0.2723 0.3523 2.9611 2.5104 233.8906 0.3202
7444.0000 2.8452 2.8420 2.6961 86.9414 131.0555 7.5147 0.3014 0.3940 2.9394 2.5466 233.9375 0.3433
7444.5000 2.7646 2.7747 2.6230 87.0322 128.1194 8.3018 0.2877 0.3990 2.9935 2.5498 234.0234 0.3737
7445.0000 2.6454 2.6865 2.5851 87.9050 134.3287 8.2519 0.2574 0.3950 3.0511 2.5301 234.0714 0.3882
7445.5000 2.5543 2.5321 2.4531 88.5000 137.3275 8.3518 0.2222 0.3851 3.0557 2.4926 233.9844 0.3840
7446.0000 2.4681 2.4897 2.3990 90.3714 142.9557 8.2768 0.2120 0.3693 3.0347 2.4937 233.9844 0.3707
7446.5000 2.3522 2.3783 2.3339 90.9347 144.2408 7.5647 0.1955 0.3691 3.0242 2.4844 234.2679 0.3623
7447.0000 2.2841 2.2893 2.2449 91.2795 142.5274 8.3768 0.1817 0.3686 3.0602 2.4967 234.3984 0.3514
7447.5000 2.2477 2.2036 2.1647 89.3080 136.6545 8.2269 0.1740 0.3753 3.1545 2.4913 234.2813 0.3583
7448.0000 2.2062 2.2306 2.1739 89.9067 136.4400 8.2768 0.1951 0.4010 3.2457 2.5019 234.0469 0.3565
7448.5000 2.1213 2.2157 2.1581 90.4297 131.9429 7.8021 0.2286 0.4313 3.2429 2.5172 233.6339 0.3896
7449.0000 2.0580 2.0898 2.0509 90.6461 127.0475 8.2394 0.2226 0.4499 3.1254 2.5043 233.8203 0.4171
7449.5000 1.9666 2.0092 1.9481 93.5246 121.4811 9.1014 0.1804 0.4340 2.9998 2.4787 234.0000 0.4231
7450.0000 1.9408 1.9783 1.9028 95.1373 127.7518 8.8765 0.1272 0.4070 2.9434 2.4325 233.8929 0.4127
7450.5000 1.9475 1.9891 1.9239 94.5800 134.7569 8.7391 0.1155 0.3907 2.9606 2.4328 233.9297 0.3800
7451.0000 1.9683 2.0360 1.9626 95.5720 135.3990 8.7266 0.1169 0.3902 3.0049 2.4290 233.9609 0.3699
7451.5000 2.0284 2.0806 2.0066 93.8376 131.2386 8.6517 0.1235 0.3838 3.0706 2.4382 233.9609 0.3663
7452.0000 2.0938 2.1273 2.0439 93.2148 128.8840 8.7391 0.1330 0.3895 3.1373 2.4455 233.9018 0.3637
7452.5000 2.0267 2.0468 1.9721 92.0923 128.2407 8.7516 0.1434 0.3991 3.1845 2.4404 234.0938 0.3787
7453.0000 1.8403 1.8948 1.8385 93.6608 128.0572 8.9265 0.1509 0.4248 3.1650 2.4304 233.9219 0.3780
7453.5000 1.7109 1.7810 1.7361 96.0235 123.4073 7.9520 0.1531 0.4668 3.1239 2.4239 233.8214 0.4098
7454.0000 1.6588 1.7628 1.7102 95.6032 124.4786 8.6267 0.1473 0.4265 3.0860 2.4297 233.8984 0.4333
7454.5000 1.6687 1.7568 1.7049 96.6160 125.1210 8.6641 0.1269 0.4341 3.0787 2.4214 234.1172 0.4061
7455.0000 1.6643 1.7343 1.6772 97.4807 130.2606 8.4767 0.1018 0.4249 3.0614 2.4090 234.3750 0.4134
7455.5000 1.6306 1.6969 1.6441 97.2245 135.1857 8.6766 0.0930 0.4369 3.0301 2.4113 234.5446 0.3904
7456.0000 1.6087 1.6695 1.6091 97.4649 139.1320 8.6641 0.0958 0.4030 2.9928 2.4102 234.5781 0.4023
7456.5000 1.5921 1.6500 1.5908 99.8040 132.4318 8.8016 0.1024 0.3955 2.9756 2.4097 234.7578 0.3852
7457.0000 1.5634 1.6253 1.5658 97.5916 125.7934 8.6267 0.0999 0.4022 2.9780 2.3999 234.9643 0.3851
7457.5000 1.5334 1.5947 1.5403 97.9944 119.1863 8.6392 0.0972 0.4134 2.9827 2.4028 234.9219 0.3948
7458.0000 1.5004 1.5705 1.5106 98.8449 124.5399 8.7016 0.0900 0.3953 2.9569 2.3986 234.8672 0.3928
7458.5000 1.4648 1.5511 1.4897 99.8596 123.4691 8.5267 0.0849 0.4008 2.9118 2.3964 235.0391 0.3797
7459.0000 1.4694 1.5435 1.4800 101.6723 125.9160 8.4018 0.0803 0.3666 2.8861 2.3956 234.9196 0.3857
7459.5000 1.4593 1.5544 1.4778 101.8630 128.0575 8.5517 0.0761 0.3991 2.9111 2.3795 235.0078 0.3547
7460.0000 1.4719 1.5553 1.4754 101.4632 133.8395 8.5642 0.0792 0.3785 2.9547 2.3654 234.9453 0.3827
7460.5000 1.4371 1.5004 1.4442 101.7040 135.0628 8.7516 0.0899 0.4167 2.9660 2.3493 235.0078 0.3709
7461.0000 1.3652 1.4181 1.3751 100.2309 128.6385 8.2519 0.1066 0.4206 2.9395 2.3469 235.0268 0.3979
7461.5000 1.3054 1.3516 1.3215 101.6660 125.3042 8.4393 0.1149 0.4237 2.8964 2.3378 235.1484 0.3819
7462.0000 1.2713 1.3066 1.2773 102.3892 123.0104 8.5267 0.1161 0.4163 2.8685 2.3312 235.1875 0.3884
7462.5000 1.2467 1.2786 1.2488 102.4601 121.0826 8.4018 0.1082 0.4068 2.8373 2.3264 235.3047 0.3886
7463.0000 1.2141 1.2489 1.2223 102.8579 121.3269 8.4518 0.0963 0.4087 2.8046 2.3228 235.2266 0.3909
7463.5000 1.1849 1.2135 1.1845 104.1240 121.7552 8.3268 0.0777 0.3902 2.7667 2.3024 235.2589 0.3946
7464.0000 1.1547 1.1762 1.1432 105.0362 129.6787 8.2519 0.0672 0.3906 2.7518 2.3019 235.3672 0.3683
7464.5000 1.1302 1.1470 1.1063 105.5417 134.8180 8.3768 0.0599 0.4139 2.7666 2.3054 235.5234 0.3649
7465.0000 1.1482 1.1524 1.1045 104.5631 137.3877 8.1019 0.0731 0.4304 2.8501 2.3268 235.8571 0.3891
7465.5000 1.2318 1.2301 1.1715 102.8823 138.9785 8.1519 0.0925 0.4161 2.9605 2.3520 235.9219 0.3908
7466.0000 1.3296 1.3400 1.2489 101.3124 129.6488 8.1519 0.1160 0.3765 3.0607 2.3968 235.7813 0.3672
7466.5000 1.4198 1.4174 1.3241 97.8722 125.3658 7.9270 0.1200 0.3554 3.1030 2.4292 235.7422 0.3445
7467.0000 1.3766 1.3804 1.2956 98.2048 119.9828 8.2519 0.1123 0.3433 3.1022 2.4358 235.6071 0.3408
7467.5000 1.3164 1.3023 1.2343 98.9290 119.5540 8.3518 0.1048 0.3433 3.0839 2.4190 235.6094 0.3415
7468.0000 1.2783 1.2636 1.1965 100.7133 125.0909 8.2643 0.1010 0.3545 3.0435 2.4034 235.7109 0.3455
7468.5000 1.2483 1.2358 1.1716 101.9764 122.4589 8.2519 0.1016 0.3539 3.0072 2.3917 235.8125 0.3427
7469.0000 1.2314 1.2184 1.1592 101.9189 121.3880 8.2269 0.0990 0.4103 2.9881 2.3836 235.7813 0.3492
7469.5000 1.2273 1.2156 1.1576 102.4246 117.7173 8.3143 0.0978 0.4495 2.9834 2.3784 235.9688 0.3946
7470.0000 1.2248 1.2139 1.1580 102.2932 121.5723 8.4018 0.0984 0.4560 2.9701 2.3802 236.1518 0.4092
7470.5000 1.2311 1.2089 1.1548 101.9869 124.9989 8.3518 0.0984 0.4089 2.9477 2.3802 236.2031 0.4000
7471.0000 1.2411 1.2147 1.1629 101.9729 122.7968 8.2019 0.0998 0.3768 2.9419 2.3904 236.2969 0.3792
7471.5000 1.2293 1.1988 1.1461 102.4664 120.0123 8.2269 0.1051 0.3735 2.9755 2.3912 236.2232 0.3730
7472.0000 1.1887 1.1592 1.1167 104.0411 122.5822 8.2519 0.1157 0.3965 3.0134 2.3818 236.1719 0.3645
7472.5000 1.1569 1.1242 1.0821 104.2998 123.8054 8.1519 0.1276 0.4356 3.0209 2.3739 236.2734 0.3832
7473.0000 1.1940 1.1541 1.1027 103.9586 128.7309 8.3518 0.1247 0.4550 2.9702 2.3703 236.5625 0.3997
7473.5000 1.2336 1.1961 1.1477 104.0691 131.6064 8.3518 0.1115 0.4440 2.8958 2.3872 236.7143 0.3999
7474.0000 1.2802 1.2371 1.1771 102.3631 126.6502 8.3143 0.0975 0.4165 2.8535 2.4018 236.5781 0.3956
7474.5000 1.3267 1.2427 1.1922 100.2243 121.5109 8.3768 0.1015 0.3792 2.8761 2.4258 236.8906 0.3790
7475.0000 1.3895 1.2887 1.2152 98.0763 114.6583 8.3768 0.1167 0.3372 2.9208 2.4383 236.9911 0.3539
7475.5000 1.4564 1.3108 1.2509 98.5975 121.0826 8.2019 0.1312 0.3325 2.9181 2.4456 236.7188 0.3194
7476.0000 1.3650 1.3173 1.2539 97.4548 127.2622 8.3518 0.1247 0.3244 2.8402 2.4415 236.3359 0.3081
7476.5000 1.3900 1.3043 1.2498 93.7492 144.7297 7.8271 0.1013 0.3137 2.7365 2.4293 236.0982 0.3095
7477.0000 1.1235 1.0825 1.0400 99.3495 177.9223 8.2768 0.0810 0.3002 2.7266 2.4036 235.7031 0.3187
7477.5000 0.8565 0.8114 0.7881 104.0655 215.3677 7.7521 0.0699 0.4000 2.7862 2.3511 235.3125 0.3404
7478.0000 0.7784 0.7499 0.7390 103.2538 243.6354 7.8021 0.0810 0.4705 2.8544 2.3362 235.5893 0.3899
7478.5000 0.9317 0.9010 0.8629 103.9544 223.0768 7.8520 0.0905 0.4379 2.8193 2.3412 236.1953 0.4008
7479.0000 1.3498 1.2500 1.1680 100.4173 181.4713 7.8021 0.1240 0.3450 2.7524 2.4059 236.7500 0.3391
7479.5000 1.6673 1.3899 1.3081 93.4556 134.5737 7.9520 0.1533 0.3131 2.7035 2.4360 236.8393 0.3121
7480.0000 1.4693 1.3266 1.2475 96.7525 115.3319 8.2269 0.1792 0.3456 2.6971 2.4550 236.7813 0.3267
7480.5000 1.3788 1.3019 1.2089 98.1984 110.5285 8.5517 0.1776 0.3583 2.7079 2.4446 237.0078 0.3591
7481.0000 1.4073 1.2964 1.2181 98.8228 111.3848 8.7141 0.1621 0.3464 2.7224 2.4353 237.0714 0.3495
7481.5000 1.4048 1.3049 1.2367 99.5794 113.2816 8.4268 0.1435 0.3638 2.7395 2.4252 237.1172 0.3424
