~VERSION INFORMATION
VERS.           2.0   :CWLS Log ASCII Standard - VERSION 2.0
WRAP.           NO    :One Line per depth step
PROD.  Schlumberger   :LAS Producer
PROG.  DLIS to ASCII 19C2-270                          :LAS Program name and version
CREA.        2013/09/21 19:52                          :LAS Creation date {YYYY/MM/DD hh:mm}
DLIS_CREA.  2013-Sep-21 19:47                          :DLIS Creation date and time {YYYY-MMM-DD hh:mm}
SOURCE.     49-021-21035_McGahan Farms 42-31_Run_PEX_Mainpass.dlis  :DLIS File Name
FILE-ID.     MaxWell_3Dlis                             :File Identification Number
#--------------------------------------------------
~WELL INFORMATION
#MNEM.UNIT      DATA             DESCRIPTION
#---- ------ --------------   -----------------------------
STRT .F      1000.5          :START DEPTH        # original; data subset to 5500-8000
STOP .F      7716.5          :STOP DEPTH        # original; data subset to 5500-8000
STEP .F       0.5            :STEP     
NULL .          -999.25      :NULL VALUE
COMP .        Bear Oil & Gas, Inc                      :COMPANY
WELL .        McGahan Farms 42-31                      :WELL
FLD  .        Wildcat                                  :FIELD
LOC  .        Lat/Long: 41.3098/-104.1197              :LOCATION
CNTY .        Laramie                                  :COUNTY
STAT .        Wyoming                                  :STATE
CTRY .        USA                                      :COUNTRY
API  .        49-021-21035                             :API NUMBER
UWI  .        49021210350000                           :UNIQUE WELL ID
DATE .        21-Sep-2013                              :LOG DATE {DD-MMM-YYYY}
SRVC .        Schlumberger                             :SERVICE COMPANY
LATI .DEG     41.309800 degrees                        :LATITUDE
LONG .DEG     -104.11970 degrees                       :LONGITUDE
GDAT .                                                 :GeoDetic Datum
SECT .        31                                       :Section
RANG .        60W                                      :Range
TOWN .        16N                                      :Township
#-----------------------------------------------------------------------------
~PARAMETER INFORMATION
#MNEM.UNIT    VALUE                      DESCRIPTION
#---- -----   --------------------       ------------------------
CN   .        Bear Oil & Gas  Inc        :Company Name
WN   .        McGahan Farms 42-31        :Well Name
FN   .        Wildcat                    :Field Name
FL   .        Lat/Long  41.3098/-104.1197 :Field Location
FL1  .        SHL   2375' FNL X 190' FEL SENE :Field Location, Line 1
COUN .        Laramie                    :County or Parish
STAT .        Wyoming                    :State or Province
NATI .        USA                        :Nation
DATE .        21-Sep-2013                :Tools Above Rotary Table Date
APIN .        49-021-21035               :API Well Number
SECT .        31                         :Section
TOWN .        16N                        :Township
RANG .        60W                        :Range
DMF  .        KB                         :Drilling Measured From (Name of Drilling Elevation Reference)
LMF  .        KB                         :Logging Measured From (Name of Logging Elevation Reference)
PDAT .        GL                         :Permanent Datum
ENGI .        Arvin Shi                  :Engineer s Name
WITN .        Terry Eittreim             :Witness s Name
LATI .        41.309800 degrees          :Latitude
LONG .        -104.11970 degrees         :Longitude
LUL  .        Fort Morgan                :Logging Unit Location
LUN  .        3022                       :Logging Unit Number
RUN  .        Run 1                      :Run Number
SON  .        C6VJ-00079                 :Service Order Number
BHT  .DEGF     175.00000                 :Bottom Hole Temperature
BS   .IN         7.87500                 :Bit Size
MDEN .G/C3       2.65000                 :Matrix Density for Density Porosity
DFD  .LB/G       9.20000                 :Drilling Fluid Density
DFV  .S         80.00000                 :Drilling Fluid Viscosity
DFL  .C3      -999.25000                 :Drilling Fluid Loss
RMFS .OHMM       0.96000                 :Resistivity of Mud Filtrate Sample
EKB  .F       5307.00000                 :Elevation of Kelly Bushing
EGL  .F       5295.00000                 :Elevation of Ground Level
BLI  .F       7700.00000                 :Bottom Log Interval
BSAL .PPM     3275.14868                 :Borehole Salinity
FLEV .F          8.00000                 :Depth of Drilling Fluid Level to LMF (Log Measured From)
MCST .DEGF      98.00000                 :Mudcake Sample Temperature
MFST .DEGF      98.00000                 :Mud Filtrate Sample Temperature
MRT  .DEGF     175.00000                 :Maximum Recorded Temperature
MST  .DEGF      98.00000                 :Mud Sample Temperature
RMCS .OHMM       1.60000                 :Resistivity of Mud Cake Sample
RMS  .OHMM       1.28000                 :Resistivity of Mud Sample
RW   .OHMM       1.00000                 :Connate Water Resistivity
TDD  .F       7697.00000                 :Driller Total Depth
TDL  .F       7700.00000                 :Logger Total Depth
TLI  .F       1018.00000                 :Top Log Interval
HIDE .        Wildcat                    :Header Identifier
MATR .        SAND                       :Rock Matrix for Neutron Porosity Corrections
FNUM .           1.00000                 :F-Numerator for Formation Factor Formula
FEXP .           2.00000                 :Exponent "m" for Formation Factor Formula
DFT  .        Chemical Gel               :Drilling Fluid Type
DFPH .        -999.25000                 :Drilling Fluid pH
MCSS .        Calculated                 :Mudcake Sample Source
MFSS .        Calculated                 :Mud Filtrate Sample Source
FD   .G/C3       1.00000                 :Fluid Density
MSS  .        Flowline                   :Mud Sample Source
OS1  .                                   :Other Services Line 1
OS2  .                                   :Other Services Line 2
OS3  .                                   :Other Services Line 3
OS4  .                                   :Other Services Line 4
OS5  .                                   :Other Services Line 5
R1   .                                   :Remarks Line 1
R2   .                                   :Remarks Line 2
R3   .                                   :Remarks Line 3
R4   .                                   :Remarks Line 4
R5   .                                   :Remarks Line 5
R6   .                                   :Remarks Line 6
R7   .                                   :Remarks Line 7
R8   .                                   :Remarks Line 8
TCS  .        11 00 00                   :Time Circulation Stopped
TLAB .        17 20 49                   :Time Logger At Bottom
NMT  .        NOBARITE                   :HRDD Mud Type for Nuclear Devices
EPD  .C3         5295.000000             :Elevation of Permanent Datum above Mean Sea Level
APD  .F          12.000000               :Elevation of Depth Reference (LMF) above Permanent Datum
#-----------------------------------------------------------------------------
~CURVE INFORMATION
#MNEM.UNIT   API CODE                                  DESCRIPTION
#---- -----  --------                                  -----------------------
DEPT .F                                                :DEPTH (BOREHOLE) {F10.1}
AT10 .OHMM                                             :Array Induction Two Foot Resistivity A10 {F11.4}
AT30 .OHMM                                             :Array Induction Two Foot Resistivity A30 {F11.4}
AT90 .OHMM                                             :Array Induction Two Foot Resistivity A90 {F11.4}
GR   .GAPI                                             :Gamma Ray {F11.4}
HCAL .IN                                               :HRCC Caliper Calibrated {F11.4}
HDRA .G/C3                                             :Density Standoff Correction {F11.4}
NPHI .CFCF                                             :Thermal Neutron Porosity (original Ratio Method) in Selected Lithology {F11.4}
PEFZ .                                                 :Standard Resolution Formation Photoelectric Factor {F11.4}
RHOZ .G/C3                                             :Standard Resolution Formation Density {F11.4}
SP   .MV                                               :Spontaneous Potential {F11.4}
TNPH .CFCF                                             :Thermal Neutron Porosity (Ratio Method) in Selected Lithology {F11.4}
#-----------------------------------------------------------------------------
# 
#     DEPT       AF10       AF20       AF30       AF60       AF90       AO10       AO20       AO30       AO60       AO90       AT10       AT20       AT30       AT60       AT90     AHFCO60      AHMF      AHORT      AHORX      AHSCA     AHTCO10    AHTCO20    AHTCO30    AHTCO60    AHTCO90     AHTD1      AHTD2      AHTRT      AHTRX       CDF        CFTC       CNTC       CTEM       DCAL       DNPH       DPHZ       DSOZ       ECGR        ED        GDEV        GR        GTEM       HCAL       HDRA       HDRB       HGR        HMIN       HMNO       HNPO       HPRA       HTNP        ND        NPHI       NPOR       PEFZ    PXND_HILT     RHOZ       RSOZ     RWA_HILT     RXO8       RXOZ        SP        SPAR       STIT       TENS       TNPH     HTNP_SAN
#
~A  DEPT AT10 AT30 AT90 GR HCAL HDRA NPHI PEFZ RHOZ SP TNPH
# ...
7079.0 5.0225 4.6131 4.2847 122.5605 8.1041 0.0013 0.2562 3.7205 2.5235 -343.5313 0.2258
7079.5 5.0541 4.6622 4.3349 112.1316 8.1151 0.0016 0.2509 3.7592 2.5347 -343.5179 0.2247
7080.0 5.1208 4.7538 4.4124 100.0314 8.1041 -0.0024 0.2414 3.8137 2.5305 -343.4922 0.2323
7080.5 4.8408 4.5530 4.2279 97.7646 8.1151 -0.0040 0.2300 3.8129 2.5292 -343.3125 0.2362
7081.0 4.5733 4.2746 4.0038 107.7681 8.1041 -0.0048 0.2299 3.7786 2.5216 -343.2734 0.2328
7081.5 4.3353 4.0802 3.8068 123.1272 8.1151 -0.0049 0.2572 3.7006 2.5187 -343.3594 0.2312
7082.0 4.1262 3.9428 3.6833 132.6487 8.1041 -0.0036 0.2632 3.6046 2.5258 -343.4107 0.2462
7082.5 4.0250 3.7699 3.5229 129.4747 8.1041 -0.0033 0.2886 3.5803 2.5317 -343.7109 0.2487
7083.0 4.5514 4.1337 3.8389 124.6285 8.1041 -0.0038 0.2646 3.6537 2.5324 -343.5547 0.2532
7083.5 4.9016 4.5503 4.1685 111.2531 8.0601 -0.0065 0.2651 3.7661 2.5235 -343.2411 0.2357
7084.0 4.9017 4.6413 4.2650 115.6172 8.0821 -0.0093 0.2394 3.8129 2.5158 -343.3036 0.2415
7084.5 4.9059 4.5399 4.2072 120.6898 8.1041 -0.0086 0.2479 3.7446 2.5218 -343.3906 0.2293
7085.0 5.0478 4.6146 4.2801 132.4217 8.0381 -0.0088 0.2534 3.7028 2.5219 -343.0714 0.2437
7085.5 5.1795 4.8228 4.4654 131.2032 8.0601 -0.0087 0.2663 3.6850 2.5221 -342.8203 0.2426
7086.0 5.1722 4.8476 4.5038 124.9407 8.0821 -0.0114 0.2702 3.6801 2.5157 -342.8482 0.2505
7086.5 5.1789 4.8343 4.4963 118.4230 8.0821 -0.0064 0.2843 3.6450 2.5187 -343.0156 0.2479
7087.0 5.2413 4.8782 4.5385 110.5166 8.0601 -0.0022 0.2890 3.6751 2.5213 -343.1071 0.2550
7087.5 5.3183 4.9435 4.5936 104.7643 8.0601 0.0010 0.2755 3.7469 2.5302 -342.9609 0.2643
7088.0 5.2441 4.9204 4.5706 101.5903 8.0711 -0.0013 0.2295 3.8227 2.5402 -342.7768 0.2541
7088.5 4.9505 4.6523 4.3381 106.3516 8.0601 -0.0048 0.2182 3.8588 2.5415 -342.7422 0.2193
7089.0 4.7446 4.4421 4.1585 114.7387 8.0601 -0.0043 0.2376 3.8659 2.5348 -342.5357 0.2172
7089.5 4.6304 4.3184 4.0408 121.2567 8.0821 -0.0045 0.2856 3.8448 2.5227 -341.9219 0.2284
7090.0 4.5644 4.2833 4.0056 121.4550 8.0381 -0.0051 0.2915 3.7878 2.5158 -341.7188 0.2735
7090.5 4.5433 4.2445 3.9660 119.1883 8.0601 -0.0069 0.2715 3.7199 2.5154 -341.9821 0.2658
7091.0 4.5431 4.2291 3.9488 115.6174 8.0601 -0.0087 0.2473 3.6965 2.5153 -341.8203 0.2455
7091.5 4.5775 4.2414 3.9504 109.9499 8.0601 0.0006 0.2427 3.7187 2.5183 -342.2500 0.2333
7092.0 4.6143 4.2711 3.9785 107.0033 8.0821 0.0002 0.2462 3.7747 2.5179 -342.8125 0.2308
7092.5 4.6092 4.2609 3.9641 111.0839 8.0601 -0.0004 0.2559 3.7893 2.5218 -342.9107 0.2295
7093.0 4.5082 4.1763 3.8920 118.9332 8.0821 -0.0092 0.2579 3.8012 2.5166 -342.2422 0.2347
7093.5 4.4258 4.1072 3.8360 121.1154 8.0821 -0.0101 0.2583 3.7548 2.5176 -341.5446 0.2399
7094.0 4.3561 4.0343 3.7789 122.2487 8.0821 -0.0086 0.2706 3.6901 2.5282 -341.8828 0.2456
7094.5 4.3058 3.9971 3.7363 121.6535 8.0821 -0.0119 0.2786 3.6753 2.5329 -342.5446 0.2602
7095.0 4.3395 4.0193 3.7501 122.8437 8.0601 -0.0120 0.2706 3.7217 2.5302 -342.4196 0.2705
7095.5 4.4174 4.0645 3.7900 120.8035 8.0601 -0.0136 0.2508 3.7944 2.5152 -341.7578 0.2500
7096.0 4.5044 4.1527 3.8524 117.2332 8.0601 -0.0083 0.2363 3.7677 2.5159 -341.6172 0.2300
7096.5 4.5451 4.1965 3.8992 119.0748 8.0601 -0.0042 0.2387 3.6961 2.5212 -341.6518 0.2170
7097.0 4.5057 4.1595 3.8709 121.8517 8.0821 -0.0015 0.2304 3.6279 2.5291 -341.4297 0.2170
7097.5 4.4283 4.0902 3.8119 117.2610 8.0601 -0.0034 0.2329 3.6119 2.5298 -341.2422 0.2133
7098.0 4.3668 4.0432 3.7813 114.0874 8.0601 -0.0055 0.2366 3.6108 2.5284 -341.4018 0.2166
7098.5 4.3097 3.9998 3.7396 110.5168 8.0821 -0.0065 0.2450 3.6113 2.5261 -341.4922 0.2228
7099.0 4.2679 3.9705 3.7153 113.4638 8.0711 -0.0034 0.2570 3.5662 2.5378 -341.2411 0.2309
7099.5 4.2573 3.9468 3.6991 111.0269 8.1041 -0.0021 0.2689 3.5649 2.5427 -341.2656 0.2444
7100.0 4.2600 3.9485 3.6959 115.4477 8.0821 -0.0047 0.2708 3.6223 2.5351 -342.4196 0.2546
7100.5 4.2604 3.9511 3.6964 115.9011 8.0821 -0.0099 0.2527 3.7079 2.5159 -342.9286 0.2510
7101.0 4.2462 3.9385 3.6866 118.4796 8.0381 -0.0110 0.2533 3.7232 2.5139 -342.9297 0.2322
7101.5 4.2351 3.9339 3.6865 114.6258 8.0601 -0.0076 0.2537 3.7302 2.5197 -342.8393 0.2342
7102.0 4.3891 4.0383 3.7816 116.0145 8.0601 -0.0050 0.2538 3.7796 2.5278 -342.7578 0.2330
7102.5 4.5049 4.1861 3.9032 115.4191 8.0711 -0.0057 0.2447 3.8817 2.5270 -343.0089 0.2284
7103.0 4.6465 4.3000 4.0201 114.6543 8.0601 -0.0069 0.2273 3.9173 2.5337 -342.9922 0.2210
7103.5 4.6132 4.3029 4.0265 114.8526 8.0381 -0.0065 0.2304 3.8900 2.5386 -341.4464 0.2156
7104.0 4.5641 4.2621 4.0164 113.4640 8.0601 -0.0064 0.2318 3.8167 2.5384 -341.2857 0.2191
7104.5 4.4673 4.1778 3.9315 116.2693 8.0601 -0.0060 0.2517 3.7297 2.5412 -341.4531 0.2173
7105.0 4.4995 4.2290 3.9763 117.0624 8.0711 -0.0068 0.2483 3.6784 2.5434 -342.1875 0.2252
7105.5 4.7657 4.4709 4.1933 119.3581 8.0601 -0.0072 0.2338 3.6798 2.5479 -341.8214 0.2184
7106.0 5.0650 4.7066 4.4069 116.6376 8.0381 -0.0072 0.2171 3.7106 2.5544 -341.4609 0.2090
7106.5 5.5149 5.0862 4.7290 114.0592 8.0601 -0.0075 0.2145 3.7722 2.5582 -340.9844 0.2018
7107.0 5.7066 5.3833 4.9888 114.5122 8.0161 -0.0046 0.2265 3.7865 2.5702 -340.2321 0.1987
7107.5 5.6010 5.2662 4.9022 114.4272 8.0381 -0.0034 0.2249 3.8237 2.5695 -339.6094 0.2022
7108.0 5.6009 5.2581 4.9105 113.2370 8.0381 -0.0039 0.2280 3.8742 2.5633 -339.6964 0.2012
7108.5 5.6426 5.3530 4.9739 111.0836 8.0161 -0.0071 0.2223 3.9401 2.5536 -339.5982 0.2102
7109.0 5.5772 5.3030 4.9760 113.6621 8.0381 -0.0029 0.2327 3.9648 2.5547 -339.8672 0.2124
7109.5 5.5585 5.2646 4.9537 116.0422 8.0161 -0.0016 0.2379 3.9309 2.5711 -339.8929 0.2242
7110.0 5.7629 5.3795 5.0629 118.4228 8.0161 0.0007 0.2271 3.8988 2.5856 -339.9219 0.2150
7110.5 5.8143 5.3508 5.0273 111.8771 8.0161 -0.0036 0.2123 3.8507 2.5916 -339.8839 0.2057
7111.0 5.4688 5.1452 4.8566 120.1805 7.9941 -0.0042 0.2194 3.7834 2.5771 -339.8203 0.2049
7111.5 5.0293 4.7371 4.5080 121.5687 8.0161 -0.0065 0.2332 3.6923 2.5495 -339.5893 0.2212
7112.0 4.8611 4.5862 4.3583 133.3286 7.9941 -0.0089 0.2696 3.6171 2.5256 -339.3203 0.2310
7112.5 4.8963 4.6004 4.3791 132.3648 8.0161 -0.0090 0.2604 3.6138 2.5153 -339.5000 0.2514
7113.0 5.0231 4.6453 4.3694 134.6037 8.0051 -0.0051 0.2562 3.6379 2.5176 -339.8750 0.2361
7113.5 4.4460 4.2429 3.9916 128.3980 8.0161 0.0111 0.2523 3.6455 2.5288 -340.3393 0.2423
7114.0 3.8850 3.5943 3.4082 129.1347 8.0381 0.0236 0.2837 3.5285 2.5307 -340.3047 0.2495
7114.5 3.4922 3.2663 3.1193 130.2678 8.0161 0.0263 0.3161 3.4066 2.5337 -339.9821 0.2762
7115.0 4.0548 3.5530 3.3667 133.4420 8.0161 0.0112 0.2995 3.4594 2.5265 -339.6406 0.2887
7115.5 4.5901 4.2548 3.9898 130.9483 8.0601 -0.0011 0.2704 3.7005 2.5324 -338.8482 0.2581
7116.0 5.4186 4.9039 4.5294 123.2126 8.0161 -0.0068 0.2358 3.9620 2.5350 -339.0078 0.2352
7116.5 5.3547 4.9224 4.5578 114.8807 8.0271 -0.0062 0.2305 4.0701 2.5314 -339.1786 0.2153
7117.0 5.0526 4.6873 4.3662 112.3875 7.9941 -0.0071 0.2303 3.9707 2.5286 -339.3672 0.2201
7117.5 4.7188 4.3698 4.1019 122.9005 8.0381 -0.0084 0.2289 3.7976 2.5278 -339.3036 0.2228
7118.0 4.4883 4.1593 3.8936 129.6450 8.0601 -0.0097 0.2334 3.6164 2.5359 -339.4911 0.2243
7118.5 4.3964 4.1081 3.8554 126.9239 8.0381 -0.0075 0.2274 3.5312 2.5385 -339.9063 0.2242
7119.0 4.3336 4.0723 3.8095 124.3456 8.0821 -0.0015 0.2487 3.4866 2.5381 -340.2143 0.2214
7119.5 4.0458 3.8120 3.5777 123.0703 8.1041 0.0088 0.2671 3.4701 2.5300 -340.3281 0.2343
7120.0 3.7179 3.5100 3.2931 136.2195 8.1480 0.0236 0.2751 3.4647 2.5400 -340.3036 0.2488
7120.5 3.9902 3.5662 3.3278 129.6730 8.1480 0.0248 0.2614 3.4815 2.5453 -340.2344 0.2471
7121.0 4.1607 3.9032 3.6089 128.3131 8.1810 0.0188 0.2494 3.5061 2.5613 -339.9018 0.2317
7121.5 4.2559 3.9781 3.6737 123.7223 8.1261 0.0053 0.2531 3.5019 2.5585 -339.6563 0.2347
7122.0 4.1924 3.8925 3.6138 122.5888 8.1151 0.0003 0.2505 3.5373 2.5542 -339.7344 0.2465
7122.5 4.1704 3.9047 3.6394 119.4715 8.1261 -0.0034 0.2345 3.5666 2.5402 -339.9219 0.2357
7123.0 4.2024 3.8990 3.6517 111.3671 8.1480 -0.0048 0.2267 3.5873 2.5285 -340.1071 0.2172
7123.5 4.2649 3.9500 3.6916 112.5007 8.1261 -0.0042 0.2238 3.5600 2.5228 -340.3482 0.2109
