~VERSION INFORMATION
VERS.           2.0   :CWLS Log ASCII Standard - VERSION 2.0
WRAP.           NO    :One Line per depth step
PROD.  Schlumberger   :LAS Producer
PROG.  DLIS to ASCII 19C2-270                          :LAS Program name and version
CREA.        2013/09/21 19:52                          :LAS Creation date {YYYY/MM/DD hh:mm}
DLIS_CREA.  2013-Sep-21 19:47                          :DLIS Creation date and time {YYYY-MMM-DD hh:mm}
SOURCE.     49-021-21035_McGahan Farms 42-31_Run_PEX_Mainpass.dlis  :DLIS File Name
FILE-ID.     MaxWell_3Dlis                             :File Identification Number
#--------------------------------------------------
~WELL INFORMATION
#MNEM.UNIT      DATA             DESCRIPTION
#---- ------ --------------   -----------------------------
STRT .F      1000.5          :START DEPTH        # original; data subset to 5500-8000
STOP .F      7716.5          :STOP DEPTH        # original; data subset to 5500-8000
STEP .F       0.5            :STEP     
NULL .          -999.25      :NULL VALUE
COMP .        Bear Oil & Gas, Inc                      :COMPANY
WELL .        McGahan Farms 42-31                      :WELL
FLD  .        Wildcat                                  :FIELD
LOC  .        Lat/Long: 41.3098/-104.1197              :LOCATION
CNTY .        Laramie                                  :COUNTY
STAT .        Wyoming                                  :STATE
CTRY .        USA                                      :COUNTRY
API  .        49-021-21035                             :API NUMBER
UWI  .        49021210350000                           :UNIQUE WELL ID
DATE .        21-Sep-2013                              :LOG DATE {DD-MMM-YYYY}
SRVC .        Schlumberger                             :SERVICE COMPANY
LATI .DEG     41.309800 degrees                        :LATITUDE
LONG .DEG     -104.11970 degrees                       :LONGITUDE
GDAT .                                                 :GeoDetic Datum
SECT .        31                                       :Section
RANG .        60W                                      :Range
TOWN .        16N                                      :Township
#-----------------------------------------------------------------------------
~PARAMETER INFORMATION
#MNEM.UNIT    VALUE                      DESCRIPTION
#---- -----   --------------------       ------------------------
CN   .        Bear Oil & Gas  Inc        :Company Name
WN   .        McGahan Farms 42-31        :Well Name
FN   .        Wildcat                    :Field Name
FL   .        Lat/Long  41.3098/-104.1197 :Field Location
FL1  .        SHL   2375' FNL X 190' FEL SENE :Field Location, Line 1
COUN .        Laramie                    :County or Parish
STAT .        Wyoming                    :State or Province
NATI .        USA                        :Nation
DATE .        21-Sep-2013                :Tools Above Rotary Table Date
APIN .        49-021-21035               :API Well Number
SECT .        31                         :Section
TOWN .        16N                        :Township
RANG .        60W                        :Range
DMF  .        KB                         :Drilling Measured From (Name of Drilling Elevation Reference)
LMF  .        KB                         :Logging Measured From (Name of Logging Elevation Reference)
PDAT .        GL                         :Permanent Datum
ENGI .        Arvin Shi                  :Engineer s Name
WITN .        Terry Eittreim             :Witness s Name
LATI .        41.309800 degrees          :Latitude
LONG .        -104.11970 degrees         :Longitude
LUL  .        Fort Morgan                :Logging Unit Location
LUN  .        3022                       :Logging Unit Number
RUN  .        Run 1                      :Run Number
SON  .        C6VJ-00079                 :Service Order Number
BHT  .DEGF     175.00000                 :Bottom Hole Temperature
BS   .IN         7.87500                 :Bit Size
MDEN .G/C3       2.65000                 :Matrix Density for Density Porosity
DFD  .LB/G       9.20000                 :Drilling Fluid Density
DFV  .S         80.00000                 :Drilling Fluid Viscosity
DFL  .C3      -999.25000                 :Drilling Fluid Loss
RMFS .OHMM       0.96000                 :Resistivity of Mud Filtrate Sample
EKB  .F       5307.00000                 :Elevation of Kelly Bushing
EGL  .F       5295.00000                 :Elevation of Ground Level
BLI  .F       7700.00000                 :Bottom Log Interval
BSAL .PPM     3275.14868                 :Borehole Salinity
FLEV .F          8.00000                 :Depth of Drilling Fluid Level to LMF (Log Measured From)
MCST .DEGF      98.00000                 :Mudcake Sample Temperature
MFST .DEGF      98.00000                 :Mud Filtrate Sample Temperature
MRT  .DEGF     175.00000                 :Maximum Recorded Temperature
MST  .DEGF      98.00000                 :Mud Sample Temperature
RMCS .OHMM       1.60000                 :Resistivity of Mud Cake Sample
RMS  .OHMM       1.28000                 :Resistivity of Mud Sample
RW   .OHMM       1.00000                 :Connate Water Resistivity
TDD  .F       7697.00000                 :Driller Total Depth
TDL  .F       7700.00000                 :Logger Total Depth
TLI  .F       1018.00000                 :Top Log Interval
HIDE .        Wildcat                    :Header Identifier
MATR .        SAND                       :Rock Matrix for Neutron Porosity Corrections
FNUM .           1.00000                 :F-Numerator for Formation Factor Formula
FEXP .           2.00000                 :Exponent "m" for Formation Factor Formula
DFT  .        Chemical Gel               :Drilling Fluid Type
DFPH .        -999.25000                 :Drilling Fluid pH
MCSS .        Calculated                 :Mudcake Sample Source
MFSS .        Calculated                 :Mud Filtrate Sample Source
FD   .G/C3       1.00000                 :Fluid Density
MSS  .        Flowline                   :Mud Sample Source
OS1  .                                   :Other Services Line 1
OS2  .                                   :Other Services Line 2
OS3  .                                   :Other Services Line 3
OS4  .                                   :Other Services Line 4
OS5  .                                   :Other Services Line 5
R1   .                                   :Remarks Line 1
R2   .                                   :Remarks Line 2
R3   .                                   :Remarks Line 3
R4   .                                   :Remarks Line 4
R5   .                                   :Remarks Line 5
R6   .                                   :Remarks Line 6
R7   .                                   :Remarks Line 7
R8   .                                   :Remarks Line 8
TCS  .        11 00 00                   :Time Circulation Stopped
TLAB .        17 20 49                   :Time Logger At Bottom
NMT  .        NOBARITE                   :HRDD Mud Type for Nuclear Devices
EPD  .C3         5295.000000             :Elevation of Permanent Datum above Mean Sea Level
APD  .F          12.000000               :Elevation of Depth Reference (LMF) above Permanent Datum
#-----------------------------------------------------------------------------
~CURVE INFORMATION
#MNEM.UNIT   API CODE                                  DESCRIPTION
#---- -----  --------                                  -----------------------
DEPT .F                                                :DEPTH (BOREHOLE) {F10.1}
AT10 .OHMM                                             :Array Induction Two Foot Resistivity A10 {F11.4}
AT30 .OHMM                                             :Array Induction Two Foot Resistivity A30 {F11.4}
AT90 .OHMM                                             :Array Induction Two Foot Resistivity A90 {F11.4}
GR   .GAPI                                             :Gamma Ray {F11.4}
HCAL .IN                                               :HRCC Caliper Calibrated {F11.4}
HDRA .G/C3                                             :Density Standoff Correction {F11.4}
NPHI .CFCF                                             :Thermal Neutron Porosity (original Ratio Method) in Selected Lithology {F11.4}
PEFZ .                                                 :Standard Resolution Formation Photoelectric Factor {F11.4}
RHOZ .G/C3                                             :Standard Resolution Formation Density {F11.4}
SP   .MV                                               :Spontaneous Potential {F11.4}
TNPH .CFCF                                             :Thermal Neutron Porosity (Ratio Method) in Selected Lithology {F11.4}
#-----------------------------------------------------------------------------
# 
#     DEPT       AF10       AF20       AF30       AF60       AF90       AO10       AO20       AO30       AO60       AO90       AT10       AT20       AT30       AT60       AT90     AHFCO60      AHMF      AHORT      AHORX      AHSCA     AHTCO10    AHTCO20    AHTCO30    AHTCO60    AHTCO90     AHTD1      AHTD2      AHTRT      AHTRX       CDF        CFTC       CNTC       CTEM       DCAL       DNPH       DPHZ       DSOZ       ECGR        ED        GDEV        GR        GTEM       HCAL       HDRA       HDRB       HGR        HMIN       HMNO       HNPO       HPRA       HTNP        ND        NPHI       NPOR       PEFZ    PXND_HILT     RHOZ       RSOZ     RWA_HILT     RXO8       RXOZ        SP        SPAR       STIT       TENS       TNPH     HTNP_SAN
#
~A  DEPT AT10 AT30 AT90 GR HCAL HDRA NPHI PEFZ RHOZ SP TNPH
# ...
6361.5 2.4365 2.2539 2.1765 112.6709 7.9062 0.1172 0.3087 3.0530 2.5344 -352.9732 0.2979
6362.0 2.4073 2.2302 2.1599 111.5376 7.9282 0.1049 0.3181 3.0407 2.5285 -352.7946 0.3022
6362.5 2.5088 2.3115 2.2345 111.1403 8.0601 0.1021 0.3435 3.0266 2.5229 -352.8750 0.3004
6363.0 2.5934 2.3940 2.3082 109.7799 7.9722 0.1088 0.3219 3.0266 2.5133 -352.8594 0.3193
6363.5 2.6295 2.4075 2.3224 110.6014 7.9941 0.1331 0.2999 3.0447 2.5087 -352.8661 0.3068
6364.0 2.6790 2.4510 2.3606 109.1850 7.9502 0.1590 0.2702 3.0695 2.5107 -352.8214 0.2946
6364.5 2.7742 2.5120 2.4034 113.0385 7.7963 0.1713 0.2787 3.0931 2.5109 -352.6953 0.2735
6365.0 2.8737 2.5518 2.4290 121.9650 7.8183 0.1728 0.2975 3.1003 2.5380 -352.7054 0.2721
6365.5 2.9077 2.5708 2.4275 121.9930 7.8402 0.1586 0.2944 3.1044 2.5423 -352.7813 0.2753
6366.0 2.8872 2.5802 2.4283 120.1798 7.8622 0.1420 0.2948 3.1115 2.5406 -352.7589 0.2747
6366.5 2.8649 2.5991 2.4239 115.2208 7.8842 0.1211 0.2886 3.1217 2.5219 -352.6641 0.2805
6367.0 2.9467 2.6435 2.4595 115.8723 7.8622 0.0924 0.3112 3.1417 2.5182 -352.5982 0.2788
6367.5 3.2659 2.9228 2.6255 103.9988 7.9062 0.0655 0.2840 3.2469 2.5540 -352.8516 0.2951
6368.0 3.6111 3.2401 2.8618 96.7160 7.8622 0.0464 0.2702 3.3917 2.5806 -352.9844 0.2711
6368.5 3.2438 2.9748 2.6880 99.0403 7.9062 0.0487 0.2636 3.4534 2.5810 -352.7946 0.2625
6369.0 2.7891 2.5337 2.3338 103.6592 7.8402 0.0615 0.2968 3.3353 2.5400 -352.6563 0.2669
6369.5 2.5086 2.3198 2.1643 115.5045 7.9282 0.0675 0.3260 3.1463 2.5126 -352.5893 0.2917
6370.0 2.5576 2.3237 2.1905 114.9939 7.9722 0.0698 0.3254 3.0356 2.5225 -352.3750 0.3145
6370.5 2.6434 2.4244 2.3057 119.4998 7.8842 0.0529 0.3182 3.0214 2.5144 -352.2232 0.3144
6371.0 2.7013 2.5168 2.4089 117.8561 7.8842 0.0476 0.2955 3.0659 2.5164 -352.5781 0.3061
6371.5 2.7467 2.5439 2.4524 120.8033 7.9502 0.0422 0.2827 3.0981 2.5114 -352.7232 0.2884
6372.0 2.7602 2.5782 2.4986 120.8031 7.9062 0.0480 0.2854 3.1067 2.5250 -352.7500 0.2837
6372.5 2.7380 2.5891 2.5181 116.6939 7.9062 0.0470 0.2913 3.0728 2.5175 -352.5268 0.2868
6373.0 2.7063 2.5449 2.4818 117.3742 7.9062 0.0551 0.2987 3.0477 2.5172 -352.4688 0.2855
6373.5 2.7085 2.5354 2.4697 120.8035 7.8732 0.0600 0.3007 3.0537 2.5133 -352.6250 0.2843
6374.0 2.7053 2.5469 2.4742 117.8286 7.8622 0.0687 0.3110 3.1015 2.5183 -352.7422 0.2844
6374.5 2.6429 2.4705 2.3909 112.8413 7.8842 0.0725 0.3087 3.1606 2.5041 -352.6518 0.2999
6375.0 2.5871 2.4264 2.3377 110.6019 7.8842 0.0859 0.3173 3.2107 2.5106 -352.4844 0.3065
6375.5 2.5373 2.3828 2.2878 115.6459 7.8622 0.0841 0.3176 3.2205 2.5138 -352.4554 0.3107
6376.0 2.5030 2.3445 2.2453 115.7309 7.8732 0.0720 0.3246 3.1993 2.5314 -351.4844 0.3056
6376.5 2.5016 2.3518 2.2428 119.7834 7.9282 0.0602 0.3033 3.1807 2.5396 -351.4732 0.3118
6377.0 2.5123 2.3547 2.2299 118.3098 7.8842 0.0606 0.3185 3.1791 2.5274 -351.3984 0.3010
6377.5 2.4567 2.3027 2.1886 120.0380 7.9062 0.0710 0.3180 3.1839 2.5142 -351.6696 0.3197
6378.0 2.4132 2.2576 2.1415 115.9860 7.9282 0.0741 0.3482 3.1746 2.5040 -352.4922 0.3081
6378.5 2.4199 2.2671 2.1469 116.3260 7.9062 0.0697 0.3245 3.1523 2.5064 -352.1607 0.3310
6379.0 2.4167 2.2655 2.1469 118.3663 7.9282 0.0648 0.3290 3.1178 2.5152 -351.3750 0.3084
6379.5 2.3922 2.2392 2.1250 119.4712 7.9062 0.0622 0.3360 3.0648 2.5195 -351.4107 0.3232
6380.0 2.3670 2.2214 2.1098 119.7263 7.8842 0.0646 0.3335 3.0226 2.5333 -351.4219 0.3320
6380.5 2.3443 2.2024 2.1048 117.6857 7.9062 0.0589 0.3279 3.0182 2.5221 -351.3571 0.3327
6381.0 2.3207 2.1803 2.0989 118.5642 7.8402 0.0568 0.2966 3.0676 2.5195 -351.1797 0.3198
6381.5 2.3273 2.1826 2.0865 119.4426 7.9282 0.0645 0.2886 3.1492 2.5240 -351.3304 0.2948
6382.0 2.3218 2.1781 2.0835 119.3017 7.9062 0.0774 0.2924 3.2182 2.5166 -351.4063 0.2911
6382.5 2.3145 2.1742 2.0822 119.5565 7.8842 0.1003 0.3151 3.2519 2.5123 -351.3750 0.2868
6383.0 2.3305 2.2386 2.1432 119.0752 7.8622 0.1173 0.3217 3.2521 2.4907 -351.2813 0.3026
6383.5 2.3908 2.2759 2.1902 121.9369 7.8842 0.1296 0.3144 3.2398 2.5139 -351.0804 0.3013
6384.0 2.4395 2.3652 2.2954 125.1108 7.8622 0.1151 0.2968 3.2615 2.5381 -351.1250 0.2944
6384.5 2.6367 2.4620 2.3864 119.7548 7.8842 0.0798 0.3006 3.2871 2.5604 -351.2143 0.2825
6385.0 2.8572 2.7603 2.7245 117.9415 7.8622 0.0588 0.2975 3.3096 2.5769 -351.2969 0.2879
6385.5 2.6654 2.6642 2.6156 112.9256 7.8183 0.0393 0.3062 3.2311 2.5501 -351.3839 0.2859
6386.0 2.5149 2.3412 2.3560 114.6824 7.8842 0.0428 0.3074 3.1313 2.5333 -351.3203 0.2974
6386.5 2.3878 2.1030 2.0816 115.2200 7.8622 0.0374 0.3211 3.0338 2.4937 -351.2768 0.3074
6387.0 2.1938 2.0540 2.0140 117.7424 7.8183 0.0539 0.3364 3.0299 2.4864 -351.1719 0.3205
6387.5 2.2340 2.1107 2.1783 120.1512 7.8622 0.0651 0.3500 3.0573 2.4790 -351.0714 0.3270
6388.0 2.2926 2.1557 2.1173 120.2934 8.0601 0.0733 0.3426 3.0800 2.4870 -351.1016 0.3288
6388.5 2.2951 2.1596 2.0846 120.3499 7.8842 0.0644 0.3448 3.0739 2.4908 -351.0000 0.3309
6389.0 2.2908 2.1615 2.0509 119.5282 7.8402 0.0629 0.3363 3.0705 2.5094 -350.8984 0.3423
6389.5 2.2862 2.1450 2.0560 114.4275 7.8842 0.0620 0.3365 3.0870 2.5148 -350.8125 0.3364
6390.0 2.2713 2.1325 2.0375 113.9169 7.8622 0.0687 0.3295 3.1045 2.5240 -350.9453 0.3342
6390.5 2.2557 2.1035 2.0138 119.4996 7.8402 0.0702 0.3333 3.1129 2.5143 -351.0714 0.3237
6391.0 2.2513 2.0937 1.9984 124.3737 7.8842 0.0699 0.3323 3.1223 2.5024 -351.1328 0.3298
6391.5 2.2887 2.1277 2.0303 125.5077 7.8402 0.0750 0.3474 3.1586 2.4878 -350.7589 0.3208
6392.0 2.3530 2.1992 2.0884 121.5400 7.8622 0.0901 0.3290 3.1984 2.4940 -350.7891 0.3266
6392.5 2.4133 2.2474 2.1515 119.8400 7.8842 0.1065 0.3302 3.2121 2.5184 -350.7321 0.3168
6393.0 2.3122 2.1755 2.0942 114.3992 7.8512 0.0940 0.3240 3.1641 2.5281 -350.6406 0.3211
6393.5 2.2823 2.1218 2.0614 114.7962 7.9062 0.0703 0.3353 3.0802 2.5334 -350.6071 0.3152
6394.0 2.2558 2.1044 2.0434 116.7228 7.8842 0.0491 0.3420 3.0080 2.5279 -350.5391 0.3295
6394.5 2.3040 2.1512 2.0878 119.1603 7.9282 0.0501 0.3213 2.9928 2.5353 -350.6484 0.3346
6395.0 2.3480 2.1932 2.1368 118.5081 7.9062 0.0554 0.3267 3.0317 2.5173 -350.8125 0.3120
6395.5 2.3367 2.1740 2.1132 114.8811 7.9392 0.0687 0.3098 3.0860 2.5067 -350.7344 0.3122
6396.0 2.2655 2.1172 2.0564 114.6824 7.9282 0.0889 0.3092 3.1175 2.4990 -350.6607 0.3020
6396.5 2.1753 2.0479 1.9846 118.0832 8.0161 0.1133 0.3016 3.1314 2.4986 -350.7031 0.3094
6397.0 2.1156 1.9846 1.9294 119.9815 8.0161 0.1285 0.3040 3.1350 2.4875 -350.5089 0.3048
6397.5 2.0589 1.9284 1.8555 121.8236 7.9831 0.1336 0.3089 3.1216 2.4848 -350.4375 0.2992
6398.0 2.0047 1.8851 1.8067 116.4960 7.9722 0.1214 0.3211 3.0857 2.4850 -350.5000 0.2982
6398.5 1.9620 1.8433 1.7655 118.2247 7.9282 0.0988 0.3309 3.0694 2.4926 -350.5268 0.3152
6399.0 2.0294 1.8742 1.7835 113.8035 7.9282 0.0822 0.3391 3.0868 2.4891 -350.6484 0.3118
6399.5 2.1210 1.9824 1.8813 117.7714 7.9392 0.0881 0.3462 3.1105 2.4982 -350.7321 0.3204
6400.0 2.1161 1.9923 1.8875 115.8444 7.9062 0.0966 0.3538 3.0631 2.4899 -350.5703 0.3360
6400.5 2.1407 1.9836 1.8840 118.6782 7.9172 0.1030 0.3713 3.0101 2.4889 -350.4911 0.3459
6401.0 2.1706 2.0134 1.9092 117.7711 7.8842 0.0875 0.3568 2.9613 2.4772 -350.6484 0.3525
6401.5 2.2202 2.0506 1.9471 116.7792 7.9062 0.0867 0.3286 2.9590 2.4860 -350.7143 0.3405
6402.0 2.2332 2.0923 1.9915 119.4997 7.9282 0.0911 0.3115 2.9512 2.4913 -351.0078 0.3164
6402.5 2.3060 2.1505 2.0531 120.2081 7.9502 0.1062 0.3006 2.9593 2.4847 -351.0268 0.3135
6403.0 2.4280 2.2513 2.1441 125.6210 7.8622 0.1223 0.3324 2.9915 2.4761 -351.1016 0.3082
6403.5 2.4577 2.2779 2.1714 125.2244 7.9282 0.1403 0.3421 3.0595 2.4748 -351.0179 0.3301
6404.0 2.3274 2.1621 2.0741 119.7550 7.9282 0.1599 0.3235 3.1391 2.5056 -350.9141 0.3337
6404.5 2.2057 2.0663 1.9825 112.5570 7.9282 0.1618 0.3364 3.1965 2.5294 -350.9554 0.3133
6405.0 2.1247 1.9984 1.9271 106.8329 7.9282 0.1503 0.3220 3.2088 2.5327 -350.6484 0.3159
6405.5 2.0972 1.9876 1.9087 109.9216 7.8952 0.1347 0.3745 3.1883 2.5177 -350.3393 0.3125
6406.0 2.1173 1.9848 1.9121 112.8122 8.0821 0.1205 0.3538 3.1493 2.5040 -350.4453 0.3491
