~VERSION INFORMATION
VERS.           2.0   :CWLS Log ASCII Standard - VERSION 2.0
WRAP.           NO    :One Line per depth step
PROD.  Schlumberger   :LAS Producer
PROG.  DLIS to ASCII 19C2-270                          :LAS Program name and version
CREA.        2013/08/28 17:00                          :LAS Creation date {YYYY/MM/DD hh:mm}
DLIS_CREA.  2013-Aug-28 16:23                          :DLIS Creation date and time {YYYY-MMM-DD hh:mm}
SOURCE.     Bear_Oil_Marquardt_43_31_Main_DLIS.dlis    :DLIS File Name
FILE-ID.     MaxWell_5Dlis                             :File Identification Number
#--------------------------------------------------
~WELL INFORMATION
#MNEM.UNIT      DATA             DESCRIPTION
#---- ------ --------------   -----------------------------
STRT .F      1000.5          :START DEPTH        # original; data subset to 5500-8000
STOP .F      7710.0          :STOP DEPTH        # original; data subset to 5500-8000
STEP .F       0.5            :STEP     
NULL .          -999.25      :NULL VALUE
COMP .        Bear Oil and Gas, Inc.                   :COMPANY
WELL .        Marquardt 43 31                          :WELL
FLD  .        Wildcat                                  :FIELD
LOC  .        NESE 1627' FSL & 170' FEL                :LOCATION
CNTY .        Laramie                                  :COUNTY
STAT .        Wyoming                                  :STATE
CTRY .        United States                            :COUNTRY
API  .        049-021-21034                            :API NUMBER
UWI  .        049021210340000                          :UNIQUE WELL ID
DATE .        28-Aug-2013                              :LOG DATE {DD-MMM-YYYY}
SRVC .        Schlumberger                             :SERVICE COMPANY
LATI .DEG     41.306700 degrees                        :LATITUDE
LONG .DEG     -104.11980 degrees                       :LONGITUDE
GDAT .                                                 :GeoDetic Datum
SECT .        31                                       :Section
RANG .        60W                                      :Range
TOWN .        16N                                      :Township
#-----------------------------------------------------------------------------
~PARAMETER INFORMATION
#MNEM.UNIT    VALUE                      DESCRIPTION
#---- -----   --------------------       ------------------------
CN   .        Bear Oil and Gas  Inc.     :Company Name
WN   .        Marquardt 43 31            :Well Name
FN   .        Wildcat                    :Field Name
FL   .        NESE 1627' FSL & 170' FEL  :Field Location
FL1  .        Sec. 31  T. 16N  R. 60W    :Field Location, Line 1
COUN .        Laramie                    :County or Parish
STAT .        Wyoming                    :State or Province
NATI .        United States              :Nation
DATE .        28-Aug-2013                :Tools Above Rotary Table Date
APIN .        049-021-21034              :API Well Number
SECT .        31                         :Section
TOWN .        16N                        :Township
RANG .        60W                        :Range
DMF  .        KB                         :Drilling Measured From (Name of Drilling Elevation Reference)
LMF  .        KB                         :Logging Measured From (Name of Logging Elevation Reference)
PDAT .        GL                         :Permanent Datum
ENGI .        Max Pace                   :Engineer s Name
WITN .        Terry Eittreim             :Witness s Name
LATI .        41.306700 degrees          :Latitude
LONG .        -104.11980 degrees         :Longitude
LUL  .        Fort Morgan  CO            :Logging Unit Location
LUN  .        3022                       :Logging Unit Number
RUN  .        Run 1                      :Run Number
SON  .        CA0R-00043                 :Service Order Number
BHT  .DEGF     166.00000                 :Bottom Hole Temperature
BS   .IN         7.87500                 :Bit Size
MDEN .G/C3       2.65000                 :Matrix Density for Density Porosity
DFD  .LB/G       8.90000                 :Drilling Fluid Density
DFV  .S         65.00000                 :Drilling Fluid Viscosity
DFL  .C3         9.00000                 :Drilling Fluid Loss
RMFS .OHMM       1.11000                 :Resistivity of Mud Filtrate Sample
EKB  .F       5298.00000                 :Elevation of Kelly Bushing
EGL  .F       5286.00000                 :Elevation of Ground Level
BLI  .F       7686.00000                 :Bottom Log Interval
BSAL .PPM     3335.81519                 :Borehole Salinity
FLEV .F          8.00000                 :Depth of Drilling Fluid Level to LMF (Log Measured From)
MCST .DEGF      83.00000                 :Mudcake Sample Temperature
MFST .DEGF      83.00000                 :Mud Filtrate Sample Temperature
MRT  .DEGF     166.00000                 :Maximum Recorded Temperature
MST  .DEGF      83.00000                 :Mud Sample Temperature
RMCS .OHMM       1.85000                 :Resistivity of Mud Cake Sample
RMS  .OHMM       1.48000                 :Resistivity of Mud Sample
RW   .OHMM       1.00000                 :Connate Water Resistivity
TDD  .F       7680.00000                 :Driller Total Depth
TDL  .F       7686.00000                 :Logger Total Depth
TLI  .F       1025.00000                 :Top Log Interval
HIDE .        Wildcat                    :Header Identifier
MATR .        SAND                       :Rock Matrix for Neutron Porosity Corrections
FNUM .           1.00000                 :F-Numerator for Formation Factor Formula
FEXP .           2.00000                 :Exponent "m" for Formation Factor Formula
DFT  .        WATER                      :Drilling Fluid Type
DFPH .           8.00000                 :Drilling Fluid pH
MCSS .        Calculated                 :Mudcake Sample Source
MFSS .        Calculated                 :Mud Filtrate Sample Source
FD   .G/C3       1.00000                 :Fluid Density
MSS  .        Active Tank                :Mud Sample Source
OS1  .                                   :Other Services Line 1
OS2  .                                   :Other Services Line 2
OS3  .                                   :Other Services Line 3
OS4  .                                   :Other Services Line 4
OS5  .                                   :Other Services Line 5
R1   .                                   :Remarks Line 1
R2   .                                   :Remarks Line 2
R3   .                                   :Remarks Line 3
R4   .                                   :Remarks Line 4
R5   .                                   :Remarks Line 5
R6   .                                   :Remarks Line 6
R7   .                                   :Remarks Line 7
R8   .                                   :Remarks Line 8
TCS  .        05 00 00                   :Time Circulation Stopped
TLAB .        14 30 25                   :Time Logger At Bottom
NMT  .        NOBARITE                   :HRDD Mud Type for Nuclear Devices
EPD  .F         5286.000000              :Elevation of Permanent Datum above Mean Sea Level
APD  .F          12.000000               :Elevation of Depth Reference (LMF) above Permanent Datum
#-----------------------------------------------------------------------------
~CURVE INFORMATION
#MNEM.UNIT   API CODE                                  DESCRIPTION
#---- -----  --------                                  -----------------------
DEPT .F                                                :DEPTH (BOREHOLE) {F10.1}
AT10 .OHMM                                             :Array Induction Two Foot Resistivity A10 {F11.4}
AT30 .OHMM                                             :Array Induction Two Foot Resistivity A30 {F11.4}
AT90 .OHMM                                             :Array Induction Two Foot Resistivity A90 {F11.4}
GR   .GAPI                                             :Gamma Ray {F11.4}
HCAL .IN                                               :HRCC Caliper Calibrated {F11.4}
HDRA .G/C3                                             :Density Standoff Correction {F11.4}
NPHI .CFCF                                             :Thermal Neutron Porosity (original Ratio Method) in Selected Lithology {F11.4}
PEFZ .                                                 :Standard Resolution Formation Photoelectric Factor {F11.4}
RHOZ .G/C3                                             :Standard Resolution Formation Density {F11.4}
SP   .MV                                               :Spontaneous Potential {F11.4}
TNPH .CFCF                                             :Thermal Neutron Porosity (Ratio Method) in Selected Lithology {F11.4}
#-----------------------------------------------------------------------------
# 
#     DEPT       AF10       AF20       AF30       AF60       AF90       AO10       AO20       AO30       AO60       AO90       AT10       AT20       AT30       AT60       AT90     AHFCO60      AHMF      AHORT      AHORX      AHSCA     AHTCO10    AHTCO20    AHTCO30    AHTCO60    AHTCO90     AHTD1      AHTD2      AHTRT      AHTRX       CDF        CFTC       CNTC       CTEM       DCAL       DNPH       DPHZ       DSOZ       ECGR        ED        GDEV        GR        GTEM       HCAL       HDRA       HDRB       HGR        HMIN       HMNO       HNPO       HPRA       HTNP        ND        NPHI       NPOR       PEFZ    PXND_HILT     RHOZ       RSOZ     RWA_HILT     RXO8       RXOZ        SP        SPAR       STIT       TENS       TNPH     HTNP_SAN
#
~A  DEPT AT10 AT30 AT90 GR HCAL HDRA NPHI PEFZ RHOZ SP TNPH
# ...
5773.0 2.2916 2.2517 2.2510 114.2875 8.3651 0.0585 0.3200 3.0510 2.4998 -75.0208 0.3178
5773.5 2.2465 2.2005 2.1943 117.0107 8.0685 0.0535 0.3172 3.0197 2.4988 -75.0089 0.3195
5774.0 2.1965 2.1508 2.1650 126.6063 8.2282 0.0616 0.3302 3.0271 2.4830 -74.8854 0.3071
5774.5 2.1349 2.1092 2.0964 122.3701 8.0913 0.0721 0.3284 3.0404 2.4936 -74.6875 0.3324
5775.0 2.1804 2.1464 2.1239 120.1227 7.9772 0.0766 0.3290 3.0710 2.5042 -74.4896 0.3251
5775.5 2.2172 2.1616 2.1229 107.8905 8.1826 0.0817 0.3191 3.1375 2.5179 -74.5446 0.3190
5776.0 2.2918 2.2488 2.2073 106.9827 8.1826 0.1023 0.3132 3.2244 2.5416 -74.8438 0.3181
5776.5 2.2379 2.2016 2.1608 112.4288 7.9772 0.1142 0.3077 3.2323 2.5367 -74.7396 0.3188
5777.0 2.1400 2.0761 2.0550 119.9928 8.4107 0.1203 0.2979 3.1595 2.5312 -74.7500 0.3092
5777.5 2.0555 2.0119 1.9760 116.9674 8.0685 0.1169 0.3111 3.0918 2.4962 -74.7917 0.3029
5778.0 2.0573 2.0164 1.9848 112.5587 8.2966 0.1205 0.3236 3.0602 2.4936 -74.7589 0.2974
5778.5 2.0674 2.0191 1.9869 109.7056 7.9772 0.1213 0.3365 3.0525 2.4925 -74.6875 0.3050
5779.0 2.0755 2.0339 1.9926 113.0336 8.1597 0.1146 0.3289 3.0298 2.4972 -74.8661 0.3266
5779.5 2.0870 2.0512 2.0146 108.4947 8.1369 0.1098 0.3283 3.0211 2.4964 -74.9375 0.3270
5780.0 2.0254 1.9980 1.9638 107.1982 8.0228 0.1079 0.3287 3.0225 2.4868 -74.8214 0.3326
5780.5 1.9973 1.9445 1.9151 116.5781 8.5248 0.1064 0.3235 3.0320 2.4891 -74.6354 0.3164
5781.0 1.9582 1.9148 1.8801 120.5979 8.0913 0.0987 0.3675 3.0470 2.4777 -74.5089 0.3215
5781.5 1.9139 1.8765 1.8310 130.7991 8.0913 0.1020 0.3927 3.0810 2.4842 -74.2708 0.3520
5782.0 1.8564 1.8145 1.7785 122.0242 8.4792 0.1054 0.4017 3.1090 2.4737 -74.3333 0.3718
5782.5 1.8502 1.8080 1.7654 122.8027 8.1597 0.1158 0.3899 3.1407 2.4848 -74.4911 0.3917
5783.0 1.8697 1.8282 1.7916 119.4745 8.2054 0.1119 0.3775 3.1618 2.4836 -74.5833 0.3738
5783.5 1.8777 1.8288 1.7936 124.0996 8.1826 0.1077 0.3620 3.1736 2.4919 -74.5446 0.3596
5784.0 1.9532 1.8843 1.8467 116.8808 8.1255 0.0912 0.3425 3.1352 2.4842 -74.5208 0.3480
5784.5 2.0123 1.9580 1.9002 120.9010 8.1597 0.0786 0.3186 3.0629 2.4991 -74.4821 0.3312
5785.0 2.0767 2.0201 1.9810 114.4601 8.3195 0.0598 0.3244 2.9833 2.5092 -74.4167 0.3084
5785.5 2.1065 2.0634 2.0274 118.9989 8.0685 0.0527 0.3278 2.9398 2.5154 -74.5000 0.3135
5786.0 2.1119 2.0540 2.0273 111.9961 8.0000 0.0539 0.3488 2.9392 2.5154 -74.5804 0.3243
5786.5 2.0895 2.0242 1.9974 122.5867 7.8631 0.0606 0.3620 2.9582 2.5035 -74.4792 0.3437
5787.0 2.0622 1.9964 1.9691 123.9697 8.1597 0.0733 0.3618 3.0035 2.4925 -74.5446 0.3434
5787.5 2.0047 1.9619 1.9346 132.3986 7.8745 0.0943 0.3788 3.0411 2.4929 -74.4583 0.3533
5788.0 1.9595 1.9132 1.8860 123.3217 7.9772 0.1100 0.3869 3.0551 2.5028 -74.2232 0.3710
5788.5 1.9144 1.8985 1.8708 119.6908 8.0913 0.1107 0.3955 3.0652 2.5187 -74.1771 0.3698
5789.0 1.9390 1.8951 1.8645 114.8493 8.0913 0.1049 0.3764 3.1465 2.5218 -74.3571 0.3792
5789.5 2.0008 1.9444 1.9122 109.9212 8.1826 0.1167 0.3691 3.2727 2.5223 -74.5104 0.3574
5790.0 2.0347 1.9853 1.9505 108.8404 7.8859 0.1542 0.3621 3.3327 2.5208 -74.4167 0.3630
5790.5 1.9295 1.8803 1.8513 106.5500 8.1597 0.1748 0.3846 3.2465 2.4945 -74.2946 0.3679
5791.0 1.8493 1.7881 1.7677 109.6623 8.4450 0.1769 0.3542 3.1231 2.4892 -74.3571 0.3849
5791.5 1.8800 1.7947 1.7716 110.2674 8.6161 0.1466 0.3546 3.0778 2.4792 -74.3750 0.3483
5792.0 1.9192 1.8744 1.8421 108.1926 8.0685 0.1270 0.3301 3.1371 2.4941 -74.6354 0.3406
5792.5 1.9663 1.9155 1.8850 110.6131 7.8631 0.1164 0.3598 3.1915 2.4892 -74.5804 0.3206
5793.0 1.9359 1.8777 1.8501 113.4231 7.9087 0.1266 0.3468 3.1887 2.4920 -74.5938 0.3435
5793.5 1.9088 1.8545 1.8229 108.7112 8.0913 0.1395 0.3535 3.1632 2.4984 -74.5446 0.3341
5794.0 1.9484 1.8877 1.8541 109.6192 8.4107 0.1468 0.3646 3.1581 2.5099 -74.4375 0.3325
5794.5 1.9798 1.9123 1.8766 104.6913 8.3195 0.1433 0.3688 3.1593 2.5205 -74.1071 0.3503
5795.0 2.0024 1.9341 1.8970 109.5330 8.1369 0.1325 0.3734 3.1295 2.5121 -74.1042 0.3523
5795.5 2.0216 1.9547 1.9158 109.3167 8.2510 0.1214 0.3459 3.0832 2.5042 -74.1429 0.3585
5796.0 2.0231 1.9589 1.9282 114.7628 7.7946 0.1106 0.3501 3.0745 2.4992 -74.1563 0.3431
5796.5 2.0754 2.0051 1.9648 112.8175 7.9772 0.0994 0.3305 3.0862 2.4941 -74.1667 0.3294
5797.0 2.1293 2.0781 2.0216 112.7313 7.8859 0.1071 0.3260 3.0959 2.4927 -74.2500 0.3218
5797.5 2.0817 2.0527 2.0104 107.2849 7.8403 0.1132 0.3261 3.0434 2.4855 -74.4063 0.3316
5798.0 2.0146 1.9685 1.9463 112.9912 8.1369 0.1084 0.3385 2.9627 2.4784 -74.2946 0.3229
5798.5 1.9748 1.9245 1.8937 108.4518 8.0913 0.0988 0.3411 2.9533 2.4755 -74.1354 0.3305
5799.0 1.9459 1.8955 1.8662 111.0457 8.1141 0.1098 0.3514 3.0308 2.4623 -74.1696 0.3438
5799.5 1.9202 1.8698 1.8399 104.2587 8.3423 0.1569 0.3401 3.1346 2.4662 -74.3958 0.3521
5800.0 1.8813 1.8421 1.8193 101.6227 7.8859 0.1864 0.3574 3.1513 2.4490 -74.3333 0.3389
5800.5 1.8518 1.8086 1.7885 100.8444 8.2510 0.2007 0.3291 3.0950 2.4519 -74.3036 0.3465
5801.0 1.8294 1.7958 1.7698 105.3828 8.3423 0.1944 0.3320 3.0311 2.4393 -73.9583 0.3194
5801.5 1.8363 1.8016 1.7736 113.9416 8.0685 0.1965 0.3238 2.9748 2.4581 -73.7500 0.3237
5802.0 1.8732 1.8219 1.7883 120.5978 8.2510 0.1878 0.3479 2.9380 2.4655 -74.0089 0.3100
5802.5 1.9158 1.8714 1.8331 117.9184 8.0000 0.1812 0.3672 2.9130 2.4742 -74.0313 0.3351
5803.0 1.9069 1.8506 1.8134 114.7196 8.0913 0.1779 0.3580 2.9109 2.4578 -74.0521 0.3514
5803.5 1.8453 1.7975 1.7704 109.8787 8.3195 0.1770 0.3349 2.9083 2.4481 -74.0179 0.3508
5804.0 1.7971 1.7526 1.7207 117.7020 8.4107 0.1627 0.3277 2.9122 2.4354 -74.1042 0.3301
5804.5 1.7935 1.7547 1.7298 114.3734 8.3423 0.1500 0.3847 2.9295 2.4305 -74.2500 0.3196
5805.0 1.8159 1.7723 1.7472 110.7430 8.0456 0.1540 0.4101 2.9544 2.4344 -74.1042 0.3609
5805.5 1.8387 1.7933 1.7637 103.4811 8.2966 0.1722 0.3989 2.9856 2.4498 -74.0268 0.3756
5806.0 1.8255 1.7752 1.7447 104.3022 8.1369 0.1921 0.3556 3.0438 2.4834 -74.0208 0.3758
5806.5 1.7876 1.7339 1.7042 106.4195 8.4792 0.1959 0.3224 3.1171 2.4834 -74.0268 0.3395
5807.0 1.7454 1.6979 1.6675 114.2874 7.8403 0.1942 0.3444 3.1428 2.4814 -74.0208 0.3314
5807.5 1.7102 1.6591 1.6328 112.4722 8.4792 0.1806 0.3542 3.1079 2.4502 -73.8229 0.3355
5808.0 1.6853 1.6359 1.6088 104.3029 8.2966 0.1708 0.4159 3.0573 2.4511 -73.8393 0.3608
5808.5 1.6687 1.6266 1.5887 94.0582 8.4792 0.1552 0.4092 3.0453 2.4455 -74.0208 0.4000
5809.0 1.7128 1.6442 1.6096 95.0519 8.2966 0.1474 0.4087 3.0633 2.4608 -74.0000 0.3841
5809.5 1.7544 1.6923 1.6518 105.2537 8.1597 0.1294 0.3812 3.0766 2.4665 -73.7917 0.3753
5810.0 1.8063 1.7373 1.6908 105.2103 7.9544 0.1104 0.3722 3.0974 2.4887 -73.8571 0.3604
5810.5 1.8900 1.8082 1.7665 103.1789 8.4564 0.0979 0.3523 3.1366 2.4877 -74.0104 0.3487
5811.0 1.8881 1.8142 1.7763 103.2646 7.8403 0.1281 0.3833 3.1723 2.5069 -74.0714 0.3510
5811.5 1.8064 1.7271 1.7041 106.4199 8.1597 0.1629 0.3791 3.1340 2.4926 -74.0313 0.3765
5812.0 1.7639 1.6856 1.6585 106.6365 8.0456 0.1834 0.3897 3.0469 2.4883 -73.8854 0.3717
5812.5 1.7470 1.6733 1.6484 109.9650 8.1141 0.1750 0.3743 2.9778 2.4794 -73.8304 0.3633
5813.0 1.7217 1.6507 1.6227 110.4839 8.2966 0.1759 0.3814 2.9889 2.4913 -73.9375 0.3559
5813.5 1.7003 1.6359 1.5931 116.8375 8.3195 0.1920 0.3671 3.0473 2.5005 -73.6786 0.3807
5814.0 1.6968 1.6219 1.5719 112.3854 8.2738 0.2030 0.3620 3.1125 2.4814 -73.6667 0.3611
5814.5 1.7016 1.6175 1.5468 109.0140 8.5248 0.1987 0.3463 3.1499 2.4735 -73.7500 0.3496
5815.0 1.7128 1.6306 1.5425 103.7408 8.3195 0.1796 0.3616 3.1621 2.4793 -73.7083 0.3384
5815.5 1.7444 1.6591 1.5636 104.2592 8.2966 0.1535 0.3729 3.1421 2.4891 -73.5729 0.3426
5816.0 1.7920 1.6987 1.5746 109.4457 8.1369 0.1139 0.3457 3.1492 2.4898 -73.4643 0.3494
5816.5 1.9627 1.9039 1.7121 100.8008 8.2738 0.0732 0.3219 3.2141 2.4615 -73.7292 0.3183
5817.0 2.0294 1.9690 1.7618 88.6983 7.9087 0.0808 0.3067 3.3430 2.4701 -74.0089 0.3192
5817.5 1.8033 1.7250 1.6005 85.3268 7.8403 0.1124 0.3473 3.3745 2.4578 -74.0208 0.3246
5818.0 1.6703 1.5890 1.5222 95.9168 8.2510 0.1534 0.3766 3.2929 2.4638 -74.1250 0.3520
