~VERSION INFORMATION
VERS.           2.0   :CWLS Log ASCII Standard - VERSION 2.0
WRAP.           NO    :One Line per depth step
PROD.  Schlumberger   :LAS Producer
PROG.  DLIS to ASCII 19C2-270                          :LAS Program name and version
CREA.        2013/08/28 17:00                          :LAS Creation date {YYYY/MM/DD hh:mm}
DLIS_CREA.  2013-Aug-28 16:23                          :DLIS Creation date and time {YYYY-MMM-DD hh:mm}
SOURCE.     Bear_Oil_Marquardt_43_31_Main_DLIS.dlis    :DLIS File Name
FILE-ID.     MaxWell_5Dlis                             :File Identification Number
#--------------------------------------------------
~WELL INFORMATION
#MNEM.UNIT      DATA             DESCRIPTION
#---- ------ --------------   -----------------------------
STRT .F      1000.5          :START DEPTH        # original; data subset to 5500-8000
STOP .F      7710.0          :STOP DEPTH        # original; data subset to 5500-8000
STEP .F       0.5            :STEP     
NULL .          -999.25      :NULL VALUE
COMP .        Bear Oil and Gas, Inc.                   :COMPANY
WELL .        Marquardt 43 31                          :WELL
FLD  .        Wildcat                                  :FIELD
LOC  .        NESE 1627' FSL & 170' FEL                :LOCATION
CNTY .        Laramie                                  :COUNTY
STAT .        Wyoming                                  :STATE
CTRY .        United States                            :COUNTRY
API  .        049-021-21034                            :API NUMBER
UWI  .        049021210340000                          :UNIQUE WELL ID
DATE .        28-Aug-2013                              :LOG DATE {DD-MMM-YYYY}
SRVC .        Schlumberger                             :SERVICE COMPANY
LATI .DEG     41.306700 degrees                        :LATITUDE
LONG .DEG     -104.11980 degrees                       :LONGITUDE
GDAT .                                                 :GeoDetic Datum
SECT .        31                                       :Section
RANG .        60W                                      :Range
TOWN .        16N                                      :Township
#-----------------------------------------------------------------------------
~PARAMETER INFORMATION
#MNEM.UNIT    VALUE                      DESCRIPTION
#---- -----   --------------------       ------------------------
CN   .        Bear Oil and Gas  Inc.     :Company Name
WN   .        Marquardt 43 31            :Well Name
FN   .        Wildcat                    :Field Name
FL   .        NESE 1627' FSL & 170' FEL  :Field Location
FL1  .        Sec. 31  T. 16N  R. 60W    :Field Location, Line 1
COUN .        Laramie                    :County or Parish
STAT .        Wyoming                    :State or Province
NATI .        United States              :Nation
DATE .        28-Aug-2013                :Tools Above Rotary Table Date
APIN .        049-021-21034              :API Well Number
SECT .        31                         :Section
TOWN .        16N                        :Township
RANG .        60W                        :Range
DMF  .        KB                         :Drilling Measured From (Name of Drilling Elevation Reference)
LMF  .        KB                         :Logging Measured From (Name of Logging Elevation Reference)
PDAT .        GL                         :Permanent Datum
ENGI .        Max Pace                   :Engineer s Name
WITN .        Terry Eittreim             :Witness s Name
LATI .        41.306700 degrees          :Latitude
LONG .        -104.11980 degrees         :Longitude
LUL  .        Fort Morgan  CO            :Logging Unit Location
LUN  .        3022                       :Logging Unit Number
RUN  .        Run 1                      :Run Number
SON  .        CA0R-00043                 :Service Order Number
BHT  .DEGF     166.00000                 :Bottom Hole Temperature
BS   .IN         7.87500                 :Bit Size
MDEN .G/C3       2.65000                 :Matrix Density for Density Porosity
DFD  .LB/G       8.90000                 :Drilling Fluid Density
DFV  .S         65.00000                 :Drilling Fluid Viscosity
DFL  .C3         9.00000                 :Drilling Fluid Loss
RMFS .OHMM       1.11000                 :Resistivity of Mud Filtrate Sample
EKB  .F       5298.00000                 :Elevation of Kelly Bushing
EGL  .F       5286.00000                 :Elevation of Ground Level
BLI  .F       7686.00000                 :Bottom Log Interval
BSAL .PPM     3335.81519                 :Borehole Salinity
FLEV .F          8.00000                 :Depth of Drilling Fluid Level to LMF (Log Measured From)
MCST .DEGF      83.00000                 :Mudcake Sample Temperature
MFST .DEGF      83.00000                 :Mud Filtrate Sample Temperature
MRT  .DEGF     166.00000                 :Maximum Recorded Temperature
MST  .DEGF      83.00000                 :Mud Sample Temperature
RMCS .OHMM       1.85000                 :Resistivity of Mud Cake Sample
RMS  .OHMM       1.48000                 :Resistivity of Mud Sample
RW   .OHMM       1.00000                 :Connate Water Resistivity
TDD  .F       7680.00000                 :Driller Total Depth
TDL  .F       7686.00000                 :Logger Total Depth
TLI  .F       1025.00000                 :Top Log Interval
HIDE .        Wildcat                    :Header Identifier
MATR .        SAND                       :Rock Matrix for Neutron Porosity Corrections
FNUM .           1.00000                 :F-Numerator for Formation Factor Formula
FEXP .           2.00000                 :Exponent "m" for Formation Factor Formula
DFT  .        WATER                      :Drilling Fluid Type
DFPH .           8.00000                 :Drilling Fluid pH
MCSS .        Calculated                 :Mudcake Sample Source
MFSS .        Calculated                 :Mud Filtrate Sample Source
FD   .G/C3       1.00000                 :Fluid Density
MSS  .        Active Tank                :Mud Sample Source
OS1  .                                   :Other Services Line 1
OS2  .                                   :Other Services Line 2
OS3  .                                   :Other Services Line 3
OS4  .                                   :Other Services Line 4
OS5  .                                   :Other Services Line 5
R1   .                                   :Remarks Line 1
R2   .                                   :Remarks Line 2
R3   .                                   :Remarks Line 3
R4   .                                   :Remarks Line 4
R5   .                                   :Remarks Line 5
R6   .                                   :Remarks Line 6
R7   .                                   :Remarks Line 7
R8   .                                   :Remarks Line 8
TCS  .        05 00 00                   :Time Circulation Stopped
TLAB .        14 30 25                   :Time Logger At Bottom
NMT  .        NOBARITE                   :HRDD Mud Type for Nuclear Devices
EPD  .F         5286.000000              :Elevation of Permanent Datum above Mean Sea Level
APD  .F          12.000000               :Elevation of Depth Reference (LMF) above Permanent Datum
#-----------------------------------------------------------------------------
~CURVE INFORMATION
#MNEM.UNIT   API CODE                                  DESCRIPTION
#---- -----  --------                                  -----------------------
DEPT .F                                                :DEPTH (BOREHOLE) {F10.1}
AT10 .OHMM                                             :Array Induction Two Foot Resistivity A10 {F11.4}
AT30 .OHMM                                             :Array Induction Two Foot Resistivity A30 {F11.4}
AT90 .OHMM                                             :Array Induction Two Foot Resistivity A90 {F11.4}
GR   .GAPI                                             :Gamma Ray {F11.4}
HCAL .IN                                               :HRCC Caliper Calibrated {F11.4}
HDRA .G/C3                                             :Density Standoff Correction {F11.4}
NPHI .CFCF                                             :Thermal Neutron Porosity (original Ratio Method) in Selected Lithology {F11.4}
PEFZ .                                                 :Standard Resolution Formation Photoelectric Factor {F11.4}
RHOZ .G/C3                                             :Standard Resolution Formation Density {F11.4}
SP   .MV                                               :Spontaneous Potential {F11.4}
TNPH .CFCF                                             :Thermal Neutron Porosity (Ratio Method) in Selected Lithology {F11.4}
#-----------------------------------------------------------------------------
# 
#     DEPT       AF10       AF20       AF30       AF60       AF90       AO10       AO20       AO30       AO60       AO90       AT10       AT20       AT30       AT60       AT90     AHFCO60      AHMF      AHORT      AHORX      AHSCA     AHTCO10    AHTCO20    AHTCO30    AHTCO60    AHTCO90     AHTD1      AHTD2      AHTRT      AHTRX       CDF        CFTC       CNTC       CTEM       DCAL       DNPH       DPHZ       DSOZ       ECGR        ED        GDEV        GR        GTEM       HCAL       HDRA       HDRB       HGR        HMIN       HMNO       HNPO       HPRA       HTNP        ND        NPHI       NPOR       PEFZ    PXND_HILT     RHOZ       RSOZ     RWA_HILT     RXO8       RXOZ        SP        SPAR       STIT       TENS       TNPH     HTNP_SAN
#
~A  DEPT AT10 AT30 AT90 GR HCAL HDRA NPHI PEFZ RHOZ SP TNPH
# ...
6501.0 2.0697 1.9449 1.8952 174.9979 7.7946 0.1086 0.3369 3.4104 2.4761 -67.0982 0.2878
6501.5 2.0392 1.9155 1.8649 175.5155 7.7490 0.1289 0.3393 3.3467 2.4872 -67.0804 0.3222
6502.0 1.9824 1.8758 1.8263 166.9574 7.7490 0.1238 0.3345 3.2996 2.4795 -67.1875 0.3434
6502.5 1.9578 1.8646 1.8135 172.9879 7.8631 0.1131 0.3177 3.2579 2.4693 -67.1719 0.3307
6503.0 1.9508 1.8505 1.7987 174.2847 8.1826 0.1063 0.3193 3.2404 2.4580 -67.0625 0.3008
6503.5 1.9540 1.8480 1.7899 182.0651 7.9201 0.0998 0.3380 3.2535 2.4559 -66.8304 0.3005
6504.0 1.9695 1.8552 1.8002 177.3966 7.8631 0.0882 0.3436 3.3345 2.4694 -66.6250 0.3154
6504.5 2.0019 1.8933 1.8170 176.0998 7.9087 0.0876 0.3377 3.5086 2.5097 -66.6016 0.3332
6505.0 1.9725 1.8810 1.7782 168.3194 7.7490 0.1193 0.3229 3.6987 2.5347 -66.6964 0.3402
6505.5 1.8509 1.7575 1.6786 172.9870 7.7490 0.1689 0.3262 3.7324 2.5205 -66.8304 0.3301
6506.0 1.7450 1.6365 1.5717 181.2216 7.8859 0.1923 0.3370 3.5650 2.4541 -66.8839 0.3209
6506.5 1.7028 1.6116 1.5435 184.8531 7.9087 0.1929 0.3483 3.3877 2.4242 -66.7656 0.3114
6507.0 1.8389 1.7067 1.6266 180.1845 7.8859 0.1777 0.3442 3.3567 2.4302 -66.9107 0.3200
6507.5 1.8960 1.7986 1.7059 172.9874 7.8403 0.1565 0.3453 3.3948 2.4599 -67.1607 0.3290
6508.0 1.9376 1.8337 1.7384 172.4678 7.7946 0.1212 0.3491 3.3452 2.4597 -67.2500 0.3332
6508.5 1.9713 1.8565 1.7730 181.2862 7.9315 0.1008 0.3655 3.2385 2.4691 -67.5000 0.3341
6509.0 2.0087 1.8741 1.7961 182.3566 7.7946 0.0969 0.3848 3.1592 2.4657 -67.5179 0.3577
6509.5 2.0325 1.8929 1.8188 180.8008 7.7718 0.1152 0.3873 3.1670 2.4859 -67.3304 0.3731
6510.0 1.9965 1.8796 1.8098 172.2416 8.2282 0.1134 0.3551 3.1683 2.4698 -67.2500 0.3687
6510.5 1.9539 1.8633 1.7976 177.3964 8.0456 0.1089 0.3249 3.1710 2.4725 -67.1964 0.3494
6511.0 1.9652 1.8716 1.8035 177.4285 8.0000 0.0934 0.3128 3.2008 2.4624 -66.8828 0.3189
6511.5 2.0012 1.8906 1.8184 179.2440 7.7718 0.0967 0.3291 3.2759 2.4790 -66.8393 0.3100
6512.0 2.0015 1.9226 1.8457 175.6125 7.8631 0.1118 0.3461 3.3415 2.4879 -66.8482 0.3186
6512.5 1.9920 1.9162 1.8376 184.3995 8.0456 0.1277 0.3533 3.3310 2.5018 -67.0804 0.3268
6513.0 1.9955 1.9024 1.8280 190.1053 7.8859 0.1211 0.3650 3.2602 2.4905 -66.9688 0.3416
6513.5 2.0788 1.9796 1.8814 192.4395 7.9430 0.1146 0.3640 3.2257 2.4942 -67.1518 0.3464
6514.0 2.1517 2.0270 1.9410 187.2509 7.8174 0.1031 0.3683 3.2263 2.4916 -67.3482 0.3555
6514.5 2.1619 2.0455 1.9686 191.6608 7.9315 0.0912 0.3659 3.2769 2.5068 -67.2500 0.3576
6515.0 2.1947 2.0809 2.0035 190.3639 7.8174 0.0641 0.3657 3.3522 2.5065 -67.0547 0.3606
6515.5 2.1779 2.0737 1.9971 195.8101 7.8403 0.0559 0.3650 3.4522 2.5135 -67.0714 0.3648
6516.0 2.0514 1.9740 1.9050 187.9316 7.8289 0.0627 0.3799 3.4634 2.4962 -66.9018 0.3595
6516.5 2.0564 1.9550 1.8996 185.5975 8.2282 0.0796 0.3658 3.3635 2.4725 -67.1786 0.3654
6517.0 2.1296 2.0272 1.9601 178.5966 7.8174 0.0848 0.3731 3.2456 2.4599 -67.1641 0.3523
6517.5 2.1831 2.0768 1.9946 178.4339 7.7946 0.0882 0.3562 3.2428 2.4749 -66.9643 0.3543
6518.0 2.2464 2.1255 2.0572 181.8378 7.9315 0.0954 0.3390 3.3324 2.5101 -67.1071 0.3434
6518.5 2.2490 2.1356 2.0706 183.9116 7.8403 0.1044 0.3341 3.4078 2.5251 -67.3661 0.3407
6519.0 2.1750 2.0778 2.0198 190.9150 7.8403 0.1032 0.3098 3.3943 2.5004 -67.4821 0.3309
6519.5 2.1306 2.0314 1.9866 205.4063 8.0000 0.0897 0.3256 3.3701 2.4596 -67.5313 0.3025
6520.0 2.0782 2.0067 1.9562 214.4834 7.7946 0.0658 0.3259 3.3560 2.4391 -67.4464 0.3143
6520.5 2.1235 2.0139 1.9670 227.9691 7.7832 0.0466 0.3151 3.3551 2.4570 -67.3750 0.3213
6521.0 2.1360 2.0506 1.9891 229.8172 7.7718 0.0256 0.3133 3.2839 2.4740 -67.1518 0.3007
6521.5 2.1634 2.0496 1.9953 243.8232 7.8174 0.0168 0.3350 3.2100 2.4717 -67.2344 0.2932
6522.0 2.2127 2.0753 2.0233 237.3393 7.8174 0.0118 0.3561 3.1520 2.4604 -67.3125 0.3119
6522.5 2.3116 2.1381 2.0739 236.0097 7.7946 0.0092 0.3671 3.1528 2.4529 -67.3929 0.3320
6523.0 2.3609 2.1948 2.1197 216.2979 7.8174 0.0042 0.3637 3.2229 2.4691 -67.9844 0.3461
6523.5 2.3876 2.2262 2.1226 218.5677 7.7946 0.0031 0.3694 3.4072 2.4990 -69.0893 0.3544
6524.0 2.3764 2.2263 2.1485 203.2668 7.7946 0.0173 0.3804 3.5901 2.5469 -68.9554 0.3586
6524.5 2.3116 2.1586 2.1218 208.9723 7.8631 0.0215 0.3627 3.6105 2.5381 -67.8929 0.3689
6525.0 2.2555 2.1267 2.0720 200.7373 7.8403 0.0158 0.3625 3.4904 2.4929 -67.0714 0.3617
6525.5 2.2596 2.1242 2.0614 214.4830 7.8517 0.0041 0.3449 3.3523 2.4520 -66.8203 0.3591
6526.0 2.2724 2.1508 2.0895 231.2444 7.8403 0.0037 0.3541 3.3408 2.4528 -66.6786 0.3511
6526.5 2.3829 2.2598 2.1949 248.1021 7.7946 0.0061 0.3710 3.3777 2.4722 -66.3839 0.3512
6527.0 2.4859 2.3582 2.2972 257.4382 7.8631 0.0028 0.3772 3.5004 2.4770 -66.2054 0.3480
6527.5 2.5671 2.4179 2.3677 259.3509 7.8631 -0.0011 0.3868 3.6038 2.4830 -66.2656 0.3588
6528.0 2.5949 2.4255 2.3806 263.6631 7.8403 0.0018 0.3808 3.7167 2.5025 -66.3482 0.3897
6528.5 2.6277 2.4327 2.4003 265.9982 7.8403 0.0043 0.3918 3.7052 2.5066 -66.2946 0.3838
6529.0 2.6048 2.4448 2.4168 265.9976 7.8403 -0.0001 0.3671 3.6616 2.4932 -66.3571 0.3867
6529.5 2.4890 2.3425 2.3456 268.1692 7.8174 -0.0008 0.3371 3.6251 2.4745 -66.3214 0.3532
6530.0 2.3732 2.2590 2.2472 272.8377 7.7946 -0.0030 0.3332 3.6284 2.4616 -66.1875 0.3262
6530.5 2.4410 2.3282 2.3197 271.8326 7.8403 -0.0006 0.3393 3.6614 2.4605 -66.1786 0.3242
6531.0 2.6306 2.4702 2.4531 274.9448 7.8403 -0.0069 0.3768 3.7360 2.4553 -66.1607 0.3328
6531.5 2.8287 2.6556 2.6304 302.4361 7.8403 -0.0090 0.3988 3.8631 2.4600 -66.0804 0.3629
6532.0 2.9792 2.8294 2.8000 326.0047 7.8403 -0.0108 0.4225 3.9885 2.4590 -66.1250 0.3888
6532.5 2.9524 2.8302 2.8054 343.9005 7.8631 -0.0102 0.4166 4.0094 2.4591 -66.1518 0.4173
6533.0 2.9178 2.7958 2.7673 336.9948 7.8289 -0.0065 0.4149 3.9917 2.4509 -66.2500 0.4114
6533.5 2.9404 2.8186 2.7913 331.8076 7.8403 -0.0062 0.4480 3.9893 2.4398 -66.2232 0.4180
6534.0 3.0161 2.8723 2.8546 326.6197 7.8403 -0.0056 0.4704 4.0168 2.4292 -66.1161 0.4433
6534.5 3.0502 2.9022 2.8821 315.6298 7.8403 -0.0081 0.4588 4.0351 2.4215 -66.1563 0.4805
6535.0 2.9078 2.8237 2.8279 309.4054 7.8403 -0.0048 0.4447 3.9954 2.4216 -66.3839 0.4617
6535.5 2.7369 2.6592 2.6451 316.9275 7.8403 -0.0015 0.4470 3.9697 2.4215 -66.3304 0.4549
6536.0 2.9277 2.8002 2.8095 329.7321 7.8403 -0.0004 0.4354 3.9969 2.4199 -65.9219 0.4537
6536.5 3.2527 3.1768 3.1411 354.1123 7.8403 -0.0015 0.4304 4.0427 2.4189 -65.8214 0.4236
6537.0 3.3666 3.2675 3.2406 350.9997 7.8403 -0.0038 0.3998 4.0982 2.4141 -65.7946 0.4221
6537.5 3.2617 3.1400 3.1597 364.6491 7.8403 -0.0048 0.4026 4.1509 2.4052 -65.7946 0.4082
6538.0 3.2404 3.1275 3.1297 360.4993 7.8403 -0.0068 0.3654 4.2401 2.3908 -65.7813 0.4156
6538.5 3.3337 3.1790 3.1707 370.7756 7.8403 -0.0057 0.4199 4.2455 2.3928 -65.8214 0.3671
6539.0 3.3788 3.2065 3.1893 353.3981 7.8403 -0.0041 0.4599 4.1710 2.4029 -65.7857 0.3996
6539.5 3.2206 3.1141 3.0800 343.5428 7.8403 -0.0020 0.4839 4.0559 2.4100 -65.8482 0.4387
6540.0 3.0723 3.0245 3.0171 328.5985 7.8403 -0.0013 0.4629 3.9574 2.4073 -65.9107 0.4998
6540.5 3.0777 3.0174 3.0039 330.6741 7.8403 0.0004 0.4402 3.9124 2.4045 -65.8047 0.4711
6541.0 3.0713 3.0309 3.0013 323.1194 7.8631 -0.0009 0.4300 3.9055 2.3846 -65.8304 0.4514
6541.5 2.9260 2.9046 2.8440 311.9666 7.8403 -0.0029 0.4079 3.9079 2.3536 -65.8661 0.4201
6542.0 2.6332 2.5928 2.5837 292.5144 7.8403 -0.0038 0.4152 3.7694 2.3272 -66.0089 0.4006
6542.5 2.3797 2.2622 2.2980 274.1330 7.8631 0.0003 0.4369 3.5802 2.3249 -66.1964 0.4118
6543.0 2.3440 2.2404 2.2131 255.9795 7.8859 0.0005 0.4423 3.4735 2.3226 -65.9609 0.4236
6543.5 2.5434 2.3877 2.3411 245.3461 7.8403 -0.0026 0.4284 3.4981 2.3220 -65.7857 0.4315
6544.0 2.7221 2.5560 2.4746 236.5283 7.8631 -0.0065 0.4054 3.5342 2.3198 -65.8393 0.4164
6544.5 2.6875 2.5647 2.4620 240.1586 7.8631 -0.0043 0.4127 3.4553 2.3203 -66.0804 0.4137
6545.0 2.3559 2.3750 2.3513 238.6033 7.8631 0.0092 0.4135 3.3597 2.3271 -66.6563 0.4203
6545.5 1.9870 1.9470 1.8915 233.9349 7.8745 0.0159 0.4225 3.2407 2.3205 -66.6964 0.4337
6546.0 2.3136 2.1202 2.0849 225.5384 7.8403 0.0132 0.4289 3.2475 2.3055 -66.1607 0.4272
