~VERSION INFORMATION
VERS.           1.2   :CWLS Log ASCII Standard - VERSION 1.2
WRAP.           NO    :One Line per depth step
PROD.  Schlumberger   :LAS Producer
PROG.  DLIS to ASCII 17C0-152                          :LAS Program name and version
CREA.        2013/10/21 20:50                          :LAS Creation date {YYYY/MM/DD hh:mm}
DLIS_CREA.  2013-Oct-21 08:39                          :DLIS Creation date and time {YYYY-MMM-DD hh:mm}
SOURCE.     9ec8b34d-aca5-43ef-91a8-8c41069c79cd       :DLIS File Name
#--------------------------------------------------
~WELL INFORMATION
#MNEM.UNIT      DATA             DESCRIPTION
#---- ------ --------------   -----------------------------
STRT .F      901.5000        :START DEPTH        # original; data subset to 5500-8000
STOP .F      7746.5000       :STOP DEPTH        # original; data subset to 5500-8000
STEP .F       0.5000         :STEP       
NULL .          -999.25      :NULL VALUE
COMP .                 COMPANY:  Bear Oil and Gas, Inc.             
WELL .                    WELL:  McGahan Farms 32 31                
FLD  .                   FIELD:  Wildcat                            
LOC  .                LOCATION:  SHL: SWNE 2563' FNL & 1423' FEL    
CNTY .                  COUNTY:  Laramie                            
STAT .                   STATE:  Wyoming                            
CTRY .                 COUNTRY:  United States                      
SRVC .         SERVICE COMPANY:  Schlumberger                       
LATI .DEG             LATITUDE:  41.309490 degrees                  
LONG .DEG            LONGITUDE:  -104.12429 degrees                 
API  .              API NUMBER:  49-021-21045                       
DATE .                LOG DATE:  21-Oct-2013
UWI  .          UNIQUE WELL ID:  49021210450000                     
#-----------------------------------------------------------------------------
~PARAMETER INFORMATION
#MNEM.UNIT    VALUE                      DESCRIPTION
#---- -----   --------------------       ------------------------
CN   .        Bear Oil and Gas  Inc.     :Company Name
WN   .        McGahan Farms 32 31        :Well Name
FN   .        Wildcat                    :Field Name
FL   .        SHL  SWNE 2563' FNL & 1423' FEL :Field Location
FL1  .        Section 31  Township 16N  Range 60W :Field Location, Line 1
COUN .        Laramie                    :County or Parish
STAT .        Wyoming                    :State or Province
NATI .        United States              :Nation
DATE .        21-Oct-2013                :Tools Above Rotary Table Date
APIN .        49-021-21045               :API Well Number
SECT .        31                         :Section
TOWN .        16N                        :Township
RANG .        60W                        :Range
DMF  .        KB                         :Drilling Measured From (Name of Drilling Elevation Reference)
LMF  .        KB                         :Logging Measured From (Name of Logging Elevation Reference)
PDAT .        GL                         :Permanent Datum
ENGI .        Max Pace                   :Engineer s Name
WITN .        Terry                      :Witness s Name
LATI .        41.309490 degrees          :Latitude
LONG .        -104.12429 degrees         :Longitude
LUL  .        Fort Morgan  CO            :Logging Unit Location
LUN  .        3022                       :Logging Unit Number
RUN  .        Run 1                      :Run Number
SON  .        CA0R-00056                 :Service Order Number
BHT  .DEGF     166.00000                 :Bottom Hole Temperature
BS   .IN         7.87500                 :Bit Size
MDEN .G/C3       2.65000                 :Matrix Density for Density Porosity
DFD  .LB/G       9.10000                 :Drilling Fluid Density
DFV  .S         63.00000                 :Drilling Fluid Viscosity
DFL  .C3         8.80000                 :Drilling Fluid Loss
RMFS .OHMM       1.24500                 :Resistivity of Mud Filtrate Sample
EKB  .F       5307.00000                 :Elevation of Kelly Bushing
EGL  .F       5295.00000                 :Elevation of Ground Level
BLI  .F       7730.00000                 :Bottom Log Interval
BSAL .PPM        0.00000                 :Borehole Salinity
FLEV .F          8.00000                 :Depth of Drilling Fluid Level to LMF (Log Measured From)
MCST .DEGF      61.00000                 :Mudcake Sample Temperature
MFST .DEGF      61.00000                 :Mud Filtrate Sample Temperature
MRT  .DEGF     166.00000                 :Maximum Recorded Temperature
MST  .DEGF      61.00000                 :Mud Sample Temperature
RMCS .OHMM       2.07500                 :Resistivity of Mud Cake Sample
RMS  .OHMM       1.66000                 :Resistivity of Mud Sample
RW   .OHMM       1.00000                 :Connate Water Resistivity
TDD  .F       7719.99951                 :Driller Total Depth
TDL  .F       7730.00000                 :Logger Total Depth
TLI  .F       1023.75000                 :Top Log Interval
HIDE .        Wildcat                    :Header Identifier
MATR .        SAND                       :Rock Matrix for Neutron Porosity Corrections
FNUM .           1.00000                 :F-Numerator for Formation Factor Formula
FEXP .           2.00000                 :Exponent "m" for Formation Factor Formula
DFT  .        Fresh Water                :Drilling Fluid Type
DFPH .           7.50000                 :Drilling Fluid pH
MCSS .        Calculated                 :Mudcake Sample Source
MFSS .        Calculated                 :Mud Filtrate Sample Source
FD   .G/C3       1.00000                 :Fluid Density
MSS  .        Active Tank                :Mud Sample Source
OS1  .                                   :Other Services Line 1
OS2  .                                   :Other Services Line 2
OS3  .                                   :Other Services Line 3
OS4  .                                   :Other Services Line 4
OS5  .                                   :Other Services Line 5
R1   .        Tool string run as per tool sketch :Remarks Line 1
R2   .        All Schlumberger depth control procedures followed :Remarks Line 2
R3   .        IDW used as primary depth reference :Remarks Line 3
R4   .        Z Chart used as secondary depth reference :Remarks Line 4
R5   .        Matrix Density zoned as per client request :Remarks Line 5
R6   .        Crew  Max Pace  Tyler Riter  Cody Bruns :Remarks Line 6
R7   .                                   :Remarks Line 7
R8   .                                   :Remarks Line 8
TCS  .        19 00 00                   :Time Circulation Stopped
TLAB .        06 35 50                   :Time Logger At Bottom
NMT  .        NOBARITE                   :HRDD Mud Type for Nuclear Devices
EPD  .C3         5295.000000             :Elevation of Permanent Datum above Mean Sea Level
APD  .F          12.000000               :Elevation of Depth Reference (LMF) above Permanent Datum
#-----------------------------------------------------------------------------
~CURVE INFORMATION
#MNEM.UNIT   API CODE                                  DESCRIPTION
#---- -----  --------                                  -----------------------
DEPT .F                                                :DEPTH (BOREHOLE) {F12.4}
AT10 .OHMM                                             :Array Induction Two Foot Resistivity A10 {F11.4}
AT30 .OHMM                                             :Array Induction Two Foot Resistivity A30 {F11.4}
AT90 .OHMM                                             :Array Induction Two Foot Resistivity A90 {F11.4}
DT   .US/F                                             :Delta-T (also called Slowness or Interval Transit Time) {F11.4}
GR   .GAPI                                             :Gamma Ray {F11.4}
HCAL .IN                                               :HRCC Caliper Calibrated {F11.4}
HDRA .G/C3                                             :Density Standoff Correction {F11.4}
NPHI .CFCF                                             :Thermal Neutron Porosity (original Ratio Method) in Selected Lithology {F11.4}
PEFZ .                                                 :Standard Resolution Formation Photoelectric Factor {F11.4}
RHOZ .G/C3                                             :Standard Resolution Formation Density {F11.4}
SP   .MV                                               :Spontaneous Potential {F11.4}
TNPH .CFCF                                             :Thermal Neutron Porosity (Ratio Method) in Selected Lithology {F11.4}
#-----------------------------------------------------------------------------
# 
#      DEPT        AF10       AF20       AF30       AF60       AF90       AO10       AO20       AO30       AO60       AO90       AT10       AT20       AT30       AT60       AT90     AHFCO60      AHMF      AHORT      AHORX      AHSCA     AHTCO10    AHTCO20    AHTCO30    AHTCO60    AHTCO90     AHTD1      AHTD2      AHTRT      AHTRX       CDF        CFTC       CNTC       CTEM       DCAL       DNPH       DPHZ       DSOZ        DT        ECGR        ED        GDEV        GR        GTEM       HCAL       HDRA       HDRB       HGR        HMIN       HMNO       HNPO       HPRA       HTNP       ITT         ND        NPHI       NPOR       PEFZ    PXND_HILT     RHOZ       RSOZ     RWA_HILT     RXO8       RXOZ        SP        SPAR       SPHI       STIT       TENS       TNPH     HTNP_SAN
#
~A  DEPT AT10 AT30 AT90 DT GR HCAL HDRA NPHI PEFZ RHOZ SP TNPH
# ...
7279.5000 2.1622 1.5802 1.3765 91.9796 167.3991 7.9020 0.1418 0.3284 3.0092 2.3974 227.0156 0.3268
7280.0000 2.2269 1.7203 1.5370 94.4383 145.7707 7.9645 0.1511 0.3243 3.0485 2.4240 226.9554 0.3284
7280.5000 2.1628 1.7951 1.6061 97.5753 145.9843 8.0020 0.1403 0.3480 3.0089 2.4054 227.0469 0.3195
7281.0000 2.0682 1.8289 1.7340 99.3692 144.7610 8.2893 0.1323 0.3629 2.9551 2.4001 227.1953 0.3374
7281.5000 2.0969 1.9075 1.8215 100.7443 145.6176 8.0894 0.1157 0.3856 2.9026 2.3960 227.2411 0.3486
7282.0000 2.2128 2.0618 1.9612 101.0657 149.9003 8.2019 0.1084 0.3637 2.9543 2.4097 227.3750 0.3482
7282.5000 2.3711 2.1761 2.0480 100.1089 157.6092 8.1519 0.1105 0.3763 3.1147 2.4231 227.2143 0.3400
7283.0000 2.2814 2.2003 2.0308 101.2447 163.9721 7.7771 0.1364 0.3860 3.2816 2.4525 226.9922 0.3671
7283.5000 2.1188 1.9582 1.8364 101.3343 171.6813 7.7896 0.1509 0.3908 3.3006 2.4542 226.8359 0.3759
7284.0000 2.0779 1.8806 1.7897 101.3452 166.9699 8.0519 0.1552 0.3815 3.1785 2.4485 227.1875 0.3705
7284.5000 2.1759 1.9741 1.8608 102.9058 167.9500 7.9270 0.1430 0.3931 3.0315 2.4315 227.2578 0.3654
7285.0000 2.1947 2.0309 1.9278 101.9321 157.2428 8.2019 0.1292 0.3973 2.9134 2.4219 227.3125 0.3696
7285.5000 2.2821 2.1118 2.0149 102.9910 159.6293 8.0270 0.1216 0.3995 2.8512 2.4174 227.3203 0.3853
7286.0000 2.3904 2.2040 2.0944 104.3891 156.9973 8.1519 0.1091 0.3973 2.8059 2.3931 227.2857 0.3863
7286.5000 2.4635 2.2980 2.1716 104.8267 164.2783 7.8520 0.1064 0.3872 2.7971 2.3732 227.7656 0.3850
7287.0000 2.4554 2.2922 2.1749 104.9922 171.7428 8.0769 0.1106 0.3727 2.8010 2.3731 227.9531 0.3637
7287.5000 2.4422 2.2991 2.1669 103.7161 169.7241 7.9270 0.1122 0.3544 2.8103 2.3836 227.7321 0.3562
7288.0000 2.4202 2.2956 2.1706 101.6655 168.4396 7.8770 0.1159 0.3523 2.8269 2.4165 227.4453 0.3388
7288.5000 2.3690 2.2603 2.1473 99.7654 152.5933 8.2643 0.1180 0.3283 2.8550 2.4368 227.2679 0.3274
7289.0000 2.3158 2.2110 2.1003 99.5680 152.3475 8.0270 0.1339 0.3448 2.9059 2.4481 227.0703 0.3163
7289.5000 2.2707 2.1687 2.1087 99.7835 147.6364 7.9770 0.1545 0.3465 2.9727 2.4467 227.2232 0.3260
7290.0000 2.2141 2.1084 2.0317 99.8496 158.7711 8.1519 0.1635 0.3863 3.0220 2.4397 227.0391 0.3347
7290.5000 2.2387 2.1731 2.0802 99.9876 153.7553 8.2768 0.1548 0.3756 3.0376 2.4429 227.2031 0.3663
7291.0000 2.3295 2.1576 2.0538 98.6042 152.8983 7.9645 0.1304 0.3570 3.0330 2.4529 227.4196 0.3481
7291.5000 2.4029 2.2694 2.1822 96.4468 146.9026 7.8520 0.1146 0.3238 3.0518 2.4549 227.0859 0.3298
7292.0000 2.3328 2.2313 2.1571 96.3134 159.2610 7.9520 0.1194 0.3413 3.0975 2.4448 226.6607 0.3176
7292.5000 2.0539 2.0018 1.9903 99.4466 174.1909 7.9270 0.1277 0.4060 3.1149 2.4053 226.1719 0.3425
7293.0000 1.7765 1.6964 1.7057 100.4942 193.2488 8.1269 0.1287 0.4114 3.1129 2.4029 225.6094 0.3821
7293.5000 1.9658 1.8649 1.8371 97.0639 190.0677 8.0145 0.1268 0.3564 3.1568 2.4402 225.6518 0.3642
7294.0000 2.1847 2.1565 2.0644 95.7295 167.8568 7.7271 0.1378 0.3433 3.2475 2.4835 226.0859 0.3238
7294.5000 2.1461 2.0432 1.9896 97.5039 155.9571 7.9020 0.1603 0.3617 3.2668 2.4718 226.4554 0.3441
7295.0000 1.9572 1.8358 1.8243 98.1833 158.3439 8.1519 0.1797 0.3998 3.1559 2.4232 227.0000 0.3693
7295.5000 2.0174 1.8993 1.8988 102.1894 166.8481 8.1269 0.1932 0.3784 3.0254 2.4116 227.5804 0.3817
7296.0000 2.1837 2.0633 2.0277 98.7130 149.4105 8.3768 0.1860 0.3497 2.9647 2.4249 227.8125 0.3505
7296.5000 2.3512 2.2270 2.1636 94.1832 136.5006 8.1144 0.1622 0.3317 2.9531 2.4551 227.9375 0.3342
7297.0000 2.4563 2.3392 2.2466 94.3268 130.3522 7.9770 0.1234 0.3284 2.9143 2.4549 228.3125 0.3139
7297.5000 2.5249 2.4095 2.3330 94.3805 136.5322 8.0769 0.0987 0.3496 2.8925 2.4705 228.5391 0.3114
7298.0000 2.7441 2.5508 2.4523 95.4233 131.4534 7.9270 0.0827 0.4048 2.9419 2.4724 228.0804 0.3334
7298.5000 3.0905 2.9174 2.8085 95.4095 134.4208 7.8770 0.0892 0.4192 3.0821 2.4831 227.8672 0.3711
7299.0000 3.5214 3.1703 3.0227 94.4434 126.9563 7.8645 0.1044 0.3851 3.2078 2.4775 227.8214 0.3812
7299.5000 3.5296 3.2321 3.1024 92.7844 131.7895 7.8770 0.1362 0.3358 3.2500 2.4809 227.8359 0.3550
7300.0000 3.2114 3.0143 2.8840 90.6652 124.7539 7.9770 0.1630 0.3118 3.2145 2.4793 228.0000 0.3281
7300.5000 2.9678 2.8000 2.6910 89.1040 131.4843 7.9270 0.1929 0.3113 3.1666 2.5044 227.8929 0.3109
7301.0000 2.8827 2.7353 2.6466 89.6096 125.7944 8.0769 0.2068 0.3030 3.1289 2.5144 227.7813 0.3049
7301.5000 2.7696 2.6368 2.5508 90.3584 130.3826 8.0270 0.2165 0.3272 3.0786 2.5176 227.4286 0.3046
7302.0000 2.6630 2.5345 2.4686 91.0953 130.7195 8.3018 0.2202 0.3373 3.0098 2.5039 227.5234 0.3187
7302.5000 2.6006 2.4840 2.3796 92.9699 139.5908 8.2019 0.2192 0.3660 2.9592 2.4791 227.6016 0.3367
7303.0000 2.5256 2.4148 2.3116 95.8227 144.6386 8.2019 0.2074 0.3670 2.9206 2.4461 227.6875 0.3634
7303.5000 2.4533 2.3447 2.2419 99.4851 150.1750 8.0519 0.1864 0.3809 2.8900 2.3992 227.6172 0.3749
7304.0000 2.3839 2.2858 2.1785 103.4613 156.5078 8.2269 0.1722 0.4258 2.8490 2.3639 227.3304 0.3905
7304.5000 2.3177 2.2125 2.1047 105.6867 154.1528 8.7516 0.1666 0.4408 2.8130 2.3368 227.3359 0.4161
7305.0000 2.2531 2.1538 2.0481 105.9489 156.5387 8.6766 0.1720 0.4725 2.8030 2.3326 227.3047 0.4198
7305.5000 2.2556 2.1530 2.0488 106.2346 153.6324 8.7516 0.1792 0.4736 2.8120 2.3400 227.4375 0.4289
7306.0000 2.2546 2.1551 2.0577 106.2561 161.1270 8.8765 0.1844 0.4415 2.8263 2.3504 227.2656 0.4316
7306.5000 2.1713 2.0762 1.9801 105.6136 171.7118 8.5017 0.1872 0.4582 2.8201 2.3534 227.0313 0.4267
7307.0000 2.1121 2.0092 1.9183 107.2014 170.9778 8.5517 0.1997 0.4460 2.8069 2.3570 226.8125 0.4375
7307.5000 2.0784 1.9960 1.9104 107.4010 175.2300 8.8266 0.2117 0.4770 2.7787 2.3475 226.9141 0.4311
7308.0000 2.0529 1.9819 1.8928 109.3690 173.8530 8.8266 0.2119 0.4897 2.7393 2.3242 226.9286 0.4542
7308.5000 2.0070 1.9224 1.8428 109.1116 174.3431 8.5017 0.1943 0.4643 2.6907 2.3005 226.9063 0.4463
7309.0000 1.9672 1.9187 1.8308 108.7032 167.5212 8.4518 0.1800 0.4408 2.6753 2.3068 227.1094 0.4143
7309.5000 2.0396 1.9554 1.8640 106.1430 163.2700 8.7016 0.1797 0.3946 2.7086 2.3405 227.2411 0.3969
7310.0000 2.0917 2.0111 1.9033 103.2877 161.4949 8.5642 0.1804 0.3983 2.7661 2.3783 227.1563 0.3694
7310.5000 2.2025 2.1141 2.0052 102.1286 152.6538 8.7516 0.1775 0.3761 2.8301 2.4034 227.1797 0.3709
7311.0000 2.1291 2.0735 1.9812 101.3774 144.2716 8.4393 0.1622 0.3931 2.8860 2.3993 227.0893 0.3629
7311.5000 2.0991 2.0270 1.9586 102.8944 150.2067 8.6766 0.1519 0.4074 2.9252 2.3851 227.2344 0.3761
7312.0000 2.0275 1.9644 1.9027 103.2829 153.2661 8.2893 0.1475 0.4222 2.9507 2.3712 227.2813 0.3882
7312.5000 2.0405 1.9651 1.9030 103.7022 157.7319 8.0270 0.1495 0.4262 2.9530 2.3736 227.2578 0.3935
7313.0000 2.1517 2.0596 1.9890 103.1195 155.6520 8.2269 0.1509 0.4055 2.9627 2.3738 227.3203 0.3933
7313.5000 2.2628 2.1831 2.1014 102.4429 156.5078 8.1769 0.1492 0.4199 2.9696 2.3686 227.5536 0.3856
7314.0000 2.4012 2.3099 2.2230 102.1765 156.5388 8.1394 0.1497 0.4018 2.9827 2.3642 227.5391 0.3952
7314.5000 2.4549 2.3837 2.2877 101.8314 160.3315 8.2519 0.1449 0.4414 2.9891 2.3767 227.4141 0.3775
7315.0000 2.4589 2.3910 2.2895 100.7452 165.9000 8.2269 0.1421 0.4491 3.0283 2.4055 227.4063 0.4121
7315.5000 2.4321 2.3634 2.2713 101.4364 170.3961 8.1519 0.1514 0.4472 3.1147 2.4292 227.3281 0.4148
7316.0000 2.3816 2.3094 2.2402 100.3851 167.2150 7.9770 0.1626 0.4031 3.1643 2.4330 227.1094 0.4132
7316.5000 2.3226 2.2129 2.1911 98.9630 159.7202 8.3518 0.1664 0.3644 3.1227 2.4150 227.3047 0.3729
7317.0000 2.3888 2.2600 2.1949 98.9161 146.1382 8.0519 0.1585 0.3795 3.0106 2.4151 227.7656 0.3423
7317.5000 2.4048 2.2947 2.2141 94.8441 140.5087 8.3518 0.1587 0.3471 2.9484 2.4301 227.9219 0.3389
7318.0000 2.5004 2.3921 2.2881 96.0007 138.7952 8.2519 0.1647 0.3595 2.9267 2.4498 227.8594 0.3292
7318.5000 2.3898 2.3564 2.2467 96.7610 143.2002 7.9020 0.1785 0.3600 2.9208 2.4432 227.5000 0.3484
7319.0000 2.3351 2.2159 2.1201 97.6443 142.6498 8.5267 0.1829 0.3866 2.8741 2.4200 227.7734 0.3590
7319.5000 2.2473 2.1568 2.0593 99.2862 142.0076 8.6517 0.1849 0.3926 2.8465 2.4011 227.9688 0.3884
