~VERSION INFORMATION
VERS.           2.0   :CWLS Log ASCII Standard - VERSION 2.0
WRAP.           NO    :One Line per depth step
PROD.  Schlumberger   :LAS Producer
PROG.  DLIS to ASCII 19C2-270                          :LAS Program name and version
CREA.        2013/09/21 19:52                          :LAS Creation date {YYYY/MM/DD hh:mm}
DLIS_CREA.  2013-Sep-21 19:47                          :DLIS Creation date and time {YYYY-MMM-DD hh:mm}
SOURCE.     49-021-21035_McGahan Farms 42-31_Run_PEX_Mainpass.dlis  :DLIS File Name
FILE-ID.     MaxWell_3Dlis                             :File Identification Number
#--------------------------------------------------
~WELL INFORMATION
#MNEM.UNIT      DATA             DESCRIPTION
#---- ------ --------------   -----------------------------
STRT .F      1000.5          :START DEPTH        # original; data subset to 5500-8000
STOP .F      7716.5          :STOP DEPTH        # original; data subset to 5500-8000
STEP .F       0.5            :STEP     
NULL .          -999.25      :NULL VALUE
COMP .        Bear Oil & Gas, Inc                      :COMPANY
WELL .        McGahan Farms 42-31                      :WELL
FLD  .        Wildcat                                  :FIELD
LOC  .        Lat/Long: 41.3098/-104.1197              :LOCATION
CNTY .        Laramie                                  :COUNTY
STAT .        Wyoming                                  :STATE
CTRY .        USA                                      :COUNTRY
API  .        49-021-21035                             :API NUMBER
UWI  .        49021210350000                           :UNIQUE WELL ID
DATE .        21-Sep-2013                              :LOG DATE {DD-MMM-YYYY}
SRVC .        Schlumberger                             :SERVICE COMPANY
LATI .DEG     41.309800 degrees                        :LATITUDE
LONG .DEG     -104.11970 degrees                       :LONGITUDE
GDAT .                                                 :GeoDetic Datum
SECT .        31                                       :Section
RANG .        60W                                      :Range
TOWN .        16N                                      :Township
#-----------------------------------------------------------------------------
~PARAMETER INFORMATION
#MNEM.UNIT    VALUE                      DESCRIPTION
#---- -----   --------------------       ------------------------
CN   .        Bear Oil & Gas  Inc        :Company Name
WN   .        McGahan Farms 42-31        :Well Name
FN   .        Wildcat                    :Field Name
FL   .        Lat/Long  41.3098/-104.1197 :Field Location
FL1  .        SHL   2375' FNL X 190' FEL SENE :Field Location, Line 1
COUN .        Laramie                    :County or Parish
STAT .        Wyoming                    :State or Province
NATI .        USA                        :Nation
DATE .        21-Sep-2013                :Tools Above Rotary Table Date
APIN .        49-021-21035               :API Well Number
SECT .        31                         :Section
TOWN .        16N                        :Township
RANG .        60W                        :Range
DMF  .        KB                         :Drilling Measured From (Name of Drilling Elevation Reference)
LMF  .        KB                         :Logging Measured From (Name of Logging Elevation Reference)
PDAT .        GL                         :Permanent Datum
ENGI .        Arvin Shi                  :Engineer s Name
WITN .        Terry Eittreim             :Witness s Name
LATI .        41.309800 degrees          :Latitude
LONG .        -104.11970 degrees         :Longitude
LUL  .        Fort Morgan                :Logging Unit Location
LUN  .        3022                       :Logging Unit Number
RUN  .        Run 1                      :Run Number
SON  .        C6VJ-00079                 :Service Order Number
BHT  .DEGF     175.00000                 :Bottom Hole Temperature
BS   .IN         7.87500                 :Bit Size
MDEN .G/C3       2.65000                 :Matrix Density for Density Porosity
DFD  .LB/G       9.20000                 :Drilling Fluid Density
DFV  .S         80.00000                 :Drilling Fluid Viscosity
DFL  .C3      -999.25000                 :Drilling Fluid Loss
RMFS .OHMM       0.96000                 :Resistivity of Mud Filtrate Sample
EKB  .F       5307.00000                 :Elevation of Kelly Bushing
EGL  .F       5295.00000                 :Elevation of Ground Level
BLI  .F       7700.00000                 :Bottom Log Interval
BSAL .PPM     3275.14868                 :Borehole Salinity
FLEV .F          8.00000                 :Depth of Drilling Fluid Level to LMF (Log Measured From)
MCST .DEGF      98.00000                 :Mudcake Sample Temperature
MFST .DEGF      98.00000                 :Mud Filtrate Sample Temperature
MRT  .DEGF     175.00000                 :Maximum Recorded Temperature
MST  .DEGF      98.00000                 :Mud Sample Temperature
RMCS .OHMM       1.60000                 :Resistivity of Mud Cake Sample
RMS  .OHMM       1.28000                 :Resistivity of Mud Sample
RW   .OHMM       1.00000                 :Connate Water Resistivity
TDD  .F       7697.00000                 :Driller Total Depth
TDL  .F       7700.00000                 :Logger Total Depth
TLI  .F       1018.00000                 :Top Log Interval
HIDE .        Wildcat                    :Header Identifier
MATR .        SAND                       :Rock Matrix for Neutron Porosity Corrections
FNUM .           1.00000                 :F-Numerator for Formation Factor Formula
FEXP .           2.00000                 :Exponent "m" for Formation Factor Formula
DFT  .        Chemical Gel               :Drilling Fluid Type
DFPH .        -999.25000                 :Drilling Fluid pH
MCSS .        Calculated                 :Mudcake Sample Source
MFSS .        Calculated                 :Mud Filtrate Sample Source
FD   .G/C3       1.00000                 :Fluid Density
MSS  .        Flowline                   :Mud Sample Source
OS1  .                                   :Other Services Line 1
OS2  .                                   :Other Services Line 2
OS3  .                                   :Other Services Line 3
OS4  .                                   :Other Services Line 4
OS5  .                                   :Other Services Line 5
R1   .                                   :Remarks Line 1
R2   .                                   :Remarks Line 2
R3   .                                   :Remarks Line 3
R4   .                                   :Remarks Line 4
R5   .                                   :Remarks Line 5
R6   .                                   :Remarks Line 6
R7   .                                   :Remarks Line 7
R8   .                                   :Remarks Line 8
TCS  .        11 00 00                   :Time Circulation Stopped
TLAB .        17 20 49                   :Time Logger At Bottom
NMT  .        NOBARITE                   :HRDD Mud Type for Nuclear Devices
EPD  .C3         5295.000000             :Elevation of Permanent Datum above Mean Sea Level
APD  .F          12.000000               :Elevation of Depth Reference (LMF) above Permanent Datum
#-----------------------------------------------------------------------------
~CURVE INFORMATION
#MNEM.UNIT   API CODE                                  DESCRIPTION
#---- -----  --------                                  -----------------------
DEPT .F                                                :DEPTH (BOREHOLE) {F10.1}
AT10 .OHMM                                             :Array Induction Two Foot Resistivity A10 {F11.4}
AT30 .OHMM                                             :Array Induction Two Foot Resistivity A30 {F11.4}
AT90 .OHMM                                             :Array Induction Two Foot Resistivity A90 {F11.4}
GR   .GAPI                                             :Gamma Ray {F11.4}
HCAL .IN                                               :HRCC Caliper Calibrated {F11.4}
HDRA .G/C3                                             :Density Standoff Correction {F11.4}
NPHI .CFCF                                             :Thermal Neutron Porosity (original Ratio Method) in Selected Lithology {F11.4}
PEFZ .                                                 :Standard Resolution Formation Photoelectric Factor {F11.4}
RHOZ .G/C3                                             :Standard Resolution Formation Density {F11.4}
SP   .MV                                               :Spontaneous Potential {F11.4}
TNPH .CFCF                                             :Thermal Neutron Porosity (Ratio Method) in Selected Lithology {F11.4}
#-----------------------------------------------------------------------------
# 
#     DEPT       AF10       AF20       AF30       AF60       AF90       AO10       AO20       AO30       AO60       AO90       AT10       AT20       AT30       AT60       AT90     AHFCO60      AHMF      AHORT      AHORX      AHSCA     AHTCO10    AHTCO20    AHTCO30    AHTCO60    AHTCO90     AHTD1      AHTD2      AHTRT      AHTRX       CDF        CFTC       CNTC       CTEM       DCAL       DNPH       DPHZ       DSOZ       ECGR        ED        GDEV        GR        GTEM       HCAL       HDRA       HDRB       HGR        HMIN       HMNO       HNPO       HPRA       HTNP        ND        NPHI       NPOR       PEFZ    PXND_HILT     RHOZ       RSOZ     RWA_HILT     RXO8       RXOZ        SP        SPAR       STIT       TENS       TNPH     HTNP_SAN
#
~A  DEPT AT10 AT30 AT90 GR HCAL HDRA NPHI PEFZ RHOZ SP TNPH
# ...
5636.5 1.5707 1.4887 1.4567 97.3835 8.6317 0.1288 0.3717 3.3248 2.4159 -358.3333 0.3374
5637.0 1.4924 1.4102 1.3796 98.1768 8.5658 0.1483 0.3950 3.0832 2.3512 -358.0000 0.3820
5637.5 1.4658 1.3874 1.3526 92.6222 8.3239 0.1614 0.4260 2.9332 2.3234 -358.0417 0.3855
5638.0 1.4612 1.3970 1.3568 90.7179 8.3679 0.1681 0.3826 2.9260 2.3335 -357.9375 0.3921
5638.5 1.4653 1.4010 1.3621 90.9823 8.1480 0.1634 0.3990 2.9707 2.3522 -357.8542 0.3646
5639.0 1.4671 1.4132 1.3734 99.4463 8.3899 0.1558 0.3850 3.0417 2.3601 -357.7917 0.3715
5639.5 1.5347 1.4688 1.4306 106.8514 8.2580 0.1559 0.3856 3.1166 2.3695 -357.8125 0.3649
5640.0 1.6227 1.5414 1.4988 115.3154 8.2140 0.1655 0.3922 3.1636 2.3824 -357.7813 0.3723
5640.5 1.7362 1.6063 1.5663 115.3153 8.0381 0.1749 0.3807 3.1615 2.3702 -357.8125 0.3737
5641.0 1.7124 1.6084 1.5694 109.1793 8.2800 0.1814 0.4006 3.0699 2.3286 -357.8021 0.3670
5641.5 1.6499 1.5714 1.5357 100.9802 8.3459 0.1892 0.3735 2.9588 2.2846 -357.7875 0.3902
5642.0 1.5820 1.5139 1.4808 100.1867 7.9502 0.1872 0.3677 2.8816 2.2704 -357.7396 0.3716
5642.5 1.5227 1.4631 1.4336 99.7108 8.1041 0.1836 0.3409 2.8925 2.3076 -357.5417 0.3537
5643.0 1.4863 1.4355 1.4011 101.8265 8.4119 0.1674 0.3750 2.9725 2.3403 -357.5729 0.3240
5643.5 1.4833 1.4467 1.4088 99.4458 7.9941 0.1499 0.3899 3.0461 2.3575 -357.7188 0.3511
5644.0 1.4989 1.4615 1.4212 98.6524 8.1261 0.1406 0.4110 3.0934 2.3691 -357.8333 0.3513
5644.5 1.5365 1.4811 1.4367 101.0325 8.2140 0.1349 0.3714 3.0980 2.3813 -357.8750 0.3701
5645.0 1.6002 1.5320 1.4848 97.8588 8.1480 0.1384 0.4026 3.1012 2.4007 -357.6667 0.3605
5645.5 1.6493 1.5851 1.5390 103.4132 8.1480 0.1329 0.4112 3.0915 2.3963 -357.4583 0.3922
5646.0 1.6531 1.5911 1.5448 97.8594 8.1480 0.1265 0.4553 3.0789 2.3930 -357.6250 0.3945
5646.5 1.6614 1.6070 1.5640 95.4793 8.0601 0.1206 0.4053 3.0929 2.4008 -357.7917 0.4130
5647.0 1.6698 1.6177 1.5781 88.6024 8.1041 0.1209 0.4230 3.1562 2.4133 -357.7250 0.3816
5647.5 1.6000 1.5565 1.5199 87.2270 8.1041 0.1257 0.4162 3.2134 2.4161 -357.5625 0.3973
5648.0 1.4835 1.4664 1.4359 97.4287 8.1041 0.1296 0.4297 3.2131 2.3922 -357.3875 0.3947
5648.5 1.4160 1.3799 1.3566 104.7812 8.1700 0.1329 0.4055 3.1557 2.3611 -357.2500 0.4082
5649.0 1.3417 1.3074 1.2811 107.4791 8.2360 0.1326 0.3662 3.0882 2.3445 -357.1354 0.3818
5649.5 1.3313 1.2821 1.2565 106.5339 8.3899 0.1317 0.3674 3.0727 2.3588 -357.1771 0.3536
5650.0 1.3399 1.2912 1.2636 100.7683 8.2800 0.1194 0.3848 3.1199 2.3804 -357.3125 0.3533
5650.5 1.3340 1.2914 1.2624 102.8847 8.2140 0.1034 0.4293 3.2047 2.4065 -357.4063 0.3630
5651.0 1.3372 1.2892 1.2636 95.2147 8.2360 0.0835 0.4284 3.2736 2.4178 -357.1250 0.4082
5651.5 1.3517 1.3010 1.2737 100.2400 8.4778 0.0848 0.3977 3.2870 2.4336 -357.0625 0.3989
5652.0 1.3687 1.3163 1.2841 96.8012 8.0381 0.0944 0.3808 3.2484 2.4293 -357.2292 0.3761
5652.5 1.3718 1.3149 1.2805 99.1820 8.1920 0.1099 0.3891 3.1485 2.4250 -357.3542 0.3624
5653.0 1.3881 1.3257 1.2881 103.1492 8.1700 0.1115 0.3919 3.0373 2.4131 -357.4792 0.3709
5653.5 1.4129 1.3475 1.3012 106.0581 8.3019 0.1075 0.3849 2.9588 2.4096 -357.1771 0.3692
5654.0 1.4447 1.3734 1.3246 106.3222 8.2800 0.0955 0.3843 2.9508 2.3928 -357.2083 0.3745
5654.5 1.4519 1.3812 1.3318 98.6524 8.1920 0.0950 0.3827 2.9926 2.3855 -357.2500 0.3689
5655.0 1.4359 1.3677 1.3182 99.7108 8.2800 0.0956 0.3659 3.0424 2.3735 -357.1667 0.3604
5655.5 1.4349 1.3521 1.3033 102.7789 8.1920 0.0971 0.3690 3.0800 2.3801 -356.9583 0.3552
5656.0 1.4437 1.3573 1.3064 103.3074 8.1480 0.0866 0.4038 3.1089 2.3782 -356.9896 0.3580
5656.5 1.4582 1.3631 1.3090 103.0428 8.1480 0.0842 0.4190 3.1230 2.3950 -356.9896 0.3790
5657.0 1.4456 1.3610 1.3086 97.5945 8.0381 0.0906 0.4164 3.1174 2.3984 -356.9250 0.3926
5657.5 1.4517 1.3480 1.2917 100.5043 8.2800 0.1073 0.3667 3.1083 2.4013 -357.0521 0.3834
5658.0 1.4310 1.3332 1.2790 97.0661 8.1041 0.1164 0.3901 3.1062 2.3915 -357.0521 0.3566
5658.5 1.4352 1.3595 1.3029 106.8528 8.1041 0.1189 0.3819 3.1031 2.4031 -357.1354 0.3753
5659.0 1.4556 1.3775 1.3176 106.8523 8.0601 0.1000 0.3985 3.0659 2.4176 -356.9896 0.3552
5659.5 1.4781 1.4335 1.3769 106.3234 8.0601 0.0725 0.3684 3.0156 2.4387 -356.8333 0.3568
5660.0 1.6735 1.5544 1.5006 100.2397 7.9941 0.0490 0.3907 2.9972 2.4576 -357.1146 0.3306
5660.5 1.9374 1.8207 1.7463 102.6203 7.9722 0.0408 0.3570 3.0104 2.4723 -357.3750 0.3556
5661.0 2.2160 1.9746 1.9151 110.5548 7.9722 0.0505 0.3552 3.0297 2.4808 -357.5104 0.3342
5661.5 2.0733 1.9307 1.8994 105.2650 8.0381 0.0650 0.3257 3.0356 2.4768 -357.3750 0.3427
5662.0 1.9842 1.8440 1.8358 101.9850 7.9722 0.0781 0.3421 3.0491 2.4844 -357.3229 0.3142
5662.5 1.9940 1.8919 1.9046 96.6950 7.9722 0.0760 0.3266 3.0748 2.4850 -357.5625 0.3247
5663.0 2.0986 2.0055 2.0319 103.0426 7.9502 0.0770 0.3381 3.1103 2.4828 -357.7396 0.3091
5663.5 2.1388 2.0433 2.0513 103.4131 8.0601 0.0809 0.3274 3.1284 2.4681 -357.6146 0.3251
5664.0 2.1204 2.0173 2.0218 104.4713 7.7963 0.0802 0.3279 3.1044 2.4595 -357.6250 0.3216
5664.5 2.1335 2.0357 2.0156 106.0579 7.8842 0.0797 0.3192 3.0725 2.4699 -357.7396 0.3212
5665.0 2.1484 2.0620 2.0256 105.2649 7.9282 0.0681 0.3211 3.0376 2.4750 -357.6875 0.3132
5665.5 2.1267 2.0405 2.0084 106.5871 7.9502 0.0651 0.3133 3.0299 2.4859 -357.5833 0.3148
5666.0 2.1040 2.0158 1.9820 101.8267 7.9502 0.0615 0.3071 3.0324 2.4781 -357.5729 0.3023
5666.5 2.0406 1.9726 1.9333 103.1489 7.9941 0.0692 0.2918 3.0533 2.4784 -357.4688 0.2934
5667.0 2.1115 1.9881 1.9341 103.4136 7.8622 0.0736 0.3206 3.0656 2.4679 -357.6771 0.2883
5667.5 2.1898 2.0903 2.0338 107.1171 7.8842 0.0666 0.3127 3.0490 2.4715 -357.6875 0.3046
5668.0 2.1833 2.1023 2.0802 108.1744 7.9062 0.0576 0.3281 3.0246 2.4726 -357.5625 0.3016
5668.5 2.1317 2.0406 2.0054 108.1741 7.8622 0.0599 0.3116 3.0235 2.4861 -357.6771 0.3202
5669.0 2.0543 1.9570 1.9188 103.4129 7.7963 0.0653 0.3275 3.0213 2.4872 -357.8542 0.3081
5669.5 1.9878 1.8974 1.8661 102.8843 7.8842 0.0724 0.3279 3.0036 2.4922 -357.8750 0.3186
5670.0 1.9248 1.8345 1.7986 105.2649 7.9282 0.0707 0.3328 2.9745 2.4858 -357.6458 0.3220
5670.5 1.8908 1.8169 1.7725 112.0882 7.9722 0.0682 0.3406 2.9787 2.4824 -357.3646 0.3289
5671.0 1.9238 1.8246 1.7783 110.2375 7.9722 0.0599 0.3487 3.0101 2.4844 -357.4896 0.3279
5671.5 1.9811 1.8762 1.8195 105.4766 7.8842 0.0534 0.3597 3.0546 2.4874 -357.7708 0.3278
5672.0 2.0553 1.9369 1.8669 104.7366 7.9722 0.0490 0.3438 3.0769 2.4979 -357.8229 0.3373
5672.5 2.0401 1.9137 1.8593 101.8265 7.9722 0.0446 0.3442 3.0681 2.4999 -357.6771 0.3380
5673.0 2.0305 1.9009 1.8491 105.2651 7.9941 0.0427 0.3290 3.0433 2.5121 -357.6146 0.3368
5673.5 2.0046 1.8819 1.8269 110.8185 7.9282 0.0366 0.3246 3.0208 2.5072 -357.5417 0.3232
5674.0 1.9845 1.8723 1.8138 119.8117 7.9722 0.0391 0.3272 3.0090 2.5038 -357.4375 0.3178
5674.5 1.8952 1.8186 1.7639 126.4234 7.9722 0.0409 0.3523 2.9772 2.4920 -357.3125 0.3298
5675.0 1.8316 1.7554 1.7029 133.0363 8.0161 0.0382 0.3678 2.9205 2.4833 -357.4271 0.3547
5675.5 2.0492 1.9064 1.8362 131.7136 8.0601 0.0383 0.3656 2.8921 2.4858 -357.8854 0.3433
5676.0 2.2682 2.1026 2.0227 123.2506 7.9502 0.0386 0.3319 2.9159 2.4876 -358.0000 0.3371
5676.5 2.3192 2.1606 2.0782 103.0737 7.9502 0.0436 0.3218 2.9644 2.4943 -357.8958 0.3166
5677.0 2.3147 2.1712 2.0924 95.5620 7.9502 0.0283 0.3053 2.9648 2.4958 -357.9688 0.3164
5677.5 2.3491 2.2217 2.1587 96.3555 7.8842 0.0124 0.3025 2.9321 2.4899 -358.2813 0.2948
5678.0 2.4211 2.2927 2.2386 98.8117 7.9722 0.0023 0.2971 2.9268 2.4915 -358.3333 0.2869
5678.5 2.4987 2.3616 2.3086 102.3555 7.9502 -0.0022 0.3031 2.9662 2.4887 -358.3125 0.2853
5679.0 2.5493 2.4109 2.3680 98.9170 7.9722 0.0039 0.2975 3.0341 2.4973 -358.2917 0.3010
5679.5 2.5304 2.4361 2.4022 95.2142 7.9502 0.0071 0.3099 3.0713 2.4879 -358.4688 0.2959
5680.0 2.4599 2.3552 2.3324 99.1816 7.8842 0.0139 0.2953 3.0854 2.4678 -358.5417 0.3075
5680.5 2.4095 2.3033 2.2670 93.8922 7.9062 0.0116 0.2970 3.0640 2.4620 -358.6042 0.2904
5681.0 2.4377 2.3246 2.2806 101.8265 7.9502 0.0091 0.2888 3.0174 2.4740 -358.6146 0.2878
5681.5 2.4357 2.3308 2.2803 97.0662 7.9502 0.0059 0.2980 2.9742 2.4817 -358.5313 0.2787
