~VERSION INFORMATION
VERS.           1.2   :CWLS Log ASCII Standard - VERSION 1.2
WRAP.           NO    :One Line per depth step
PROD.  Schlumberger   :LAS Producer
PROG.  DLIS to ASCII 17C0-152                          :LAS Program name and version
CREA.        2013/08/16 09:04                          :LAS Creation date {YYYY/MM/DD hh:mm}
DLIS_CREA.  2013-Aug-16 00:16                          :DLIS Creation date and time {YYYY-MMM-DD hh:mm}
SOURCE.     960568ea-4174-41e0-a405-0f32a02141a6       :DLIS File Name
#--------------------------------------------------
~WELL INFORMATION
#MNEM.UNIT      DATA             DESCRIPTION
#---- ------ --------------   -----------------------------
STRT .F      457.0000        :START DEPTH        # original; data subset to 5500-8000
STOP .F      7701.0000       :STOP DEPTH        # original; data subset to 5500-8000
STEP .F       0.5000         :STEP       
NULL .          -999.25      :NULL VALUE
COMP .                 COMPANY:  Bear Oil & Gas, Inc.               
WELL .                    WELL:  Fornstrom 13-32A                   
FLD  .                   FIELD:  Wildcat                            
LOC  .                LOCATION:  SHL: NWSW 1925' FSL & 540" FWL     
CNTY .                  COUNTY:  Laramie                            
STAT .                   STATE:  Wyoming                            
CTRY .                 COUNTRY:  United States                      
SRVC .         SERVICE COMPANY:  Schlumberger                       
LATI .DEG             LATITUDE:  41.307320 degrees                  
LONG .DEG            LONGITUDE:  -104.11715 degrees                 
API  .              API NUMBER:  49-021-21022                       
DATE .                LOG DATE:  15-Aug-2013
UWI  .          UNIQUE WELL ID:  49021210220000                     
#-----------------------------------------------------------------------------
~PARAMETER INFORMATION
#MNEM.UNIT    VALUE                      DESCRIPTION
#---- -----   --------------------       ------------------------
CN   .        Bear Oil & Gas  Inc.       :Company Name
WN   .        Fornstrom 13-32A           :Well Name
FN   .        Wildcat                    :Field Name
FL   .        SHL  NWSW 1925' FSL & 540  FWL :Field Location
FL1  .        Sec. 32  T. 16N  R. 60W    :Field Location, Line 1
COUN .        Laramie                    :County or Parish
STAT .        Wyoming                    :State or Province
NATI .        United States              :Nation
DATE .        15-Aug-2013                :Tools Above Rotary Table Date
APIN .        49-021-21022               :API Well Number
SECT .        32                         :Section
TOWN .        16N                        :Township
RANG .        60W                        :Range
DMF  .        KB                         :Drilling Measured From (Name of Drilling Elevation Reference)
LMF  .        KB                         :Logging Measured From (Name of Logging Elevation Reference)
PDAT .        GL                         :Permanent Datum
ENGI .        Max Pace                   :Engineer s Name
WITN .        Tery Eittreim              :Witness s Name
LATI .        41.307320 degrees          :Latitude
LONG .        -104.11715 degrees         :Longitude
LUL  .        Fort Morgan  CO            :Logging Unit Location
LUN  .        3030                       :Logging Unit Number
RUN  .        Run 1                      :Run Number
SON  .        CA0R-00040                 :Service Order Number
BHT  .DEGF     168.00000                 :Bottom Hole Temperature
BS   .IN         7.87500                 :Bit Size
MDEN .G/C3       2.65000                 :Matrix Density for Density Porosity
DFD  .LB/G       8.80000                 :Drilling Fluid Density
DFV  .S         36.00000                 :Drilling Fluid Viscosity
DFL  .C3         5.00000                 :Drilling Fluid Loss
RMFS .OHMM       1.11000                 :Resistivity of Mud Filtrate Sample
EKB  .F       5298.00000                 :Elevation of Kelly Bushing
EGL  .F       5286.00000                 :Elevation of Ground Level
BLI  .F       7687.00000                 :Bottom Log Interval
BSAL .PPM     3295.90967                 :Borehole Salinity
FLEV .F          8.00000                 :Depth of Drilling Fluid Level to LMF (Log Measured From)
MCST .DEGF      84.00000                 :Mudcake Sample Temperature
MFST .DEGF      84.00000                 :Mud Filtrate Sample Temperature
MRT  .DEGF     168.00000                 :Maximum Recorded Temperature
MST  .DEGF      84.00000                 :Mud Sample Temperature
RMCS .OHMM       1.85000                 :Resistivity of Mud Cake Sample
RMS  .OHMM       1.48000                 :Resistivity of Mud Sample
RW   .OHMM       1.00000                 :Connate Water Resistivity
TDD  .F       7680.00000                 :Driller Total Depth
TDL  .F       7687.00000                 :Logger Total Depth
TLI  .F       1026.25000                 :Top Log Interval
HIDE .        Wildcat                    :Header Identifier
MATR .        SAND                       :Rock Matrix for Neutron Porosity Corrections
FNUM .           1.00000                 :F-Numerator for Formation Factor Formula
FEXP .           2.00000                 :Exponent "m" for Formation Factor Formula
DFT  .        Fresh Water                :Drilling Fluid Type
DFPH .           8.50000                 :Drilling Fluid pH
MCSS .        Calculated                 :Mudcake Sample Source
MFSS .        Calculated                 :Mud Filtrate Sample Source
FD   .G/C3       1.00000                 :Fluid Density
MSS  .        Active Tank                :Mud Sample Source
OS1  .                                   :Other Services Line 1
OS2  .                                   :Other Services Line 2
OS3  .                                   :Other Services Line 3
OS4  .                                   :Other Services Line 4
OS5  .                                   :Other Services Line 5
R1   .                                   :Remarks Line 1
R2   .                                   :Remarks Line 2
R3   .                                   :Remarks Line 3
R4   .                                   :Remarks Line 4
R5   .                                   :Remarks Line 5
R6   .                                   :Remarks Line 6
R7   .                                   :Remarks Line 7
R8   .                                   :Remarks Line 8
TCS  .        14 00 00                   :Time Circulation Stopped
TLAB .        22 20 59                   :Time Logger At Bottom
NMT  .        NOBARITE                   :HRDD Mud Type for Nuclear Devices
EPD  .F         5286.000000              :Elevation of Permanent Datum above Mean Sea Level
APD  .F          12.000000               :Elevation of Depth Reference (LMF) above Permanent Datum
#-----------------------------------------------------------------------------
~CURVE INFORMATION
#MNEM.UNIT   API CODE                                  DESCRIPTION
#---- -----  --------                                  -----------------------
DEPT .F                                                :DEPTH (BOREHOLE) {F12.4}
AT10 .OHMM                                             :Array Induction Two Foot Resistivity A10 {F11.4}
AT30 .OHMM                                             :Array Induction Two Foot Resistivity A30 {F11.4}
AT90 .OHMM                                             :Array Induction Two Foot Resistivity A90 {F11.4}
GR   .GAPI                                             :Gamma Ray {F11.4}
HCAL .IN                                               :HRCC Caliper Calibrated {F11.4}
HDRA .G/C3                                             :Density Standoff Correction {F11.4}
NPHI .CFCF                                             :Thermal Neutron Porosity (original Ratio Method) in Selected Lithology {F11.4}
PEFZ .                                                 :Standard Resolution Formation Photoelectric Factor {F11.4}
RHOZ .G/C3                                             :Standard Resolution Formation Density {F11.4}
SP   .MV                                               :Spontaneous Potential {F11.4}
TNPH .CFCF                                             :Thermal Neutron Porosity (Ratio Method) in Selected Lithology {F11.4}
#-----------------------------------------------------------------------------
# 
#      DEPT        AF10       AF20       AF30       AF60       AF90       AO10       AO20       AO30       AO60       AO90       AT10       AT20       AT30       AT60       AT90     AHFCO60      AHMF      AHORT      AHORX      AHSCA     AHTCO10    AHTCO20    AHTCO30    AHTCO60    AHTCO90     AHTD1      AHTD2      AHTRT      AHTRX       CDF        CFTC       CNTC       CTEM       DCAL       DNPH       DPHZ       DSOZ       ECGR        ED        GDEV        GR        GTEM       HCAL       HDRA       HDRB       HGR        HMIN       HMNO       HNPO       HPRA       HTNP        ND        NPHI       NPOR       PEFZ    PXND_HILT     RHOZ       RSOZ     RWA_HILT     RXO8       RXOZ        SP        SPAR       STIT       TENS       TNPH     HTNP_SAN
#
~A  DEPT AT10 AT30 AT90 GR HCAL HDRA NPHI PEFZ RHOZ SP TNPH
# ...
7233.5000 5.1352 4.7094 4.4469 137.0543 7.8067 -0.0073 0.2510 3.8534 2.4643 62.3984 0.2386
7234.0000 5.2166 4.7407 4.4660 127.6072 7.7836 -0.0080 0.2641 3.7802 2.4709 62.9107 0.2309
7234.5000 5.3839 4.8455 4.5707 123.4283 7.7605 -0.0055 0.2571 3.6905 2.4822 62.8281 0.2410
7235.0000 5.1066 4.7815 4.5353 124.7001 7.7605 -0.0026 0.2701 3.6053 2.4913 63.3125 0.2479
7235.5000 4.7242 4.3942 4.1993 134.8143 7.6911 -0.0043 0.2603 3.5868 2.4796 63.0703 0.2640
7236.0000 4.6887 4.2721 4.0898 142.1420 7.6911 -0.0076 0.2767 3.5971 2.4637 62.6161 0.2445
7236.5000 5.0078 4.5668 4.3636 140.8701 7.7143 -0.0100 0.2625 3.6610 2.4557 62.2813 0.2436
7237.0000 5.4884 4.9629 4.6984 132.8153 7.7143 -0.0094 0.2642 3.7022 2.4633 61.7143 0.2309
7237.5000 5.2891 4.9009 4.6390 122.1565 7.7374 -0.0087 0.2474 3.7298 2.4675 62.0938 0.2459
7238.0000 4.8671 4.4741 4.2611 120.0365 7.7374 -0.0075 0.2511 3.6770 2.4709 62.2266 0.2389
7238.5000 4.5237 4.1506 3.9562 123.5493 7.7143 -0.0054 0.2435 3.5885 2.4740 61.7411 0.2494
7239.0000 4.2698 3.9322 3.7393 133.0274 7.7374 -0.0057 0.2691 3.5446 2.4691 61.7578 0.2415
7239.5000 4.0301 3.7705 3.5864 137.3882 7.7836 -0.0033 0.2941 3.5299 2.4593 61.8393 0.2549
7240.0000 3.9138 3.6493 3.4684 133.0274 7.7836 0.0013 0.3272 3.5380 2.4504 61.6719 0.2673
7240.5000 3.9382 3.6681 3.4786 131.7860 7.7952 0.0019 0.3185 3.5405 2.4490 61.8036 0.3029
7241.0000 3.9504 3.6963 3.4867 127.6377 7.8067 -0.0009 0.3120 3.5585 2.4530 61.5547 0.2992
7241.5000 3.9773 3.6940 3.4724 126.1840 7.7836 -0.0027 0.2905 3.5727 2.4710 61.8393 0.2915
7242.0000 4.1923 3.8782 3.6556 116.4939 7.7605 0.0014 0.2858 3.6139 2.4911 61.8203 0.2688
7242.5000 4.3625 4.0849 3.8520 106.3194 7.7605 0.0040 0.2691 3.6522 2.5036 61.9531 0.2559
7243.0000 4.5976 4.3539 4.1066 105.0171 7.7836 0.0028 0.2516 3.7040 2.5042 62.1339 0.2453
7243.5000 4.8663 4.6890 4.4338 105.7439 7.7952 -0.0012 0.2461 3.7582 2.4931 61.8828 0.2345
7244.0000 4.8990 4.8308 4.5599 106.9856 7.8530 -0.0033 0.2289 3.7674 2.4838 61.9107 0.2298
7244.5000 4.5937 4.5926 4.3998 106.1376 7.8530 -0.0027 0.2449 3.7047 2.4711 61.6875 0.2135
7245.0000 4.5271 4.4101 4.2619 112.9195 7.8530 0.0077 0.2444 3.5542 2.4692 61.4018 0.2320
7245.5000 4.4217 4.0945 4.0798 125.4558 7.8530 0.0064 0.2625 3.4538 2.4681 61.6563 0.2283
7246.0000 4.5053 4.0294 3.8564 132.6940 7.8761 0.0028 0.2512 3.4188 2.4703 61.4018 0.2382
7246.5000 4.3193 4.1921 3.8219 125.9420 7.8992 -0.0056 0.2336 3.4207 2.4675 61.2109 0.2234
7247.0000 4.5089 3.4544 3.2091 135.6927 7.8530 0.0283 0.1969 3.4074 2.4615 60.6875 0.2206
7247.5000 2.5492 2.7158 2.5836 175.3008 7.8530 0.0777 0.2561 3.3184 2.4542 59.7578 0.2135
7248.0000 1.5749 1.4834 1.4241 224.2061 7.8530 0.0990 0.3250 3.1453 2.4282 59.1518 0.2799
7248.5000 1.3695 1.3591 1.3199 223.9939 8.4309 0.0650 0.3610 2.9569 2.4046 59.7031 0.3160
7249.0000 2.2357 2.0780 1.8948 184.8694 7.8530 0.0164 0.2945 3.0214 2.4070 60.5893 0.2971
7249.5000 3.7840 3.2998 2.9238 141.6876 7.8530 -0.0073 0.2489 3.2508 2.4287 61.2813 0.2357
7250.0000 3.6596 3.2266 2.9541 139.2350 7.8761 -0.0077 0.2495 3.4803 2.4473 61.5357 0.2395
7250.5000 3.5554 3.1495 2.9765 140.2044 7.8299 -0.0088 0.2982 3.5159 2.4377 61.9219 0.2546
7251.0000 3.7023 3.2694 3.0745 133.2394 7.8299 -0.0096 0.2981 3.4733 2.4317 61.6964 0.2922
7251.5000 3.8011 3.4628 3.2545 124.4575 7.7605 -0.0088 0.2966 3.4279 2.4392 61.6563 0.2741
7252.0000 3.8158 3.4862 3.2898 120.5813 7.7836 -0.0081 0.2738 3.4044 2.4472 61.9219 0.2784
7252.5000 3.7547 3.5009 3.3260 125.4266 7.7605 0.0035 0.2793 3.3977 2.4475 61.6607 0.2671
7253.0000 3.7327 3.5198 3.3412 125.2448 7.7605 0.0096 0.2912 3.3984 2.4373 61.7578 0.2833
7253.5000 3.5643 3.3533 3.2105 136.7522 7.7605 0.0114 0.3074 3.3954 2.4153 61.9643 0.2909
7254.0000 3.4289 3.2191 3.0903 147.6537 7.8067 0.0013 0.3280 3.4010 2.3995 61.9766 0.2991
7254.5000 3.7649 3.4623 3.3151 141.9007 7.7836 -0.0041 0.2991 3.4122 2.4009 62.0089 0.3010
7255.0000 3.9764 3.7258 3.5758 129.4240 7.7605 -0.0054 0.2712 3.4474 2.4196 61.6563 0.2607
7255.5000 4.3814 4.1663 3.9180 118.9464 7.7721 -0.0040 0.2468 3.4501 2.4418 61.6094 0.2462
7256.0000 4.2444 4.0982 3.7884 124.2152 7.7374 -0.0029 0.2744 3.4474 2.4475 61.6875 0.2397
7256.5000 4.3272 4.0578 3.7136 129.0603 7.7605 -0.0017 0.3043 3.4007 2.4515 61.6797 0.2631
7257.0000 4.3852 3.9737 3.5496 133.2389 7.7605 -0.0027 0.3163 3.4081 2.4544 61.8125 0.2772
7257.5000 4.2702 3.9961 3.4470 129.8776 7.7489 -0.0023 0.2982 3.4177 2.4739 61.6250 0.2836
7258.0000 4.1380 3.9703 3.3419 117.7652 7.7605 -0.0034 0.2714 3.4902 2.4867 61.6786 0.2696
7258.5000 3.9621 3.9536 3.3169 110.8311 7.7605 -0.0052 0.2517 3.5836 2.4861 61.4844 0.2514
7259.0000 3.5972 3.7873 3.2179 108.1360 7.7605 -0.0069 0.2605 3.6539 2.4729 61.0804 0.2400
7259.5000 3.3916 3.7228 3.2216 116.4330 7.7721 -0.0077 0.2824 3.6764 2.4549 61.5078 0.2553
7260.0000 3.5953 3.9064 3.4406 123.6096 7.8067 -0.0049 0.2950 3.5975 2.4531 61.6094 0.2715
7260.5000 3.7469 4.1437 3.6986 121.8531 7.7374 -0.0029 0.3022 3.5418 2.4532 61.4196 0.2731
7261.0000 3.9967 4.2702 3.9537 120.8241 7.7374 -0.0015 0.2858 3.4807 2.4599 61.4297 0.2817
7261.5000 4.1423 4.1984 3.9317 114.7073 7.7143 -0.0019 0.2776 3.4342 2.4643 61.4196 0.2732
7262.0000 3.7718 3.3362 3.2949 115.2525 7.7374 -0.0036 0.2689 3.3745 2.4630 61.5000 0.2648
7262.5000 3.0110 2.8003 2.7448 118.1894 7.7605 -0.0051 0.2678 3.2856 2.4546 61.1518 0.2676
7263.0000 2.8466 2.6466 2.5925 129.3937 7.7605 0.0003 0.2707 3.1866 2.4374 60.4453 0.2758
7263.5000 2.0565 1.9598 1.8391 150.8939 7.7374 0.0180 0.2799 3.0568 2.3844 59.3125 0.2998
7264.0000 0.9803 0.9610 0.9459 200.0402 7.6449 0.0355 0.3611 2.8643 2.2868 57.4375 0.3281
7264.5000 0.6231 0.6015 0.5903 246.2810 7.7605 0.0426 0.4424 2.6076 2.1752 57.3214 0.4047
7265.0000 0.5121 0.5237 0.5098 287.2816 7.7605 0.0419 0.4953 2.4173 2.1413 57.4219 0.4397
7265.5000 0.5600 0.5715 0.5479 272.2630 7.8067 0.0336 0.4082 2.4068 2.1967 57.9844 0.4417
7266.0000 0.8273 0.7695 0.7164 235.9550 7.8992 0.0363 0.3253 2.6188 2.3215 59.3750 0.3168
7266.5000 1.4226 1.2959 1.1277 188.1704 7.7605 0.0408 0.2803 2.8733 2.4302 59.7891 0.2597
7267.0000 2.3499 1.8038 1.5199 165.6406 7.7605 0.0503 0.2864 3.0274 2.4948 59.9464 0.2653
7267.5000 2.3714 1.7793 1.5301 150.4388 7.7836 0.0523 0.3042 3.0474 2.4951 59.9531 0.2897
7268.0000 2.2343 1.7887 1.5614 149.2891 7.7605 0.0567 0.3046 3.0175 2.4764 59.6518 0.3039
7268.5000 2.0981 1.7620 1.5774 149.1370 7.7374 0.0520 0.3434 2.9787 2.4581 59.6641 0.3009
7269.0000 2.1601 1.8943 1.7339 152.9527 7.7836 0.0440 0.3563 2.9454 2.4586 59.4286 0.3361
7269.5000 2.3441 2.0447 1.9092 158.5547 7.7374 0.0200 0.3468 2.8828 2.4449 59.7031 0.3414
7270.0000 2.4316 2.1500 2.0425 162.8244 7.8067 0.0094 0.3196 2.8247 2.4421 59.8214 0.3251
7270.5000 2.2532 2.0427 1.9106 176.1784 7.8299 0.0021 0.3250 2.7614 2.4361 59.3516 0.3058
7271.0000 2.1804 1.9587 1.8363 178.0857 7.7605 0.0033 0.3267 2.7118 2.4401 59.5179 0.3119
7271.5000 2.2058 1.9982 1.8769 167.8814 7.7952 0.0085 0.3427 2.7135 2.4423 59.5313 0.3158
7272.0000 2.2450 2.0410 1.9214 153.0737 7.8067 0.0165 0.3284 2.7295 2.4466 59.4196 0.3389
7272.5000 2.2703 2.0441 1.9314 144.5953 7.8530 0.0250 0.3439 2.7628 2.4469 59.7891 0.3243
7273.0000 2.3730 2.1279 2.0185 148.7440 7.8299 0.0210 0.3459 2.7697 2.4249 59.6964 0.3329
7273.5000 2.4898 2.2526 2.1341 154.0130 7.8299 0.0276 0.3294 2.8134 2.4199 59.7813 0.3369
7274.0000 2.5245 2.2923 2.1788 163.2186 7.7836 0.0310 0.3266 2.8480 2.4178 59.8482 0.3184
7274.5000 2.5554 2.3112 2.2090 167.1246 7.8761 0.0316 0.3306 2.8652 2.4250 59.7891 0.3052
7275.0000 2.5451 2.3386 2.2286 172.0305 7.8530 0.0233 0.3598 2.8583 2.4231 60.0982 0.3145
7275.5000 2.4868 2.2934 2.1928 165.3679 7.8761 0.0220 0.3627 2.8719 2.4368 59.8828 0.3466
7276.0000 2.4259 2.2456 2.1534 161.7040 7.8761 0.0323 0.3341 2.9142 2.4602 59.9107 0.3361
7276.5000 2.3732 2.1995 2.1172 150.4390 7.8299 0.0332 0.3166 2.9359 2.4699 59.8203 0.3198
7277.0000 2.3355 2.1506 2.0733 145.9570 7.7836 0.0334 0.3061 2.9293 2.4666 59.4766 0.3100
7277.5000 2.3797 2.1725 2.0736 143.8978 7.7836 0.0320 0.3439 2.8945 2.4565 59.8839 0.2981
