~VERSION INFORMATION
VERS.           2.0   :CWLS Log ASCII Standard - VERSION 2.0
WRAP.           NO    :One Line per depth step
PROD.  Schlumberger   :LAS Producer
PROG.  DLIS to ASCII 19C1-222                          :LAS Program name and version
CREA.        2013/09/09 02:34                          :LAS Creation date {YYYY/MM/DD hh:mm}
DLIS_CREA.  2013-Sep-09 02:29                          :DLIS Creation date and time {YYYY-MMM-DD hh:mm}
SOURCE.     049-021-21038_Marquardt 44-31_Run_PEX-AIT_Mainpass.dlis  :DLIS File Name
FILE-ID.     MaxWell_4Dlis                             :File Identification Number
#--------------------------------------------------
~WELL INFORMATION
#MNEM.UNIT      DATA             DESCRIPTION
#---- ------ --------------   -----------------------------
STRT .F      952.5           :START DEPTH        # original; data subset to 5500-8000
STOP .F      7703.0          :STOP DEPTH        # original; data subset to 5500-8000
STEP .F       0.5            :STEP     
NULL .          -999.25      :NULL VALUE
COMP .        Bear Oil & Gas, Inc                      :COMPANY
WELL .        Marquardt 44-31                          :WELL
FLD  .        Wildcat                                  :FIELD
LOC  .        Lat/Long : 41.3038/-104.1202             :LOCATION
CNTY .        Laramie                                  :COUNTY
STAT .        Wyoming                                  :STATE
CTRY .        USA                                      :COUNTRY
API  .        049-021-21038                            :API NUMBER
UWI  .        049021210380000                          :UNIQUE WELL ID
DATE .        08-Sep-2013                              :LOG DATE {DD-MMM-YYYY}
SRVC .        Schlumberger                             :SERVICE COMPANY
LATI .DEG     41.303800 degrees                        :LATITUDE
LONG .DEG     -104.12020 degrees                       :LONGITUDE
GDAT .                                                 :GeoDetic Datum
SECT .        31                                       :Section
RANG .        60W                                      :Range
TOWN .        16N                                      :Township
#-----------------------------------------------------------------------------
~PARAMETER INFORMATION
#MNEM.UNIT    VALUE                      DESCRIPTION
#---- -----   --------------------       ------------------------
CN   .        Bear Oil & Gas  Inc        :Company Name
WN   .        Marquardt 44-31            :Well Name
FN   .        Wildcat                    :Field Name
FL   .        Lat/Long   41.3038/-104.1202 :Field Location
FL1  .        SHL   766' FSL X 245' FEL SESE :Field Location, Line 1
COUN .        Laramie                    :County or Parish
STAT .        Wyoming                    :State or Province
NATI .        USA                        :Nation
DATE .        08-Sep-2013                :Tools Above Rotary Table Date
APIN .        049-021-21038              :API Well Number
SECT .        31                         :Section
TOWN .        16N                        :Township
RANG .        60W                        :Range
DMF  .        KB                         :Drilling Measured From (Name of Drilling Elevation Reference)
LMF  .        KB                         :Logging Measured From (Name of Logging Elevation Reference)
PDAT .        GL                         :Permanent Datum
ENGI .        Arvin Shi                  :Engineer s Name
WITN .        Terry Eittreim             :Witness s Name
LATI .        41.303800 degrees          :Latitude
LONG .        -104.12020 degrees         :Longitude
LUL  .        Fort Morgan                :Logging Unit Location
LUN  .        3030                       :Logging Unit Number
RUN  .        Run 1                      :Run Number
SON  .        C6VJ-00075                 :Service Order Number
BHT  .DEGF     184.00000                 :Bottom Hole Temperature
BS   .IN         7.87500                 :Bit Size
MDEN .G/C3       2.65000                 :Matrix Density for Density Porosity
DFD  .LB/G       9.00000                 :Drilling Fluid Density
DFV  .S         80.00000                 :Drilling Fluid Viscosity
DFL  .C3      -999.25000                 :Drilling Fluid Loss
RMFS .OHMM       0.80250                 :Resistivity of Mud Filtrate Sample
EKB  .F       5298.00000                 :Elevation of Kelly Bushing
EGL  .F       5286.00000                 :Elevation of Ground Level
BLI  .F       7686.00000                 :Bottom Log Interval
BSAL .PPM     4641.08936                 :Borehole Salinity
FLEV .F          8.00000                 :Depth of Drilling Fluid Level to LMF (Log Measured From)
MCST .DEGF      84.00000                 :Mudcake Sample Temperature
MFST .DEGF      84.00000                 :Mud Filtrate Sample Temperature
MRT  .DEGF     184.00000                 :Maximum Recorded Temperature
MST  .DEGF      84.00000                 :Mud Sample Temperature
RMCS .OHMM       1.33750                 :Resistivity of Mud Cake Sample
RMS  .OHMM       1.07000                 :Resistivity of Mud Sample
RW   .OHMM       1.00000                 :Connate Water Resistivity
TDD  .F       7680.00000                 :Driller Total Depth
TDL  .F       7686.00000                 :Logger Total Depth
TLI  .F       1023.00000                 :Top Log Interval
HIDE .        Wildcat                    :Header Identifier
MATR .        SAND                       :Rock Matrix for Neutron Porosity Corrections
FNUM .           1.00000                 :F-Numerator for Formation Factor Formula
FEXP .           2.00000                 :Exponent "m" for Formation Factor Formula
DFT  .        Fresh Water                :Drilling Fluid Type
DFPH .        -999.25000                 :Drilling Fluid pH
MCSS .        Calculated                 :Mudcake Sample Source
MFSS .        Calculated                 :Mud Filtrate Sample Source
FD   .G/C3       1.00000                 :Fluid Density
MSS  .        Flowline                   :Mud Sample Source
OS1  .                                   :Other Services Line 1
OS2  .                                   :Other Services Line 2
OS3  .                                   :Other Services Line 3
OS4  .                                   :Other Services Line 4
OS5  .                                   :Other Services Line 5
R1   .                                   :Remarks Line 1
R2   .                                   :Remarks Line 2
R3   .                                   :Remarks Line 3
R4   .                                   :Remarks Line 4
R5   .                                   :Remarks Line 5
R6   .                                   :Remarks Line 6
R7   .                                   :Remarks Line 7
R8   .                                   :Remarks Line 8
TCS  .        15 00 00                   :Time Circulation Stopped
TLAB .        00 30 46                   :Time Logger At Bottom
NMT  .        NOBARITE                   :HRDD Mud Type for Nuclear Devices
EPD  .C3         5286.000000             :Elevation of Permanent Datum above Mean Sea Level
APD  .F          12.000000               :Elevation of Depth Reference (LMF) above Permanent Datum
#-----------------------------------------------------------------------------
~CURVE INFORMATION
#MNEM.UNIT   API CODE                                  DESCRIPTION
#---- -----  --------                                  -----------------------
DEPT .F                                                :DEPTH (BOREHOLE) {F10.1}
AT10 .OHMM                                             :Array Induction Two Foot Resistivity A10 {F11.4}
AT30 .OHMM                                             :Array Induction Two Foot Resistivity A30 {F11.4}
AT90 .OHMM                                             :Array Induction Two Foot Resistivity A90 {F11.4}
GR   .GAPI                                             :Gamma Ray {F11.4}
HCAL .IN                                               :HRCC Caliper Calibrated {F11.4}
HDRA .G/C3                                             :Density Standoff Correction {F11.4}
NPHI .CFCF                                             :Thermal Neutron Porosity (original Ratio Method) in Selected Lithology {F11.4}
PEFZ .                                                 :Standard Resolution Formation Photoelectric Factor {F11.4}
RHOZ .G/C3                                             :Standard Resolution Formation Density {F11.4}
SP   .MV                                               :Spontaneous Potential {F11.4}
TNPH .CFCF                                             :Thermal Neutron Porosity (Ratio Method) in Selected Lithology {F11.4}
#-----------------------------------------------------------------------------
# 
#     DEPT       AF10       AF20       AF30       AF60       AF90       AO10       AO20       AO30       AO60       AO90       AT10       AT20       AT30       AT60       AT90     AHFCO60      AHMF      AHORT      AHORX      AHSCA     AHTCO10    AHTCO20    AHTCO30    AHTCO60    AHTCO90     AHTD1      AHTD2      AHTRT      AHTRX       CDF        CFTC       CNTC       CTEM       DCAL       DNPH       DPHZ       DSOZ       ECGR        ED        GDEV        GR        GTEM       HCAL       HDRA       HDRB       HGR        HMIN       HMNO       HNPO       HPRA       HTNP        ND        NPHI       NPOR       PEFZ    PXND_HILT     RHOZ       RSOZ     RWA_HILT     RXO8       RXOZ        SP        SPAR       STIT       TENS       TNPH     HTNP_SAN
#
~A  DEPT AT10 AT30 AT90 GR HCAL HDRA NPHI PEFZ RHOZ SP TNPH
# ...
7394.0 2.4655 2.4413 2.4340 165.6583 8.4470 0.2300 0.3169 2.6859 2.4239 -458.6964 0.3343
7394.5 2.4441 2.4257 2.4188 161.2139 8.5583 0.2219 0.3156 2.5977 2.3774 -458.8750 0.3218
7395.0 2.4411 2.3901 2.3816 163.1955 8.3803 0.2196 0.3185 2.5489 2.3748 -458.6786 0.3228
7395.5 2.4273 2.3576 2.3463 162.5443 8.4915 0.2135 0.3282 2.5450 2.3661 -458.7946 0.3157
7396.0 2.3805 2.3249 2.3100 166.6207 8.4693 0.2355 0.3100 2.5493 2.3923 -458.9609 0.3262
7396.5 2.2581 2.2048 2.2060 175.9335 8.3358 0.2424 0.3352 2.5592 2.3975 -458.5000 0.3007
7397.0 2.1224 2.0672 2.0585 176.8394 9.1145 0.2573 0.3128 2.5608 2.4370 -458.7344 0.3082
7397.5 2.1729 2.0806 2.0482 169.6774 8.6473 0.2509 0.3378 2.5938 2.4474 -458.8125 0.2960
7398.0 2.1835 2.1158 2.0661 155.8917 8.4693 0.2466 0.3258 2.6311 2.4619 -458.8125 0.3126
7398.5 2.1849 2.1171 2.0604 154.0519 8.5472 0.2385 0.3328 2.6678 2.4552 -459.1071 0.3120
7399.0 2.1996 2.1108 2.0517 160.7606 8.5360 0.2323 0.3498 2.6927 2.4416 -458.8203 0.3310
7399.5 2.2182 2.1247 2.0460 158.4965 8.5805 0.2227 0.3359 2.7103 2.4270 -458.9286 0.3464
7400.0 2.2402 2.1444 2.0554 154.6747 8.6028 0.2163 0.3489 2.7300 2.4343 -458.8984 0.3283
7400.5 2.2376 2.1339 2.0539 145.5880 8.7140 0.2044 0.3172 2.7515 2.4356 -458.6429 0.3316
7401.0 2.2266 2.1179 2.0456 148.7582 8.6918 0.2064 0.3234 2.7630 2.4509 -458.7031 0.3082
7401.5 2.2156 2.1172 2.0401 154.9577 8.6695 0.2210 0.3191 2.7561 2.4626 -458.4107 0.3152
7402.0 2.1872 2.0993 2.0368 159.5154 8.5472 0.2475 0.3538 2.7355 2.4678 -458.6406 0.3206
7402.5 2.1584 2.0660 2.0036 157.0243 8.6028 0.2601 0.3407 2.6984 2.4553 -458.6786 0.3456
7403.0 2.1559 2.0707 2.0025 156.4297 8.6695 0.2445 0.3213 2.6687 2.4313 -458.5000 0.3409
7403.5 2.1516 2.0643 1.9966 157.1092 8.5583 0.2200 0.3013 2.6582 2.4193 -458.8661 0.3207
7404.0 2.1135 2.0253 1.9589 160.1944 8.5583 0.2020 0.3106 2.6695 2.4057 -458.5357 0.3043
7404.5 2.0852 1.9922 1.9250 159.5720 8.6918 0.2100 0.3215 2.6709 2.4245 -458.4922 0.3071
7405.0 2.0659 1.9736 1.9050 162.6576 8.6250 0.2193 0.3201 2.6830 2.4442 -458.7232 0.3194
7405.5 2.0351 1.9527 1.8822 168.8574 8.7363 0.2258 0.3216 2.6911 2.4753 -458.7031 0.3115
7406.0 2.0125 1.9319 1.8589 174.6323 8.2468 0.2116 0.3131 2.7093 2.4613 -458.9375 0.3208
7406.5 1.9840 1.9211 1.8411 166.5640 8.5805 0.2032 0.3174 2.7077 2.4463 -458.7813 0.3023
7407.0 1.9923 1.9136 1.8315 160.2234 8.4693 0.2056 0.2995 2.7335 2.4180 -458.8661 0.3063
7407.5 2.0286 1.9385 1.8453 160.2230 8.3580 0.2321 0.3321 2.7523 2.4243 -458.9922 0.2888
7408.0 2.0624 1.9746 1.8821 161.5822 8.4025 0.2522 0.3362 2.7556 2.4057 -458.6875 0.3108
7408.5 2.0684 1.9991 1.8989 162.5157 8.9143 0.2683 0.3468 2.7103 2.3936 -458.9196 0.3249
7409.0 2.0494 1.9836 1.8874 156.9673 8.3803 0.2571 0.3406 2.6437 2.3695 -458.5000 0.3528
7409.5 2.0054 1.9395 1.8427 156.5429 8.7585 0.2481 0.3322 2.6068 2.3922 -458.5804 0.3357
7410.0 1.9564 1.9114 1.8049 153.3445 8.8698 0.2325 0.3438 2.6015 2.4283 -458.9531 0.3319
7410.5 1.9083 1.8778 1.7840 149.9760 8.9810 0.2192 0.3485 2.6313 2.4484 -458.6964 0.3432
7411.0 1.8317 1.8159 1.7460 152.4385 8.5138 0.2021 0.3832 2.6551 2.4520 -459.0000 0.3557
7411.5 1.7688 1.7512 1.6883 156.0336 8.9810 0.1961 0.3638 2.6914 2.4375 -458.8125 0.3695
7412.0 1.7283 1.7190 1.6449 156.6849 8.9365 0.2045 0.3491 2.7059 2.4201 -458.6328 0.3508
7412.5 1.7102 1.6825 1.6064 155.3264 8.5805 0.2100 0.3182 2.6655 2.3786 -458.9911 0.3344
7413.0 1.6626 1.6423 1.5628 149.5795 8.4248 0.2049 0.3269 2.5883 2.3454 -458.8750 0.3115
7413.5 1.6173 1.6077 1.5378 151.6173 8.5583 0.1911 0.3298 2.5312 2.3270 -459.1696 0.3151
7414.0 1.5844 1.5905 1.4914 145.9558 8.5138 0.1896 0.3448 2.5037 2.3446 -458.9531 0.3215
7414.5 1.5498 1.5378 1.4412 149.9190 8.3247 0.1901 0.3691 2.4829 2.3626 -458.7143 0.3324
7415.0 1.4995 1.5274 1.3866 150.0036 8.4915 0.1870 0.3842 2.4701 2.3780 -458.9609 0.3555
7415.5 1.4829 1.5323 1.3917 155.6651 8.3024 0.1703 0.3887 2.4895 2.3635 -458.7411 0.3715
7416.0 1.5446 1.4889 1.3502 157.8454 8.5360 0.1654 0.3481 2.5125 2.3546 -458.8672 0.3617
7416.5 1.4786 1.3474 1.2212 171.3486 8.2357 0.1747 0.3627 2.4782 2.3531 -458.9286 0.3466
7417.0 1.1619 1.1476 1.0367 204.1855 8.0466 0.1714 0.4249 2.4517 2.3233 -459.1875 0.3721
7417.5 0.8727 0.8749 0.8265 228.1616 8.6695 0.1377 0.4346 2.4797 2.2845 -459.7422 0.4151
7418.0 0.7958 0.8036 0.7572 215.7063 8.5583 0.1076 0.4262 2.6270 2.2847 -459.3047 0.4184
7418.5 0.9067 0.8880 0.8397 180.3780 8.6695 0.0991 0.3627 2.7755 2.3373 -459.0000 0.3808
7419.0 0.9932 0.9627 0.9068 148.5602 8.2357 0.1017 0.3638 2.8362 2.3678 -458.7232 0.3459
7419.5 0.9900 0.9774 0.9247 135.8220 8.3136 0.1010 0.3510 2.8192 2.3648 -458.3359 0.3467
7420.0 1.0162 0.9737 0.9222 129.9338 8.2023 0.1006 0.3502 2.7870 2.3451 -458.5089 0.3457
7420.5 1.0141 0.9327 0.8922 128.8017 8.3358 0.1201 0.3727 2.7974 2.3555 -458.1953 0.3431
7421.0 1.0451 0.9464 0.9117 131.1790 8.4693 0.1353 0.4027 2.8054 2.3587 -458.3304 0.3635
7421.5 1.0871 1.0522 1.0010 137.7467 8.3358 0.1427 0.4476 2.8311 2.3638 -458.1328 0.3820
7422.0 1.2275 1.1946 1.1285 132.2545 8.4470 0.1259 0.4681 2.8728 2.3903 -457.6875 0.3880
7422.5 1.5451 1.4146 1.3872 131.5189 8.2246 0.1079 0.4036 3.0125 2.4602 -457.7578 0.3795
7423.0 2.2897 2.0033 1.8673 119.5445 8.2691 0.0927 0.3215 3.2279 2.5519 -457.5893 0.2999
7423.5 4.0900 3.3408 2.9469 116.2044 7.6461 0.1022 0.2491 3.4335 2.6489 -457.8125 0.2541
7424.0 5.1292 3.8405 3.4482 110.0049 7.6684 0.1015 0.2367 3.4786 2.6869 -457.4844 0.2237
7424.5 4.5924 3.8812 3.4579 110.2031 7.7573 0.0881 0.2287 3.3596 2.6948 -457.2422 0.2298
7425.0 4.2908 3.9269 3.6570 110.7691 7.7573 0.0566 0.2348 3.2301 2.6606 -457.4196 0.2271
7425.5 4.1446 3.9428 3.7779 117.8742 7.8018 0.0394 0.2504 3.1802 2.6313 -457.1563 0.2380
7426.0 4.0329 3.8458 3.8656 119.2614 7.7573 0.0414 0.2621 3.2241 2.6199 -457.1429 0.2491
7426.5 3.9637 3.7883 3.8640 114.6188 7.7351 0.0565 0.2614 3.3395 2.6567 -457.5469 0.2548
7427.0 4.1544 4.0382 4.0849 101.9650 7.7796 0.0812 0.2615 3.4397 2.7157 -457.1339 0.2492
7427.5 4.3557 4.2993 4.2775 104.2013 7.7573 0.1170 0.2561 3.4154 2.7681 -457.1786 0.2589
7428.0 4.2493 4.1926 4.1987 116.6566 7.7796 0.1329 0.2446 3.2192 2.7178 -457.0469 0.2592
7428.5 3.8926 3.8275 3.8790 120.6201 7.8686 0.1439 0.2435 3.0218 2.6420 -457.2321 0.2496
7429.0 3.5903 3.5374 3.6032 119.9405 7.9131 0.1466 0.2681 2.9345 2.5593 -457.3750 0.2532
7429.5 3.2473 3.1457 3.2265 116.4872 7.8463 0.1579 0.2959 2.9727 2.5585 -457.1518 0.2648
7430.0 3.6979 3.3633 3.4364 126.7627 7.8908 0.1482 0.2864 3.0470 2.5843 -457.4141 0.2728
7430.5 3.9532 3.8996 3.9497 125.0076 7.7573 0.1210 0.2845 3.1243 2.6115 -457.2768 0.2619
7431.0 4.0209 3.9946 4.0936 123.4792 7.7240 0.0998 0.2933 3.1399 2.6031 -457.1328 0.2756
7431.5 3.7904 3.8008 3.8877 123.1114 7.5349 0.1076 0.3254 3.0934 2.5831 -457.1071 0.2887
7432.0 3.7064 3.6537 3.7242 123.0550 7.6239 0.1345 0.3088 3.0076 2.5810 -456.7891 0.3098
7432.5 3.6169 3.4986 3.5769 128.4896 8.2023 0.1542 0.2964 2.9848 2.5932 -456.8393 0.2970
7433.0 3.4746 3.4113 3.4423 123.7337 8.0688 0.1480 0.2894 3.0137 2.6099 -456.8906 0.2986
7433.5 3.3876 3.3107 3.3159 127.1308 8.1356 0.1363 0.2934 3.0592 2.6057 -456.9643 0.2977
7434.0 3.2184 3.2228 3.2144 122.2341 8.0911 0.1403 0.3067 3.0596 2.5937 -457.3750 0.3023
7434.5 3.2019 3.1468 3.1334 127.3579 8.1356 0.1549 0.3166 3.0335 2.5632 -456.9922 0.3006
7435.0 3.1854 3.1187 3.0795 127.9804 8.1578 0.1834 0.3359 3.0427 2.5892 -456.7679 0.3097
7435.5 3.3416 3.2095 3.1799 121.3279 8.1244 0.2115 0.3178 3.1084 2.6311 -456.7891 0.3241
7436.0 3.3979 3.3271 3.2692 117.1952 7.8463 0.2428 0.3205 3.1665 2.6721 -456.9018 0.3102
7436.5 3.1469 3.0715 3.0543 121.5541 8.2913 0.2419 0.3045 3.1088 2.6294 -457.3203 0.3133
7437.0 3.0423 2.9424 2.9433 129.7919 8.3136 0.2297 0.2948 2.9737 2.5856 -457.2500 0.2982
7437.5 3.0281 2.9512 2.9232 128.4894 8.0021 0.2096 0.2744 2.8638 2.5511 -457.5234 0.2866
7438.0 2.9881 2.9221 2.8794 122.1492 8.5360 0.2045 0.2703 2.8447 2.5438 -457.4464 0.2678
7438.5 2.8226 2.8176 2.7687 125.2347 8.4915 0.1990 0.3008 2.8667 2.5205 -457.4531 0.2739
