~VERSION INFORMATION
VERS.           1.2   :CWLS Log ASCII Standard - VERSION 1.2
WRAP.           NO    :One Line per depth step
PROD.  Schlumberger   :LAS Producer
PROG.  DLIS to ASCII 17C0-152                          :LAS Program name and version
CREA.        2013/11/03 06:14                          :LAS Creation date {YYYY/MM/DD hh:mm}
DLIS_CREA.  2013-Nov-02 20:25                          :DLIS Creation date and time {YYYY-MMM-DD hh:mm}
SOURCE.     36f617ea-a8f9-4f31-9cfe-b4906ac6e0fc       :DLIS File Name
#--------------------------------------------------
~WELL INFORMATION
#MNEM.UNIT      DATA             DESCRIPTION
#---- ------ --------------   -----------------------------
STRT .F      1000.5000       :START DEPTH        # original; data subset to 5500-8000
STOP .F      7745.0000       :STOP DEPTH        # original; data subset to 5500-8000
STEP .F       0.5000         :STEP       
NULL .          -999.25      :NULL VALUE
COMP .                 COMPANY:  Bear Oil & Gas, Inc.               
WELL .                    WELL:  Marquardt 34-31                    
FLD  .                   FIELD:  Wildcat                            
LOC  .                LOCATION:  SWSE, Sec. 31, T16N, R60W          
CNTY .                  COUNTY:  Laramie                            
STAT .                   STATE:  Wyoming                            
CTRY .                 COUNTRY:                                     
SRVC .         SERVICE COMPANY:  Schlumberger                       
LATI .DEG             LATITUDE:  41.305550 degrees                  
LONG .DEG            LONGITUDE:  -104.12401 degrees                 
API  .              API NUMBER:  49-021-21046-0000                  
DATE .                LOG DATE:  02-Nov-2013
UWI  .          UNIQUE WELL ID:                                     
#-----------------------------------------------------------------------------
~PARAMETER INFORMATION
#MNEM.UNIT    VALUE                      DESCRIPTION
#---- -----   --------------------       ------------------------
CN   .        Bear Oil & Gas  Inc.       :Company Name
WN   .        Marquardt 34-31            :Well Name
FN   .        Wildcat                    :Field Name
FL   .        SWSE  Sec. 31  T16N  R60W  :Field Location
FL1  .        SHL  1265' FSL X 1340' FEL :Field Location, Line 1
COUN .        Laramie                    :County or Parish
STAT .        Wyoming                    :State or Province
NATI .                                   :Nation
DATE .        02-Nov-2013                :Tools Above Rotary Table Date
APIN .        49-021-21046-0000          :API Well Number
SECT .        31                         :Section
TOWN .        16N                        :Township
RANG .        60W                        :Range
DMF  .        KB                         :Drilling Measured From (Name of Drilling Elevation Reference)
LMF  .        KB                         :Logging Measured From (Name of Logging Elevation Reference)
PDAT .        GL                         :Permanent Datum
ENGI .        Heather Hoffman            :Engineer s Name
WITN .        Terry Eittreim             :Witness s Name
LATI .        41.305550 degrees          :Latitude
LONG .        -104.12401 degrees         :Longitude
LUL  .        Fort Morgan  CO            :Logging Unit Location
LUN  .        2135                       :Logging Unit Number
RUN  .        PEX BHC AIT                :Run Number
SON  .        CQQL-00004                 :Service Order Number
BHT  .DEGF     185.00000                 :Bottom Hole Temperature
BS   .IN         7.87500                 :Bit Size
MDEN .G/C3       2.65000                 :Matrix Density for Density Porosity
DFD  .LB/G       9.10000                 :Drilling Fluid Density
DFV  .S         82.00000                 :Drilling Fluid Viscosity
DFL  .C3      -999.25000                 :Drilling Fluid Loss
RMFS .OHMM       1.18400                 :Resistivity of Mud Filtrate Sample
EKB  .F       10594.00000                :Elevation of Kelly Bushing
EGL  .F       5291.00000                 :Elevation of Ground Level
BLI  .F       7724.00000                 :Bottom Log Interval
BSAL .PPM        0.00000                 :Borehole Salinity
FLEV .F         50.00000                 :Depth of Drilling Fluid Level to LMF (Log Measured From)
MCST .DEGF      85.00000                 :Mudcake Sample Temperature
MFST .DEGF      85.00000                 :Mud Filtrate Sample Temperature
MRT  .DEGF     185.00000                 :Maximum Recorded Temperature
MST  .DEGF      85.00000                 :Mud Sample Temperature
RMCS .OHMM       1.77600                 :Resistivity of Mud Cake Sample
RMS  .OHMM       1.48000                 :Resistivity of Mud Sample
RW   .OHMM       1.00000                 :Connate Water Resistivity
TDD  .F       7719.99951                 :Driller Total Depth
TDL  .F       7724.00000                 :Logger Total Depth
TLI  .F       1024.00000                 :Top Log Interval
HIDE .        Wildcat                    :Header Identifier
MATR .        SAND                       :Rock Matrix for Neutron Porosity Corrections
FNUM .           1.00000                 :F-Numerator for Formation Factor Formula
FEXP .           2.00000                 :Exponent "m" for Formation Factor Formula
DFT  .        WATER                      :Drilling Fluid Type
DFPH .        -999.25000                 :Drilling Fluid pH
MCSS .        Calculated                 :Mudcake Sample Source
MFSS .        Calculated                 :Mud Filtrate Sample Source
FD   .G/C3       1.00000                 :Fluid Density
MSS  .        Active Tank                :Mud Sample Source
OS1  .                                   :Other Services Line 1
OS2  .                                   :Other Services Line 2
OS3  .                                   :Other Services Line 3
OS4  .                                   :Other Services Line 4
OS5  .                                   :Other Services Line 5
R1   .                                   :Remarks Line 1
R2   .                                   :Remarks Line 2
R3   .                                   :Remarks Line 3
R4   .                                   :Remarks Line 4
R5   .                                   :Remarks Line 5
R6   .                                   :Remarks Line 6
R7   .                                   :Remarks Line 7
R8   .        This is first run in hole. :Remarks Line 8
TCS  .        09 55 00                   :Time Circulation Stopped
TLAB .        20 18 33                   :Time Logger At Bottom
NMT  .        NOBARITE                   :HRDD Mud Type for Nuclear Devices
EPD  .C3         5291.000000             :Elevation of Permanent Datum above Mean Sea Level
APD  .F         5303.000000              :Elevation of Depth Reference (LMF) above Permanent Datum
#-----------------------------------------------------------------------------
~CURVE INFORMATION
#MNEM.UNIT   API CODE                                  DESCRIPTION
#---- -----  --------                                  -----------------------
DEPT .F                                                :DEPTH (BOREHOLE) {F12.4}
AT10 .OHMM                                             :Array Induction Two Foot Resistivity A10 {F11.4}
AT30 .OHMM                                             :Array Induction Two Foot Resistivity A30 {F11.4}
AT90 .OHMM                                             :Array Induction Two Foot Resistivity A90 {F11.4}
DT   .US/F                                             :Delta-T (also called Slowness or Interval Transit Time) {F11.4}
GR   .GAPI                                             :Gamma Ray {F11.4}
HCAL .IN                                               :HRCC Caliper Calibrated {F11.4}
HDRA .G/C3                                             :Density Standoff Correction {F11.4}
NPHI .CFCF                                             :Thermal Neutron Porosity (original Ratio Method) in Selected Lithology {F11.4}
PEFZ .                                                 :Standard Resolution Formation Photoelectric Factor {F11.4}
RHOZ .G/C3                                             :Standard Resolution Formation Density {F11.4}
SP   .MV                                               :Spontaneous Potential {F11.4}
TNPH .CFCF                                             :Thermal Neutron Porosity (Ratio Method) in Selected Lithology {F11.4}
#-----------------------------------------------------------------------------
# 
#      DEPT        AF10       AF20       AF30       AF60       AF90       AO10       AO20       AO30       AO60       AO90       AT10       AT20       AT30       AT60       AT90     AHFCO60      AHMF      AHORT      AHORX      AHSCA     AHTCO10    AHTCO20    AHTCO30    AHTCO60    AHTCO90     AHTD1      AHTD2      AHTRT      AHTRX       CDF        CFTC       CNTC       CTEM       DCAL       DNPH       DPHZ       DSOZ        DT        ECGR        ED        GDEV        GR        GTEM       HCAL       HDRA       HDRB       HGR        HMIN       HMNO       HNPO       HPRA       HTNP       ITT         ND        NPHI       NPOR       PEFZ    PXND_HILT     RHOZ       RSOZ     RWA_HILT     RXO8       RXOZ        SP        SPAR       SPHI       STIT       TENS       TNPH     HTNP_SAN
#
~A  DEPT AT10 AT30 AT90 DT GR HCAL HDRA NPHI PEFZ RHOZ SP TNPH
# ...
7260.5000 3.8285 3.3367 2.8846 87.6928 149.4308 7.7364 -0.0020 0.2212 3.2825 2.4502 -197.8828 0.2302
7261.0000 3.5695 3.2267 2.9526 90.0711 148.1972 7.7364 -0.0034 0.2299 3.5239 2.4471 -197.8571 0.2220
7261.5000 3.6649 3.2242 2.9970 93.0446 147.1096 7.7141 -0.0052 0.2535 3.6172 2.4313 -197.6172 0.2272
7262.0000 3.8105 3.3717 3.1836 94.9341 140.8508 7.7364 -0.0051 0.2866 3.5678 2.4302 -197.1786 0.2394
7262.5000 3.8557 3.4543 3.2790 95.6385 132.6804 7.7587 -0.0044 0.2906 3.4603 2.4366 -196.8125 0.2635
7263.0000 3.6770 3.4187 3.2869 94.8365 128.6842 7.7141 -0.0050 0.2926 3.4005 2.4319 -197.0804 0.2738
7263.5000 3.6202 3.3952 3.2952 96.7658 131.3583 7.7587 -0.0052 0.3023 3.3985 2.4230 -197.1719 0.2889
7264.0000 3.5321 3.3603 3.2340 98.8041 136.0604 7.7587 -0.0040 0.3071 3.4040 2.4205 -197.1339 0.2998
7264.5000 3.4752 3.3456 3.2090 97.9173 144.0240 7.7364 -0.0045 0.3031 3.4405 2.4201 -197.0313 0.2979
7265.0000 3.7876 3.5248 3.3665 97.9382 139.6160 7.7364 -0.0050 0.2742 3.5022 2.4291 -197.2143 0.2732
7265.5000 4.0634 3.8018 3.5788 95.3257 133.0038 7.7364 -0.0057 0.2547 3.5970 2.4372 -196.8516 0.2417
7266.0000 4.3946 4.1158 3.8478 94.0418 129.5069 7.7587 -0.0057 0.2525 3.6939 2.4380 -197.0536 0.2350
7266.5000 4.2870 4.0843 3.8523 94.3188 131.0347 7.7364 -0.0066 0.2581 3.7403 2.4305 -196.9375 0.2381
7267.0000 4.3124 4.0184 3.7953 95.2083 132.4752 7.7587 -0.0068 0.2690 3.7543 2.4272 -197.0982 0.2468
7267.5000 4.4295 4.1571 3.9511 95.7274 129.3894 7.7809 -0.0067 0.2649 3.7584 2.4353 -197.2232 0.2428
7268.0000 4.5736 4.4575 4.2594 94.2022 120.5735 7.7587 -0.0056 0.2642 3.7687 2.4534 -197.2344 0.2341
7268.5000 4.6428 4.6327 4.4324 90.8861 114.6079 7.7809 -0.0065 0.2416 3.8078 2.4654 -197.2232 0.2286
7269.0000 4.4153 4.5024 4.2428 89.8986 110.1708 7.7809 -0.0069 0.2399 3.8510 2.4682 -196.9531 0.2131
7269.5000 4.1302 4.2099 4.1206 90.8861 117.6941 7.8144 -0.0071 0.2347 3.8492 2.4618 -196.7768 0.2286
7270.0000 4.0683 3.9354 3.7942 92.2648 117.4880 7.8255 -0.0043 0.2954 3.7479 2.4639 -196.7188 0.2853
7270.5000 4.0399 3.9140 3.8716 94.4985 123.3654 7.7921 -0.0010 0.3060 3.6041 2.4758 -196.9107 0.2947
7271.0000 4.0068 3.8695 3.8064 93.4513 122.8067 7.8255 -0.0018 0.3095 3.5770 2.4781 -197.2109 0.2899
7271.5000 4.0276 3.6354 3.5943 92.0553 126.1573 7.7809 -0.0025 0.3075 3.5779 2.4857 -197.3571 0.2909
7272.0000 3.8609 3.4000 3.1851 90.5188 121.0147 7.8032 -0.0032 0.2963 3.5644 2.4896 -197.3750 0.2934
7272.5000 3.9285 3.4847 3.3510 91.3261 122.7485 7.8255 -0.0002 0.2819 3.4345 2.4945 -197.2969 0.2963
7273.0000 3.1901 2.9040 2.6079 91.2083 136.2664 7.8478 0.0039 0.2812 3.3330 2.4611 -197.4464 0.2941
7273.5000 1.9589 1.7762 1.6461 92.9272 169.8556 7.8032 0.0203 0.3060 3.1693 2.4087 -198.0781 0.2999
7274.0000 1.0281 1.0049 0.9503 102.8196 227.9234 7.7809 0.0471 0.3723 2.9510 2.3411 -199.4107 0.3430
7274.5000 0.6967 0.6625 0.6308 108.5193 282.4352 7.8367 0.0639 0.4631 2.6504 2.2752 -199.9375 0.4130
7275.0000 0.6019 0.6052 0.5795 111.3066 310.1763 7.8701 0.0712 0.4907 2.4658 2.2381 -200.0089 0.4455
7275.5000 0.7122 0.6937 0.6561 104.2666 282.4649 7.8478 0.0829 0.4344 2.5006 2.2660 -199.6641 0.4186
7276.0000 1.0921 0.9997 0.9146 99.2013 228.5403 8.4496 0.1072 0.3574 2.7179 2.3527 -198.3482 0.3499
7276.5000 1.8083 1.5934 1.3824 95.4658 174.4097 8.0261 0.1188 0.3273 2.9150 2.4335 -197.3359 0.3305
7277.0000 2.4006 1.9071 1.6661 93.9075 145.9340 7.9704 0.1106 0.3179 2.9683 2.4711 -197.0089 0.3240
7277.5000 2.3565 1.9645 1.7403 96.4496 143.0836 7.9147 0.0987 0.3177 2.9135 2.4690 -196.8828 0.3131
7278.0000 2.2899 1.9552 1.7653 98.5180 147.8449 7.8255 0.0995 0.3385 2.8517 2.4615 -196.8393 0.3174
7278.5000 2.2377 1.9306 1.7833 99.8844 150.9009 7.8255 0.1042 0.3729 2.8319 2.4599 -196.8828 0.3373
7279.0000 2.3968 2.0425 1.8960 100.7493 157.4830 7.8589 0.1058 0.3663 2.8548 2.4581 -196.9196 0.3644
7279.5000 2.5077 2.2097 2.0584 101.5731 166.4167 7.9147 0.1058 0.3499 2.8785 2.4505 -197.0703 0.3558
7280.0000 2.4405 2.2013 2.0668 101.6880 173.3226 7.9370 0.1182 0.3775 2.8947 2.4514 -197.3393 0.3468
7280.5000 2.2935 2.0423 1.9587 101.7707 165.1245 7.9370 0.1327 0.3821 2.8994 2.4497 -197.3125 0.3631
7281.0000 2.2231 2.0175 1.9329 102.0445 161.7149 8.1152 0.1448 0.3867 2.8952 2.4583 -197.1875 0.3541
7281.5000 2.2897 2.0691 1.9818 103.5992 154.3389 7.9370 0.1455 0.3454 2.8864 2.4484 -197.2946 0.3635
7282.0000 2.3007 2.1080 2.0214 101.6222 155.3377 8.0261 0.1355 0.3495 2.8595 2.4409 -197.3594 0.3448
7282.5000 2.4000 2.1763 2.0931 102.7366 153.8096 7.9927 0.1233 0.3607 2.8571 2.4303 -197.4196 0.3515
7283.0000 2.5279 2.2898 2.1998 103.6806 154.8090 8.0261 0.1188 0.3763 2.8986 2.4257 -197.2578 0.3577
7283.5000 2.5841 2.3268 2.2350 104.0992 159.2171 7.9592 0.1261 0.3969 2.9627 2.4220 -196.9107 0.3676
7284.0000 2.5879 2.3386 2.2387 104.1073 162.7438 8.0038 0.1404 0.3990 2.9951 2.4239 -196.8125 0.3674
7284.5000 2.6010 2.3557 2.2617 102.2041 171.1777 7.9815 0.1433 0.3840 2.9703 2.4359 -196.8359 0.3628
7285.0000 2.5496 2.3283 2.2385 100.0800 164.1247 7.9815 0.1382 0.3479 2.9249 2.4674 -197.0804 0.3544
7285.5000 2.4777 2.2670 2.1870 99.3835 158.8349 7.9592 0.1231 0.3296 2.8886 2.4902 -196.9531 0.3360
7286.0000 2.4119 2.2234 2.1533 98.8854 151.5175 8.0038 0.1174 0.3264 2.8799 2.4814 -196.9821 0.3314
7286.5000 2.3437 2.1519 2.0827 98.9191 149.4022 7.9592 0.1220 0.3364 2.8741 2.4597 -197.0703 0.3339
7287.0000 2.3383 2.1516 2.0680 99.3948 145.0823 8.1152 0.1368 0.3402 2.8850 2.4444 -196.7946 0.3300
7287.5000 2.4035 2.1993 2.1249 98.9327 146.4925 8.0038 0.1519 0.3451 2.9250 2.4540 -196.8906 0.3236
7288.0000 2.4951 2.2737 2.1585 96.8970 147.1388 7.9147 0.1711 0.3448 3.0193 2.4726 -196.8482 0.3211
7288.5000 2.7098 2.2521 2.1524 96.6683 144.0534 7.9370 0.1787 0.3326 3.1109 2.4863 -197.0982 0.3229
7289.0000 2.3707 2.1949 2.1031 97.5433 150.8713 7.9370 0.1725 0.4041 3.1378 2.4918 -197.5938 0.3301
7289.5000 2.0398 1.9578 1.8830 99.5630 174.7333 7.9370 0.1475 0.4283 3.0950 2.4729 -198.3839 0.3872
7290.0000 1.8983 1.7611 1.7004 96.7061 185.5475 7.8589 0.1271 0.4078 3.0575 2.4591 -198.4609 0.3937
7290.5000 2.2619 2.1150 1.9805 95.3901 177.8478 8.0038 0.1185 0.3287 3.0579 2.4483 -197.6786 0.3633
7291.0000 2.6795 2.3302 2.1848 97.2262 167.9155 7.8255 0.1219 0.3127 3.0648 2.4455 -197.3125 0.3217
7291.5000 2.2818 2.0467 1.9999 95.6002 172.3235 7.9370 0.1235 0.3636 3.0195 2.4301 -197.2857 0.3230
7292.0000 2.0605 1.9002 1.8422 100.6401 174.6162 7.8701 0.1252 0.3782 2.9674 2.4332 -197.3203 0.3595
7292.5000 2.2533 2.0624 1.9771 99.5127 160.6863 7.9035 0.1176 0.3711 2.9558 2.4480 -197.3839 0.3522
7293.0000 2.5132 2.2710 2.1542 95.3308 144.0534 7.8924 0.1187 0.3210 3.0162 2.4790 -197.0547 0.3355
7293.5000 2.6867 2.4984 2.3508 93.9251 138.6757 7.8812 0.1217 0.3173 3.0745 2.4927 -196.5714 0.3026
7294.0000 2.7609 2.5350 2.4112 93.9539 136.8538 7.8255 0.1293 0.3216 3.0938 2.4958 -196.1071 0.3071
7294.5000 2.8275 2.5587 2.4670 95.5091 138.6761 7.7364 0.1230 0.3325 3.0962 2.4992 -195.9141 0.3136
7295.0000 3.1600 2.8260 2.6752 95.9705 131.3585 7.7364 0.0964 0.3353 3.1306 2.5098 -196.0234 0.3216
7295.5000 3.5007 3.1901 3.0773 94.4603 127.2151 7.8701 0.0711 0.3138 3.2076 2.5328 -196.4196 0.3182
7296.0000 3.6092 3.3291 3.2125 93.7312 125.6280 7.8924 0.0601 0.3243 3.2562 2.5460 -196.7679 0.2991
7296.5000 3.3331 3.1676 3.1108 91.9416 128.8312 7.8478 0.0730 0.3158 3.2576 2.5493 -196.7266 0.3070
7297.0000 3.1621 2.9386 2.9264 90.2955 131.3290 7.8478 0.0936 0.3335 3.2170 2.5437 -196.6964 0.3031
7297.5000 3.0481 2.8237 2.8016 89.9619 131.7991 7.9370 0.1227 0.3070 3.1875 2.5451 -196.6094 0.3222
7298.0000 2.9246 2.7085 2.6821 90.0732 140.6447 7.9592 0.1344 0.3094 3.1532 2.5342 -196.5714 0.3042
7298.5000 2.7995 2.5908 2.5502 90.8170 143.2303 7.8701 0.1356 0.3100 3.1161 2.5208 -196.5156 0.3087
7299.0000 2.7216 2.5452 2.4899 93.0228 145.7873 7.8924 0.1222 0.3288 3.0611 2.5001 -196.6696 0.3062
7299.5000 2.6478 2.4704 2.4077 95.5433 151.6054 7.9592 0.1207 0.3365 3.0078 2.4866 -196.7656 0.3365
7300.0000 2.5864 2.4254 2.3495 99.1991 156.7777 7.9147 0.1276 0.3679 2.9459 2.4635 -197.0357 0.3591
