~VERSION INFORMATION
VERS.           2.0   :CWLS Log ASCII Standard - VERSION 2.0
WRAP.           NO    :One Line per depth step
PROD.  Schlumberger   :LAS Producer
PROG.  DLIS to ASCII 19C1-222                          :LAS Program name and version
CREA.        2013/09/09 02:34                          :LAS Creation date {YYYY/MM/DD hh:mm}
DLIS_CREA.  2013-Sep-09 02:29                          :DLIS Creation date and time {YYYY-MMM-DD hh:mm}
SOURCE.     049-021-21038_Marquardt 44-31_Run_PEX-AIT_Mainpass.dlis  :DLIS File Name
FILE-ID.     MaxWell_4Dlis                             :File Identification Number
#--------------------------------------------------
~WELL INFORMATION
#MNEM.UNIT      DATA             DESCRIPTION
#---- ------ --------------   -----------------------------
STRT .F      952.5           :START DEPTH        # original; data subset to 5500-8000
STOP .F      7703.0          :STOP DEPTH        # original; data subset to 5500-8000
STEP .F       0.5            :STEP     
NULL .          -999.25      :NULL VALUE
COMP .        Bear Oil & Gas, Inc                      :COMPANY
WELL .        Marquardt 44-31                          :WELL
FLD  .        Wildcat                                  :FIELD
LOC  .        Lat/Long : 41.3038/-104.1202             :LOCATION
CNTY .        Laramie                                  :COUNTY
STAT .        Wyoming                                  :STATE
CTRY .        USA                                      :COUNTRY
API  .        049-021-21038                            :API NUMBER
UWI  .        049021210380000                          :UNIQUE WELL ID
DATE .        08-Sep-2013                              :LOG DATE {DD-MMM-YYYY}
SRVC .        Schlumberger                             :SERVICE COMPANY
LATI .DEG     41.303800 degrees                        :LATITUDE
LONG .DEG     -104.12020 degrees                       :LONGITUDE
GDAT .                                                 :GeoDetic Datum
SECT .        31                                       :Section
RANG .        60W                                      :Range
TOWN .        16N                                      :Township
#-----------------------------------------------------------------------------
~PARAMETER INFORMATION
#MNEM.UNIT    VALUE                      DESCRIPTION
#---- -----   --------------------       ------------------------
CN   .        Bear Oil & Gas  Inc        :Company Name
WN   .        Marquardt 44-31            :Well Name
FN   .        Wildcat                    :Field Name
FL   .        Lat/Long   41.3038/-104.1202 :Field Location
FL1  .        SHL   766' FSL X 245' FEL SESE :Field Location, Line 1
COUN .        Laramie                    :County or Parish
STAT .        Wyoming                    :State or Province
NATI .        USA                        :Nation
DATE .        08-Sep-2013                :Tools Above Rotary Table Date
APIN .        049-021-21038              :API Well Number
SECT .        31                         :Section
TOWN .        16N                        :Township
RANG .        60W                        :Range
DMF  .        KB                         :Drilling Measured From (Name of Drilling Elevation Reference)
LMF  .        KB                         :Logging Measured From (Name of Logging Elevation Reference)
PDAT .        GL                         :Permanent Datum
ENGI .        Arvin Shi                  :Engineer s Name
WITN .        Terry Eittreim             :Witness s Name
LATI .        41.303800 degrees          :Latitude
LONG .        -104.12020 degrees         :Longitude
LUL  .        Fort Morgan                :Logging Unit Location
LUN  .        3030                       :Logging Unit Number
RUN  .        Run 1                      :Run Number
SON  .        C6VJ-00075                 :Service Order Number
BHT  .DEGF     184.00000                 :Bottom Hole Temperature
BS   .IN         7.87500                 :Bit Size
MDEN .G/C3       2.65000                 :Matrix Density for Density Porosity
DFD  .LB/G       9.00000                 :Drilling Fluid Density
DFV  .S         80.00000                 :Drilling Fluid Viscosity
DFL  .C3      -999.25000                 :Drilling Fluid Loss
RMFS .OHMM       0.80250                 :Resistivity of Mud Filtrate Sample
EKB  .F       5298.00000                 :Elevation of Kelly Bushing
EGL  .F       5286.00000                 :Elevation of Ground Level
BLI  .F       7686.00000                 :Bottom Log Interval
BSAL .PPM     4641.08936                 :Borehole Salinity
FLEV .F          8.00000                 :Depth of Drilling Fluid Level to LMF (Log Measured From)
MCST .DEGF      84.00000                 :Mudcake Sample Temperature
MFST .DEGF      84.00000                 :Mud Filtrate Sample Temperature
MRT  .DEGF     184.00000                 :Maximum Recorded Temperature
MST  .DEGF      84.00000                 :Mud Sample Temperature
RMCS .OHMM       1.33750                 :Resistivity of Mud Cake Sample
RMS  .OHMM       1.07000                 :Resistivity of Mud Sample
RW   .OHMM       1.00000                 :Connate Water Resistivity
TDD  .F       7680.00000                 :Driller Total Depth
TDL  .F       7686.00000                 :Logger Total Depth
TLI  .F       1023.00000                 :Top Log Interval
HIDE .        Wildcat                    :Header Identifier
MATR .        SAND                       :Rock Matrix for Neutron Porosity Corrections
FNUM .           1.00000                 :F-Numerator for Formation Factor Formula
FEXP .           2.00000                 :Exponent "m" for Formation Factor Formula
DFT  .        Fresh Water                :Drilling Fluid Type
DFPH .        -999.25000                 :Drilling Fluid pH
MCSS .        Calculated                 :Mudcake Sample Source
MFSS .        Calculated                 :Mud Filtrate Sample Source
FD   .G/C3       1.00000                 :Fluid Density
MSS  .        Flowline                   :Mud Sample Source
OS1  .                                   :Other Services Line 1
OS2  .                                   :Other Services Line 2
OS3  .                                   :Other Services Line 3
OS4  .                                   :Other Services Line 4
OS5  .                                   :Other Services Line 5
R1   .                                   :Remarks Line 1
R2   .                                   :Remarks Line 2
R3   .                                   :Remarks Line 3
R4   .                                   :Remarks Line 4
R5   .                                   :Remarks Line 5
R6   .                                   :Remarks Line 6
R7   .                                   :Remarks Line 7
R8   .                                   :Remarks Line 8
TCS  .        15 00 00                   :Time Circulation Stopped
TLAB .        00 30 46                   :Time Logger At Bottom
NMT  .        NOBARITE                   :HRDD Mud Type for Nuclear Devices
EPD  .C3         5286.000000             :Elevation of Permanent Datum above Mean Sea Level
APD  .F          12.000000               :Elevation of Depth Reference (LMF) above Permanent Datum
#-----------------------------------------------------------------------------
~CURVE INFORMATION
#MNEM.UNIT   API CODE                                  DESCRIPTION
#---- -----  --------                                  -----------------------
DEPT .F                                                :DEPTH (BOREHOLE) {F10.1}
AT10 .OHMM                                             :Array Induction Two Foot Resistivity A10 {F11.4}
AT30 .OHMM                                             :Array Induction Two Foot Resistivity A30 {F11.4}
AT90 .OHMM                                             :Array Induction Two Foot Resistivity A90 {F11.4}
GR   .GAPI                                             :Gamma Ray {F11.4}
HCAL .IN                                               :HRCC Caliper Calibrated {F11.4}
HDRA .G/C3                                             :Density Standoff Correction {F11.4}
NPHI .CFCF                                             :Thermal Neutron Porosity (original Ratio Method) in Selected Lithology {F11.4}
PEFZ .                                                 :Standard Resolution Formation Photoelectric Factor {F11.4}
RHOZ .G/C3                                             :Standard Resolution Formation Density {F11.4}
SP   .MV                                               :Spontaneous Potential {F11.4}
TNPH .CFCF                                             :Thermal Neutron Porosity (Ratio Method) in Selected Lithology {F11.4}
#-----------------------------------------------------------------------------
# 
#     DEPT       AF10       AF20       AF30       AF60       AF90       AO10       AO20       AO30       AO60       AO90       AT10       AT20       AT30       AT60       AT90     AHFCO60      AHMF      AHORT      AHORX      AHSCA     AHTCO10    AHTCO20    AHTCO30    AHTCO60    AHTCO90     AHTD1      AHTD2      AHTRT      AHTRX       CDF        CFTC       CNTC       CTEM       DCAL       DNPH       DPHZ       DSOZ       ECGR        ED        GDEV        GR        GTEM       HCAL       HDRA       HDRB       HGR        HMIN       HMNO       HNPO       HPRA       HTNP        ND        NPHI       NPOR       PEFZ    PXND_HILT     RHOZ       RSOZ     RWA_HILT     RXO8       RXOZ        SP        SPAR       STIT       TENS       TNPH     HTNP_SAN
#
~A  DEPT AT10 AT30 AT90 GR HCAL HDRA NPHI PEFZ RHOZ SP TNPH
# ...
5773.0 2.0899 2.0530 2.0072 111.4952 7.7796 0.0389 0.3035 2.9880 2.5089 -489.8229 0.2968
5773.5 2.0251 1.9865 1.9425 103.8331 7.8018 0.0262 0.3079 2.9635 2.4981 -489.9479 0.2950
5774.0 1.9961 1.9247 1.8801 105.1548 7.8463 0.0255 0.3121 2.9614 2.4924 -489.9688 0.3126
5774.5 1.9542 1.9008 1.8537 105.6834 7.8018 0.0276 0.2979 2.9818 2.4794 -490.1146 0.3185
5775.0 1.9193 1.8735 1.8314 107.6083 7.8018 0.0302 0.3009 3.0164 2.4617 -490.1354 0.2968
5775.5 1.8612 1.8043 1.7680 106.2871 7.8018 0.0330 0.3199 3.0348 2.4389 -489.7188 0.2900
5776.0 1.8256 1.7751 1.7286 102.3241 7.8018 0.0415 0.3393 3.0305 2.4338 -490.0729 0.3069
5776.5 1.8449 1.8016 1.7510 98.5498 7.7351 0.0581 0.3565 3.0239 2.4574 -490.2054 0.3236
5777.0 1.8682 1.8202 1.7669 100.1348 7.7573 0.0670 0.3410 3.0341 2.4666 -490.3125 0.3365
5777.5 1.9412 1.8640 1.8080 98.8135 7.7573 0.0696 0.3329 3.0581 2.4857 -490.5208 0.3239
5778.0 2.0057 1.9363 1.8683 103.3050 7.7128 0.0609 0.3208 3.0535 2.4959 -490.6146 0.3148
5778.5 2.0698 1.9997 1.9392 100.1346 7.7796 0.0553 0.3122 3.0228 2.5103 -490.4271 0.3024
5779.0 2.0929 2.0202 1.9636 100.3988 7.7351 0.0442 0.3322 2.9867 2.5149 -490.2604 0.2983
5779.5 2.0920 2.0225 1.9703 102.1726 7.7796 0.0281 0.3279 2.9463 2.5037 -490.0417 0.3161
5780.0 2.0814 2.0050 1.9589 100.0589 7.8018 0.0123 0.3374 2.9436 2.4975 -489.8438 0.3161
5780.5 2.0416 1.9891 1.9430 101.1160 7.8018 0.0094 0.3043 2.9796 2.4949 -489.6771 0.3291
5781.0 1.9933 1.9389 1.9029 94.5861 7.7796 0.0251 0.3069 3.0788 2.5016 -489.5982 0.3008
5781.5 1.9501 1.8911 1.8537 99.8703 7.7128 0.0503 0.3180 3.1736 2.5096 -489.6146 0.3033
5782.0 1.9162 1.8747 1.8348 99.8700 7.8463 0.0681 0.3214 3.2204 2.5171 -489.8229 0.3095
5782.5 1.9601 1.8816 1.8411 98.8138 7.8241 0.0634 0.3479 3.2381 2.5213 -490.1146 0.3196
5783.0 2.0203 1.9760 1.9196 95.1147 7.8018 0.0448 0.3455 3.2391 2.5195 -490.4271 0.3360
5783.5 2.0126 1.9801 1.9294 91.9447 7.8018 0.0402 0.3686 3.2407 2.5079 -490.1979 0.3385
5784.0 1.9258 1.8628 1.8348 99.6062 7.8463 0.0498 0.3561 3.1875 2.4910 -489.9167 0.3511
5784.5 1.8181 1.7790 1.7431 101.9843 7.8018 0.0547 0.3676 3.1178 2.4691 -489.7083 0.3418
5785.0 1.9170 1.7844 1.7530 99.8702 7.7128 0.0418 0.3642 3.0904 2.4677 -489.9643 0.3452
5785.5 1.9665 1.9155 1.8667 95.6432 7.8241 0.0319 0.3432 3.1478 2.4844 -490.3229 0.3448
5786.0 1.9797 1.9605 1.9083 92.7370 7.8241 0.0244 0.3332 3.1903 2.4929 -490.4063 0.3277
5786.5 1.9345 1.8589 1.8287 95.3791 7.8241 0.0269 0.3265 3.1872 2.4881 -490.3750 0.3304
5787.0 1.8832 1.8146 1.7760 96.1717 7.7796 0.0259 0.3425 3.1556 2.4745 -490.4167 0.3241
5787.5 1.9417 1.8616 1.8209 91.6804 7.7796 0.0362 0.3264 3.1527 2.4783 -490.3125 0.3252
5788.0 1.9587 1.8927 1.8500 95.1147 7.8241 0.0483 0.3384 3.1539 2.4991 -489.9479 0.3094
5788.5 1.9757 1.9219 1.8788 101.9840 7.8018 0.0411 0.3494 3.1171 2.5019 -489.7604 0.3249
5789.0 2.0056 1.9513 1.9083 107.0037 7.8018 0.0305 0.3498 3.1119 2.5093 -489.7054 0.3356
5789.5 2.0278 1.9602 1.9182 102.7392 7.8908 0.0202 0.3278 3.1521 2.5149 -489.7500 0.3327
5790.0 2.0499 1.9981 1.9516 98.5119 7.8463 0.0325 0.3270 3.2223 2.5420 -489.8229 0.3194
5790.5 2.0559 1.9991 1.9579 96.1341 7.8241 0.0400 0.3245 3.2337 2.5469 -489.8333 0.3243
5791.0 1.9765 1.9345 1.8995 96.4360 7.8908 0.0437 0.3334 3.1771 2.5330 -490.0938 0.3195
5791.5 1.9270 1.8786 1.8484 94.0576 7.8686 0.0395 0.3085 3.1035 2.5044 -490.0521 0.3266
5792.0 1.9174 1.8627 1.8312 98.0211 7.8686 0.0433 0.3360 3.0929 2.4896 -489.8229 0.3059
5792.5 1.8989 1.8519 1.8186 101.4564 7.8908 0.0532 0.3383 3.1563 2.4873 -489.7708 0.3245
5793.0 1.8935 1.8487 1.8143 101.9851 7.8463 0.0780 0.3464 3.2346 2.5103 -489.9821 0.3231
5793.5 1.8559 1.8122 1.7797 98.8140 7.8686 0.0883 0.3352 3.2347 2.5148 -489.9896 0.3329
5794.0 1.8277 1.7744 1.7401 99.6061 7.8018 0.0927 0.3564 3.1874 2.5124 -490.0208 0.3324
5794.5 1.8086 1.7563 1.7208 98.0963 7.8241 0.0808 0.3774 3.1471 2.5003 -489.8229 0.3505
5795.0 1.8326 1.7807 1.7438 103.3808 7.8463 0.0740 0.3478 3.1308 2.5115 -489.9792 0.3507
5795.5 1.8584 1.7993 1.7586 93.0761 7.8241 0.0651 0.3132 3.1154 2.5203 -490.1250 0.3287
5796.0 1.9003 1.8428 1.8029 92.4724 7.8241 0.0573 0.2823 3.0858 2.5219 -490.1250 0.2994
5796.5 1.8879 1.8462 1.8006 90.8872 7.8018 0.0562 0.2903 3.0844 2.5174 -490.0208 0.2748
5797.0 1.8323 1.7794 1.7472 98.0212 7.7796 0.0562 0.3067 3.1176 2.5162 -489.7813 0.2829
5797.5 1.7821 1.7342 1.6892 95.1147 7.7573 0.0553 0.3394 3.1742 2.5031 -489.6964 0.2999
5798.0 1.7817 1.7433 1.7029 89.8306 7.8018 0.0608 0.3544 3.2343 2.5006 -489.7604 0.3338
5798.5 1.7830 1.7387 1.6993 86.6607 7.7796 0.0650 0.3483 3.2482 2.4993 -489.5729 0.3373
5799.0 1.7947 1.7514 1.7101 91.6802 7.7573 0.0691 0.3302 3.2249 2.5136 -489.6667 0.3338
5799.5 1.7886 1.7423 1.6987 93.5297 7.7573 0.0458 0.3104 3.1530 2.4918 -489.6458 0.3227
5800.0 1.7314 1.6898 1.6506 93.7556 7.7796 0.0385 0.3170 3.1053 2.4814 -489.4464 0.3071
5800.5 1.6961 1.6532 1.6149 97.1905 7.7351 0.0389 0.3130 3.0727 2.4715 -489.3750 0.3121
5801.0 1.6643 1.6221 1.5869 104.5882 7.7796 0.0545 0.3370 3.0611 2.4858 -489.5417 0.3075
5801.5 1.6394 1.5911 1.5594 107.7969 7.7796 0.0528 0.3519 3.0598 2.4805 -489.7083 0.3270
5802.0 1.6440 1.5908 1.5533 102.5131 7.7796 0.0430 0.3524 3.0845 2.4800 -489.7500 0.3311
5802.5 1.7010 1.6444 1.6049 101.4559 7.8686 0.0323 0.3650 3.1272 2.4809 -489.8021 0.3225
5803.0 1.7341 1.6798 1.6340 97.2285 7.8018 0.0273 0.3783 3.1384 2.4964 -489.7292 0.3349
5803.5 1.7595 1.7027 1.6571 104.0976 7.7796 0.0193 0.3815 3.1319 2.4863 -489.8750 0.3577
5804.0 1.7933 1.7324 1.6946 100.9276 7.8018 0.0297 0.3646 3.1645 2.4919 -490.0104 0.3693
5804.5 1.7772 1.7418 1.6986 105.1545 7.8241 0.0451 0.3384 3.2179 2.5008 -489.9464 0.3521
5805.0 1.7442 1.7005 1.6679 95.9078 7.8018 0.0569 0.3571 3.2203 2.5025 -489.5104 0.3338
5805.5 1.7223 1.6729 1.6344 96.7380 7.7796 0.0570 0.3404 3.1646 2.4969 -489.3854 0.3425
5806.0 1.6981 1.6574 1.6202 95.4172 7.8018 0.0542 0.3408 3.1317 2.4793 -489.2813 0.3269
5806.5 1.6764 1.6351 1.5992 97.0023 7.8130 0.0643 0.3548 3.1648 2.4887 -489.3229 0.3340
5807.0 1.6545 1.6185 1.5812 93.5297 7.7351 0.0625 0.3668 3.2248 2.4787 -489.4479 0.3462
5807.5 1.6595 1.6127 1.5746 95.1145 7.8018 0.0515 0.3581 3.2718 2.4759 -489.4688 0.3514
5808.0 1.6679 1.6240 1.5820 96.9644 7.7573 0.0414 0.3430 3.3001 2.4784 -489.5521 0.3398
5808.5 1.6755 1.6343 1.5924 96.1718 7.7796 0.0433 0.3520 3.2947 2.4874 -489.4018 0.3359
5809.0 1.6550 1.6102 1.5678 95.1151 7.8018 0.0381 0.3802 3.2391 2.4756 -489.4479 0.3430
5809.5 1.6367 1.5885 1.5472 90.8873 7.7573 0.0354 0.3585 3.2036 2.4699 -489.6458 0.3570
5810.0 1.6427 1.5919 1.5491 89.7174 7.7573 0.0321 0.3574 3.2060 2.4699 -489.7708 0.3326
5810.5 1.6441 1.5939 1.5501 96.8511 7.8686 0.0364 0.3419 3.2314 2.4737 -489.8229 0.3433
5811.0 1.6238 1.5701 1.5259 102.9276 7.8018 0.0433 0.3694 3.2271 2.4693 -489.6875 0.3348
5811.5 1.6007 1.5560 1.5118 103.8337 7.8018 0.0521 0.3763 3.1925 2.4718 -489.6250 0.3507
5812.0 1.5641 1.5294 1.4855 100.1344 7.8463 0.0644 0.3548 3.1506 2.4839 -489.5938 0.3610
5812.5 1.5709 1.5218 1.4770 95.1146 7.8018 0.0665 0.3459 3.1129 2.4816 -489.3542 0.3416
5813.0 1.6273 1.5699 1.5216 90.0944 7.8463 0.0469 0.3385 3.0691 2.4561 -489.3393 0.3287
5813.5 1.6588 1.6029 1.5472 84.2819 7.8241 0.0458 0.3584 3.1103 2.4674 -489.1979 0.3330
5814.0 1.7108 1.6590 1.6092 81.6400 7.8241 0.0445 0.3396 3.1836 2.4805 -489.3125 0.3472
5814.5 1.7123 1.6701 1.6228 87.1884 7.8686 0.0691 0.3481 3.2767 2.5176 -489.5938 0.3281
5815.0 1.6463 1.6006 1.5667 88.7740 7.8018 0.0696 0.3367 3.2627 2.4916 -489.4688 0.3358
5815.5 1.6077 1.5630 1.5276 96.3605 7.8241 0.0693 0.3409 3.1857 2.4767 -489.5000 0.3229
5816.0 1.5890 1.5452 1.5089 101.1162 7.8241 0.0559 0.3459 3.0860 2.4579 -489.2411 0.3268
5816.5 1.5984 1.5567 1.5180 99.0025 7.8241 0.0419 0.3473 3.0192 2.4651 -488.8646 0.3308
5817.0 1.6448 1.5934 1.5518 94.3229 7.8018 0.0321 0.3899 2.9959 2.4761 -488.9271 0.3323
5817.5 1.6741 1.6236 1.5806 93.5302 7.8908 0.0285 0.3979 2.9940 2.4839 -489.2083 0.3667
5818.0 1.7047 1.6424 1.5966 101.1923 7.8463 0.0320 0.4050 3.0000 2.4939 -489.4792 0.3712
