~VERSION INFORMATION
VERS.           1.2   :CWLS Log ASCII Standard - VERSION 1.2
WRAP.           NO    :One Line per depth step
PROD.  Schlumberger   :LAS Producer
PROG.  DLIS to ASCII 17C0-152                          :LAS Program name and version
CREA.        2013/08/16 09:04                          :LAS Creation date {YYYY/MM/DD hh:mm}
DLIS_CREA.  2013-Aug-16 00:16                          :DLIS Creation date and time {YYYY-MMM-DD hh:mm}
SOURCE.     960568ea-4174-41e0-a405-0f32a02141a6       :DLIS File Name
#--------------------------------------------------
~WELL INFORMATION
#MNEM.UNIT      DATA             DESCRIPTION
#---- ------ --------------   -----------------------------
STRT .F      457.0000        :START DEPTH        # original; data subset to 5500-8000
STOP .F      7701.0000       :STOP DEPTH        # original; data subset to 5500-8000
STEP .F       0.5000         :STEP       
NULL .          -999.25      :NULL VALUE
COMP .                 COMPANY:  Bear Oil & Gas, Inc.               
WELL .                    WELL:  Fornstrom 13-32A                   
FLD  .                   FIELD:  Wildcat                            
LOC  .                LOCATION:  SHL: NWSW 1925' FSL & 540" FWL     
CNTY .                  COUNTY:  Laramie                            
STAT .                   STATE:  Wyoming                            
CTRY .                 COUNTRY:  United States                      
SRVC .         SERVICE COMPANY:  Schlumberger                       
LATI .DEG             LATITUDE:  41.307320 degrees                  
LONG .DEG            LONGITUDE:  -104.11715 degrees                 
API  .              API NUMBER:  49-021-21022                       
DATE .                LOG DATE:  15-Aug-2013
UWI  .          UNIQUE WELL ID:  49021210220000                     
#-----------------------------------------------------------------------------
~PARAMETER INFORMATION
#MNEM.UNIT    VALUE                      DESCRIPTION
#---- -----   --------------------       ------------------------
CN   .        Bear Oil & Gas  Inc.       :Company Name
WN   .        Fornstrom 13-32A           :Well Name
FN   .        Wildcat                    :Field Name
FL   .        SHL  NWSW 1925' FSL & 540  FWL :Field Location
FL1  .        Sec. 32  T. 16N  R. 60W    :Field Location, Line 1
COUN .        Laramie                    :County or Parish
STAT .        Wyoming                    :State or Province
NATI .        United States              :Nation
DATE .        15-Aug-2013                :Tools Above Rotary Table Date
APIN .        49-021-21022               :API Well Number
SECT .        32                         :Section
TOWN .        16N                        :Township
RANG .        60W                        :Range
DMF  .        KB                         :Drilling Measured From (Name of Drilling Elevation Reference)
LMF  .        KB                         :Logging Measured From (Name of Logging Elevation Reference)
PDAT .        GL                         :Permanent Datum
ENGI .        Max Pace                   :Engineer s Name
WITN .        Tery Eittreim              :Witness s Name
LATI .        41.307320 degrees          :Latitude
LONG .        -104.11715 degrees         :Longitude
LUL  .        Fort Morgan  CO            :Logging Unit Location
LUN  .        3030                       :Logging Unit Number
RUN  .        Run 1                      :Run Number
SON  .        CA0R-00040                 :Service Order Number
BHT  .DEGF     168.00000                 :Bottom Hole Temperature
BS   .IN         7.87500                 :Bit Size
MDEN .G/C3       2.65000                 :Matrix Density for Density Porosity
DFD  .LB/G       8.80000                 :Drilling Fluid Density
DFV  .S         36.00000                 :Drilling Fluid Viscosity
DFL  .C3         5.00000                 :Drilling Fluid Loss
RMFS .OHMM       1.11000                 :Resistivity of Mud Filtrate Sample
EKB  .F       5298.00000                 :Elevation of Kelly Bushing
EGL  .F       5286.00000                 :Elevation of Ground Level
BLI  .F       7687.00000                 :Bottom Log Interval
BSAL .PPM     3295.90967                 :Borehole Salinity
FLEV .F          8.00000                 :Depth of Drilling Fluid Level to LMF (Log Measured From)
MCST .DEGF      84.00000                 :Mudcake Sample Temperature
MFST .DEGF      84.00000                 :Mud Filtrate Sample Temperature
MRT  .DEGF     168.00000                 :Maximum Recorded Temperature
MST  .DEGF      84.00000                 :Mud Sample Temperature
RMCS .OHMM       1.85000                 :Resistivity of Mud Cake Sample
RMS  .OHMM       1.48000                 :Resistivity of Mud Sample
RW   .OHMM       1.00000                 :Connate Water Resistivity
TDD  .F       7680.00000                 :Driller Total Depth
TDL  .F       7687.00000                 :Logger Total Depth
TLI  .F       1026.25000                 :Top Log Interval
HIDE .        Wildcat                    :Header Identifier
MATR .        SAND                       :Rock Matrix for Neutron Porosity Corrections
FNUM .           1.00000                 :F-Numerator for Formation Factor Formula
FEXP .           2.00000                 :Exponent "m" for Formation Factor Formula
DFT  .        Fresh Water                :Drilling Fluid Type
DFPH .           8.50000                 :Drilling Fluid pH
MCSS .        Calculated                 :Mudcake Sample Source
MFSS .        Calculated                 :Mud Filtrate Sample Source
FD   .G/C3       1.00000                 :Fluid Density
MSS  .        Active Tank                :Mud Sample Source
OS1  .                                   :Other Services Line 1
OS2  .                                   :Other Services Line 2
OS3  .                                   :Other Services Line 3
OS4  .                                   :Other Services Line 4
OS5  .                                   :Other Services Line 5
R1   .                                   :Remarks Line 1
R2   .                                   :Remarks Line 2
R3   .                                   :Remarks Line 3
R4   .                                   :Remarks Line 4
R5   .                                   :Remarks Line 5
R6   .                                   :Remarks Line 6
R7   .                                   :Remarks Line 7
R8   .                                   :Remarks Line 8
TCS  .        14 00 00                   :Time Circulation Stopped
TLAB .        22 20 59                   :Time Logger At Bottom
NMT  .        NOBARITE                   :HRDD Mud Type for Nuclear Devices
EPD  .F         5286.000000              :Elevation of Permanent Datum above Mean Sea Level
APD  .F          12.000000               :Elevation of Depth Reference (LMF) above Permanent Datum
#-----------------------------------------------------------------------------
~CURVE INFORMATION
#MNEM.UNIT   API CODE                                  DESCRIPTION
#---- -----  --------                                  -----------------------
DEPT .F                                                :DEPTH (BOREHOLE) {F12.4}
AT10 .OHMM                                             :Array Induction Two Foot Resistivity A10 {F11.4}
AT30 .OHMM                                             :Array Induction Two Foot Resistivity A30 {F11.4}
AT90 .OHMM                                             :Array Induction Two Foot Resistivity A90 {F11.4}
GR   .GAPI                                             :Gamma Ray {F11.4}
HCAL .IN                                               :HRCC Caliper Calibrated {F11.4}
HDRA .G/C3                                             :Density Standoff Correction {F11.4}
NPHI .CFCF                                             :Thermal Neutron Porosity (original Ratio Method) in Selected Lithology {F11.4}
PEFZ .                                                 :Standard Resolution Formation Photoelectric Factor {F11.4}
RHOZ .G/C3                                             :Standard Resolution Formation Density {F11.4}
SP   .MV                                               :Spontaneous Potential {F11.4}
TNPH .CFCF                                             :Thermal Neutron Porosity (Ratio Method) in Selected Lithology {F11.4}
#-----------------------------------------------------------------------------
# 
#      DEPT        AF10       AF20       AF30       AF60       AF90       AO10       AO20       AO30       AO60       AO90       AT10       AT20       AT30       AT60       AT90     AHFCO60      AHMF      AHORT      AHORX      AHSCA     AHTCO10    AHTCO20    AHTCO30    AHTCO60    AHTCO90     AHTD1      AHTD2      AHTRT      AHTRX       CDF        CFTC       CNTC       CTEM       DCAL       DNPH       DPHZ       DSOZ       ECGR        ED        GDEV        GR        GTEM       HCAL       HDRA       HDRB       HGR        HMIN       HMNO       HNPO       HPRA       HTNP        ND        NPHI       NPOR       PEFZ    PXND_HILT     RHOZ       RSOZ     RWA_HILT     RXO8       RXOZ        SP        SPAR       STIT       TENS       TNPH     HTNP_SAN
#
~A  DEPT AT10 AT30 AT90 GR HCAL HDRA NPHI PEFZ RHOZ SP TNPH
# ...
5945.5000 3.4955 3.3209 3.2340 102.0491 8.1073 -0.0067 0.2637 2.8934 2.5312 53.9141 0.2530
5946.0000 3.4794 3.3402 3.2553 105.4106 8.1304 -0.0034 0.2745 2.8473 2.5435 54.1696 0.2633
5946.5000 3.3838 3.2644 3.1744 105.3504 8.1073 -0.0019 0.2818 2.8406 2.5451 54.1797 0.2686
5947.0000 3.2991 3.1605 3.0696 109.7411 8.0841 -0.0000 0.2938 2.8371 2.5451 54.5313 0.2701
5947.5000 3.2915 3.1498 3.0587 109.7410 8.0726 0.0015 0.3076 2.8788 2.5387 54.8482 0.2859
5948.0000 3.4243 3.2143 3.1063 107.5601 8.0610 0.0043 0.2985 2.9094 2.5427 54.3929 0.2975
5948.5000 3.5484 3.3524 3.2230 103.1695 8.0495 0.0050 0.2898 2.9328 2.5504 54.3750 0.2916
5949.0000 3.5041 3.3749 3.2390 98.2943 8.0379 0.0046 0.2749 2.9123 2.5642 54.5357 0.2894
5949.5000 3.4679 3.2916 3.1640 94.6609 8.0379 0.0000 0.2889 2.8952 2.5608 54.7188 0.2813
5950.0000 3.4819 3.3170 3.1931 96.9317 8.0148 -0.0038 0.2831 2.8933 2.5490 54.6607 0.2805
5950.5000 3.6132 3.4153 3.2825 98.4455 8.0148 -0.0045 0.2839 2.9000 2.5318 53.9766 0.2647
5951.0000 3.7616 3.5731 3.4221 101.1405 7.9686 -0.0056 0.2661 2.9103 2.5309 53.8393 0.2705
5951.5000 3.9214 3.7377 3.5720 94.5091 7.9917 -0.0040 0.2657 2.9680 2.5312 53.7969 0.2557
5952.0000 4.0398 3.8167 3.6519 94.6907 7.9686 -0.0072 0.2610 3.0664 2.5298 53.5893 0.2574
5952.5000 3.9886 3.8307 3.6724 97.0826 7.9686 -0.0026 0.2748 3.0924 2.5403 53.5313 0.2571
5953.0000 3.7919 3.6521 3.5085 103.5026 7.9454 -0.0011 0.2835 3.0134 2.5502 53.3393 0.2704
5953.5000 3.6492 3.5107 3.3843 103.8056 7.9686 -0.0007 0.2837 2.9145 2.5481 53.2656 0.2777
5954.0000 3.6002 3.4709 3.3552 104.0479 7.9454 -0.0041 0.2795 2.8449 2.5349 53.3214 0.2811
5954.5000 3.5410 3.4115 3.3215 102.1402 7.9686 -0.0078 0.2612 2.8197 2.5224 53.3594 0.2768
5955.0000 3.5047 3.3661 3.2651 102.3829 7.9454 -0.0074 0.2679 2.7725 2.5225 53.6518 0.2610
5955.5000 3.4486 3.3206 3.2184 101.8679 7.9686 -0.0040 0.2681 2.7487 2.5245 53.4375 0.2637
5956.0000 3.3568 3.2251 3.1402 105.1080 7.9454 0.0014 0.2834 2.7606 2.5357 54.0536 0.2672
5956.5000 3.2998 3.1789 3.1000 105.4104 7.9454 0.0049 0.2796 2.7999 2.5504 54.3047 0.2725
5957.0000 3.2780 3.1537 3.0820 111.0127 7.9686 0.0041 0.2743 2.8418 2.5550 54.0982 0.2675
5957.5000 3.3275 3.1648 3.1063 109.2561 7.9454 0.0013 0.2744 2.8827 2.5499 53.8594 0.2713
5958.0000 3.4058 3.2224 3.1422 109.4375 7.9223 -0.0010 0.2865 2.9163 2.5392 53.6786 0.2760
5958.5000 3.3663 3.2467 3.1678 108.4990 7.9454 -0.0008 0.2968 2.9827 2.5303 53.4297 0.2833
5959.0000 3.2576 3.1387 3.0618 112.1931 7.9223 0.0016 0.2987 3.0311 2.5275 53.5391 0.2929
5959.5000 3.2555 3.0801 3.0030 105.0169 7.9223 0.0035 0.2845 3.0582 2.5269 53.5000 0.2846
5960.0000 3.3837 3.2387 3.1402 101.8368 7.9454 0.0039 0.2884 3.0239 2.5333 53.7679 0.2703
5960.5000 3.5251 3.3548 3.2394 96.2353 7.9454 0.0026 0.2868 2.9430 2.5400 53.7344 0.2742
5961.0000 3.4181 3.2806 3.1678 101.9583 7.9339 0.0012 0.2843 2.8584 2.5466 53.8393 0.2746
5961.5000 3.3831 3.2183 3.1072 97.7194 7.9223 -0.0002 0.2810 2.8172 2.5487 54.0234 0.2784
5962.0000 3.4635 3.2943 3.1763 93.8734 7.9108 -0.0023 0.2762 2.8363 2.5466 53.5469 0.2701
5962.5000 3.5156 3.3491 3.2178 91.1177 7.8761 -0.0047 0.2750 2.9046 2.5409 53.3929 0.2652
5963.0000 3.6480 3.4476 3.3153 92.6919 7.8992 -0.0083 0.2701 2.9931 2.5273 53.1964 0.2675
5963.5000 3.5392 3.4353 3.3007 97.8097 7.8761 -0.0091 0.2662 3.0222 2.5230 53.2266 0.2634
5964.0000 3.4412 3.2665 3.1495 104.4413 7.8761 -0.0103 0.2730 3.0387 2.5175 53.7946 0.2580
5964.5000 3.4273 3.2411 3.1402 104.5626 7.8761 -0.0079 0.2776 2.9999 2.5274 53.8828 0.2637
5965.0000 3.4447 3.2881 3.1854 103.5631 7.8761 -0.0079 0.2802 3.0081 2.5261 53.9554 0.2692
5965.5000 3.4328 3.2728 3.1568 103.5632 7.8992 -0.0072 0.2770 2.9960 2.5280 54.1563 0.2768
5966.0000 3.3644 3.1970 3.0856 102.7153 7.8761 -0.0091 0.2673 3.0029 2.5182 53.8482 0.2768
5966.5000 3.2655 3.1058 2.9956 104.4120 7.8761 -0.0081 0.2662 2.9732 2.5176 53.9531 0.2656
5967.0000 3.1886 3.0393 2.9290 101.8078 7.8530 -0.0062 0.2736 2.9463 2.5179 53.6563 0.2647
5967.5000 3.1170 2.9453 2.8422 103.2615 7.8761 -0.0052 0.2775 2.9365 2.5196 53.8571 0.2632
5968.0000 3.0663 2.8865 2.7694 100.4446 7.8761 -0.0061 0.2762 2.9430 2.5188 54.3929 0.2748
5968.5000 3.0994 2.9157 2.7739 95.0544 7.8530 -0.0076 0.2683 2.9697 2.5098 54.1563 0.2715
5969.0000 3.0860 2.9152 2.7671 99.7483 7.8761 -0.0038 0.2717 2.9516 2.5142 54.2321 0.2664
5969.5000 3.0847 2.8955 2.7434 104.2602 7.8761 0.0004 0.2788 2.9480 2.5143 53.6875 0.2691
5970.0000 3.1087 2.9174 2.7619 110.9220 7.8761 0.0046 0.2995 2.9275 2.5206 53.3750 0.2704
5970.5000 3.0673 2.9105 2.7503 105.7437 7.8530 0.0064 0.3108 2.9365 2.5228 53.5357 0.2884
5971.0000 2.9857 2.7974 2.6511 106.1066 7.8530 0.0074 0.3136 2.9347 2.5334 53.5703 0.2971
5971.5000 2.9317 2.7499 2.6134 100.8980 7.8299 0.0046 0.3173 2.9466 2.5369 53.8750 0.3012
5972.0000 3.0767 2.8628 2.7135 101.6249 7.8299 0.0022 0.3015 3.0137 2.5296 53.8281 0.3021
5972.5000 3.1698 2.9667 2.8056 101.7468 7.8645 -0.0027 0.3027 3.1151 2.5261 53.9464 0.2856
5973.0000 3.2248 2.9932 2.8354 106.3194 7.8530 -0.0035 0.2956 3.2521 2.5317 54.5234 0.2924
5973.5000 3.1699 2.9728 2.8151 104.6237 7.8530 -0.0049 0.3013 3.2957 2.5490 54.5982 0.2957
5974.0000 2.9522 2.8207 2.6824 104.7138 7.8530 -0.0025 0.3079 3.2176 2.5527 54.8438 0.3044
5974.5000 2.8362 2.6641 2.5545 105.7133 7.8299 -0.0025 0.3057 3.0519 2.5432 54.9464 0.3116
5975.0000 2.7644 2.5970 2.4819 109.3166 7.8530 -0.0019 0.3100 2.9066 2.5357 54.7969 0.3074
5975.5000 2.7818 2.6063 2.4842 109.9532 7.8530 -0.0023 0.3079 2.8755 2.5308 54.6607 0.3044
5976.0000 2.8015 2.6238 2.4928 111.7095 7.8299 -0.0001 0.3201 2.8833 2.5398 54.3203 0.2998
5976.5000 2.8164 2.6345 2.4974 110.7708 7.8299 0.0007 0.3161 2.9158 2.5430 54.6786 0.3060
5977.0000 2.8631 2.6754 2.5256 104.4716 7.8761 -0.0007 0.2965 2.9282 2.5409 54.8047 0.2963
5977.5000 2.9536 2.7745 2.6180 102.5639 7.8761 -0.0041 0.2786 2.9749 2.5356 54.5357 0.2797
5978.0000 3.0657 2.8569 2.7011 99.1725 7.8299 -0.0065 0.2789 3.0327 2.5406 54.5391 0.2701
5978.5000 3.2803 3.0390 2.8553 101.6558 7.8414 -0.0051 0.2850 3.0994 2.5590 53.9018 0.2684
5979.0000 3.5887 3.3358 3.1128 95.7506 7.8299 -0.0010 0.2690 3.0993 2.5786 53.6953 0.2677
5979.5000 3.2918 3.1558 2.9703 100.2931 7.8299 -0.0015 0.2694 3.0836 2.5664 53.9196 0.2639
5980.0000 3.1489 2.9306 2.7937 107.0150 7.8530 -0.0019 0.2764 3.0139 2.5529 54.0781 0.2776
5980.5000 3.0290 2.8674 2.7361 112.9207 7.8299 -0.0020 0.3064 2.9716 2.5469 54.4821 0.2816
5981.0000 2.9974 2.8616 2.7316 110.3161 7.8299 0.0017 0.3013 2.9366 2.5641 54.4375 0.2980
5981.5000 3.0342 2.8622 2.7392 106.1379 7.8067 0.0002 0.3024 2.9968 2.5566 54.6518 0.2841
5982.0000 3.1302 2.9585 2.8350 105.5618 7.8530 -0.0034 0.3007 3.0738 2.5447 55.0078 0.2836
5982.5000 3.1767 3.0074 2.8838 111.9814 7.8761 -0.0087 0.3141 3.1311 2.5307 54.9464 0.2874
5983.0000 3.1498 2.9749 2.8532 114.9489 7.8761 -0.0101 0.3106 3.1076 2.5407 55.3203 0.3080
5983.5000 3.1255 2.9652 2.8399 114.8888 7.8761 -0.0087 0.2915 3.0821 2.5515 55.1339 0.3053
5984.0000 3.0535 2.9004 2.7898 113.0723 7.8992 -0.0089 0.2882 3.1022 2.5636 54.8281 0.2876
5984.5000 2.9736 2.8249 2.7361 110.5282 7.8761 -0.0083 0.2869 3.1386 2.5744 54.9375 0.2909
5985.0000 2.9466 2.7916 2.6889 112.2843 7.9223 -0.0082 0.2861 3.1372 2.5733 55.0234 0.2890
5985.5000 2.8629 2.7305 2.6463 115.3732 7.9223 -0.0060 0.2889 3.0796 2.5529 55.0982 0.2849
5986.0000 2.7871 2.6520 2.5599 113.0719 7.9108 -0.0018 0.2945 2.9990 2.5374 54.9766 0.2868
5986.5000 2.8020 2.6338 2.5430 113.4353 7.8992 0.0005 0.3028 2.9390 2.5336 54.6250 0.2863
5987.0000 2.8392 2.6937 2.5861 106.7125 7.8761 0.0023 0.2918 2.9049 2.5475 54.7422 0.2910
5987.5000 2.9061 2.7431 2.6312 109.8614 7.8992 -0.0005 0.2970 2.9401 2.5470 54.4844 0.2815
5988.0000 2.8379 2.7021 2.5947 105.6225 7.9454 -0.0039 0.3103 2.9897 2.5403 54.3304 0.2916
5988.5000 2.7955 2.6360 2.5312 108.5296 7.9686 -0.0066 0.3265 3.0402 2.5272 54.5893 0.3033
5989.0000 2.7714 2.6188 2.5111 106.4106 7.9223 -0.0061 0.3229 3.0336 2.5179 54.6953 0.3175
5989.5000 2.7768 2.6219 2.5204 110.5285 7.9570 -0.0031 0.3108 2.9885 2.5179 55.0089 0.3128
