~VERSION INFORMATION
VERS.           1.2   :CWLS Log ASCII Standard - VERSION 1.2
WRAP.           NO    :One Line per depth step
PROD.  Schlumberger   :LAS Producer
PROG.  DLIS to ASCII 17C0-152                          :LAS Program name and version
CREA.        2013/11/03 06:14                          :LAS Creation date {YYYY/MM/DD hh:mm}
DLIS_CREA.  2013-Nov-02 20:25                          :DLIS Creation date and time {YYYY-MMM-DD hh:mm}
SOURCE.     36f617ea-a8f9-4f31-9cfe-b4906ac6e0fc       :DLIS File Name
#--------------------------------------------------
~WELL INFORMATION
#MNEM.UNIT      DATA             DESCRIPTION
#---- ------ --------------   -----------------------------
STRT .F      1000.5000       :START DEPTH        # original; data subset to 5500-8000
STOP .F      7745.0000       :STOP DEPTH        # original; data subset to 5500-8000
STEP .F       0.5000         :STEP       
NULL .          -999.25      :NULL VALUE
COMP .                 COMPANY:  Bear Oil & Gas, Inc.               
WELL .                    WELL:  Marquardt 34-31                    
FLD  .                   FIELD:  Wildcat                            
LOC  .                LOCATION:  SWSE, Sec. 31, T16N, R60W          
CNTY .                  COUNTY:  Laramie                            
STAT .                   STATE:  Wyoming                            
CTRY .                 COUNTRY:                                     
SRVC .         SERVICE COMPANY:  Schlumberger                       
LATI .DEG             LATITUDE:  41.305550 degrees                  
LONG .DEG            LONGITUDE:  -104.12401 degrees                 
API  .              API NUMBER:  49-021-21046-0000                  
DATE .                LOG DATE:  02-Nov-2013
UWI  .          UNIQUE WELL ID:                                     
#-----------------------------------------------------------------------------
~PARAMETER INFORMATION
#MNEM.UNIT    VALUE                      DESCRIPTION
#---- -----   --------------------       ------------------------
CN   .        Bear Oil & Gas  Inc.       :Company Name
WN   .        Marquardt 34-31            :Well Name
FN   .        Wildcat                    :Field Name
FL   .        SWSE  Sec. 31  T16N  R60W  :Field Location
FL1  .        SHL  1265' FSL X 1340' FEL :Field Location, Line 1
COUN .        Laramie                    :County or Parish
STAT .        Wyoming                    :State or Province
NATI .                                   :Nation
DATE .        02-Nov-2013                :Tools Above Rotary Table Date
APIN .        49-021-21046-0000          :API Well Number
SECT .        31                         :Section
TOWN .        16N                        :Township
RANG .        60W                        :Range
DMF  .        KB                         :Drilling Measured From (Name of Drilling Elevation Reference)
LMF  .        KB                         :Logging Measured From (Name of Logging Elevation Reference)
PDAT .        GL                         :Permanent Datum
ENGI .        Heather Hoffman            :Engineer s Name
WITN .        Terry Eittreim             :Witness s Name
LATI .        41.305550 degrees          :Latitude
LONG .        -104.12401 degrees         :Longitude
LUL  .        Fort Morgan  CO            :Logging Unit Location
LUN  .        2135                       :Logging Unit Number
RUN  .        PEX BHC AIT                :Run Number
SON  .        CQQL-00004                 :Service Order Number
BHT  .DEGF     185.00000                 :Bottom Hole Temperature
BS   .IN         7.87500                 :Bit Size
MDEN .G/C3       2.65000                 :Matrix Density for Density Porosity
DFD  .LB/G       9.10000                 :Drilling Fluid Density
DFV  .S         82.00000                 :Drilling Fluid Viscosity
DFL  .C3      -999.25000                 :Drilling Fluid Loss
RMFS .OHMM       1.18400                 :Resistivity of Mud Filtrate Sample
EKB  .F       10594.00000                :Elevation of Kelly Bushing
EGL  .F       5291.00000                 :Elevation of Ground Level
BLI  .F       7724.00000                 :Bottom Log Interval
BSAL .PPM        0.00000                 :Borehole Salinity
FLEV .F         50.00000                 :Depth of Drilling Fluid Level to LMF (Log Measured From)
MCST .DEGF      85.00000                 :Mudcake Sample Temperature
MFST .DEGF      85.00000                 :Mud Filtrate Sample Temperature
MRT  .DEGF     185.00000                 :Maximum Recorded Temperature
MST  .DEGF      85.00000                 :Mud Sample Temperature
RMCS .OHMM       1.77600                 :Resistivity of Mud Cake Sample
RMS  .OHMM       1.48000                 :Resistivity of Mud Sample
RW   .OHMM       1.00000                 :Connate Water Resistivity
TDD  .F       7719.99951                 :Driller Total Depth
TDL  .F       7724.00000                 :Logger Total Depth
TLI  .F       1024.00000                 :Top Log Interval
HIDE .        Wildcat                    :Header Identifier
MATR .        SAND                       :Rock Matrix for Neutron Porosity Corrections
FNUM .           1.00000                 :F-Numerator for Formation Factor Formula
FEXP .           2.00000                 :Exponent "m" for Formation Factor Formula
DFT  .        WATER                      :Drilling Fluid Type
DFPH .        -999.25000                 :Drilling Fluid pH
MCSS .        Calculated                 :Mudcake Sample Source
MFSS .        Calculated                 :Mud Filtrate Sample Source
FD   .G/C3       1.00000                 :Fluid Density
MSS  .        Active Tank                :Mud Sample Source
OS1  .                                   :Other Services Line 1
OS2  .                                   :Other Services Line 2
OS3  .                                   :Other Services Line 3
OS4  .                                   :Other Services Line 4
OS5  .                                   :Other Services Line 5
R1   .                                   :Remarks Line 1
R2   .                                   :Remarks Line 2
R3   .                                   :Remarks Line 3
R4   .                                   :Remarks Line 4
R5   .                                   :Remarks Line 5
R6   .                                   :Remarks Line 6
R7   .                                   :Remarks Line 7
R8   .        This is first run in hole. :Remarks Line 8
TCS  .        09 55 00                   :Time Circulation Stopped
TLAB .        20 18 33                   :Time Logger At Bottom
NMT  .        NOBARITE                   :HRDD Mud Type for Nuclear Devices
EPD  .C3         5291.000000             :Elevation of Permanent Datum above Mean Sea Level
APD  .F         5303.000000              :Elevation of Depth Reference (LMF) above Permanent Datum
#-----------------------------------------------------------------------------
~CURVE INFORMATION
#MNEM.UNIT   API CODE                                  DESCRIPTION
#---- -----  --------                                  -----------------------
DEPT .F                                                :DEPTH (BOREHOLE) {F12.4}
AT10 .OHMM                                             :Array Induction Two Foot Resistivity A10 {F11.4}
AT30 .OHMM                                             :Array Induction Two Foot Resistivity A30 {F11.4}
AT90 .OHMM                                             :Array Induction Two Foot Resistivity A90 {F11.4}
DT   .US/F                                             :Delta-T (also called Slowness or Interval Transit Time) {F11.4}
GR   .GAPI                                             :Gamma Ray {F11.4}
HCAL .IN                                               :HRCC Caliper Calibrated {F11.4}
HDRA .G/C3                                             :Density Standoff Correction {F11.4}
NPHI .CFCF                                             :Thermal Neutron Porosity (original Ratio Method) in Selected Lithology {F11.4}
PEFZ .                                                 :Standard Resolution Formation Photoelectric Factor {F11.4}
RHOZ .G/C3                                             :Standard Resolution Formation Density {F11.4}
SP   .MV                                               :Spontaneous Potential {F11.4}
TNPH .CFCF                                             :Thermal Neutron Porosity (Ratio Method) in Selected Lithology {F11.4}
#-----------------------------------------------------------------------------
# 
#      DEPT        AF10       AF20       AF30       AF60       AF90       AO10       AO20       AO30       AO60       AO90       AT10       AT20       AT30       AT60       AT90     AHFCO60      AHMF      AHORT      AHORX      AHSCA     AHTCO10    AHTCO20    AHTCO30    AHTCO60    AHTCO90     AHTD1      AHTD2      AHTRT      AHTRX       CDF        CFTC       CNTC       CTEM       DCAL       DNPH       DPHZ       DSOZ        DT        ECGR        ED        GDEV        GR        GTEM       HCAL       HDRA       HDRB       HGR        HMIN       HMNO       HNPO       HPRA       HTNP       ITT         ND        NPHI       NPOR       PEFZ    PXND_HILT     RHOZ       RSOZ     RWA_HILT     RXO8       RXOZ        SP        SPAR       SPHI       STIT       TENS       TNPH     HTNP_SAN
#
~A  DEPT AT10 AT30 AT90 DT GR HCAL HDRA NPHI PEFZ RHOZ SP TNPH
# ...
6980.5000 6.5118 6.1164 5.6258 77.5246 112.4928 7.7141 -0.0058 0.1872 3.6905 2.5746 -198.6429 0.1589
6981.0000 6.3788 5.9721 5.5729 75.5894 97.8873 7.7364 -0.0024 0.1794 3.6447 2.6031 -198.9141 0.1637
6981.5000 6.4055 6.0021 5.5359 76.2785 96.1243 7.7141 -0.0002 0.1740 3.6546 2.6137 -199.1964 0.1607
6982.0000 6.2641 5.8222 5.4711 76.0887 95.7419 7.7141 -0.0019 0.1635 3.7883 2.5985 -199.4688 0.1575
6982.5000 6.0566 5.6094 5.2878 77.3472 102.3537 7.7364 -0.0038 0.1689 3.9202 2.5795 -199.3929 0.1539
6983.0000 5.6668 5.3912 5.0846 78.3247 102.6774 7.7587 -0.0041 0.1880 3.9279 2.5707 -199.0859 0.1611
6983.5000 5.2430 4.9356 4.6959 79.7322 103.9997 7.7141 -0.0007 0.1890 3.8150 2.5830 -198.8482 0.1740
6984.0000 5.0078 4.7427 4.5068 80.8210 104.9401 7.7252 -0.0005 0.2102 3.7446 2.5823 -198.7232 0.1765
6984.5000 5.1938 4.8705 4.6106 81.5040 105.1456 7.7364 0.0045 0.2073 3.7338 2.5903 -198.9141 0.1961
6985.0000 5.2322 4.9516 4.6852 82.1624 104.9102 7.7141 0.0085 0.2166 3.7607 2.5928 -199.1339 0.1935
6985.5000 5.2604 4.9292 4.6379 82.1961 100.2382 7.7364 0.0105 0.2056 3.7188 2.5981 -199.0781 0.1937
6986.0000 5.2168 4.9208 4.6075 81.6807 98.7685 7.7364 0.0081 0.2061 3.7345 2.5813 -198.7232 0.1822
6986.5000 5.1447 4.8521 4.5742 81.5673 101.3842 7.7364 0.0103 0.2068 3.7319 2.5668 -198.5156 0.1890
6987.0000 5.0477 4.7478 4.5015 80.9649 110.9937 7.7587 0.0072 0.2051 3.7610 2.5619 -198.2500 0.1954
6987.5000 4.9714 4.6696 4.4415 80.6622 115.3429 7.7364 0.0025 0.1956 3.7405 2.5643 -198.4844 0.1887
6988.0000 5.0183 4.6935 4.4570 80.5263 116.0184 7.7364 -0.0057 0.1975 3.7196 2.5713 -198.4643 0.1723
6988.5000 5.1120 4.8081 4.5577 79.2202 107.5549 7.7587 -0.0036 0.2000 3.7130 2.5835 -198.5391 0.1710
6989.0000 5.2204 4.8793 4.6003 78.5188 103.8523 7.7587 -0.0021 0.2037 3.7183 2.5967 -198.7500 0.1701
6989.5000 5.3821 5.0174 4.7414 77.6087 100.5613 7.7587 -0.0021 0.1952 3.7413 2.6039 -198.8125 0.1791
6990.0000 5.3437 4.9926 4.7070 77.4369 99.6211 7.7587 -0.0013 0.1867 3.7147 2.6100 -198.7679 0.1807
6990.5000 4.8836 4.6364 4.3886 78.6668 93.5673 7.7587 -0.0017 0.1776 3.6948 2.6025 -198.5313 0.1773
6991.0000 4.5435 4.2583 4.0396 80.1459 96.3886 7.7587 0.0022 0.1845 3.6350 2.6059 -198.4018 0.1710
6991.5000 4.3297 4.0646 3.8605 82.1430 103.9110 7.7698 0.0019 0.1984 3.5718 2.5848 -198.2734 0.1806
6992.0000 4.3519 4.0634 3.8385 84.2258 115.1077 7.7809 0.0022 0.2168 3.4782 2.5675 -198.4375 0.1971
6992.5000 4.3449 4.0319 3.8026 85.8458 120.7494 7.7587 -0.0032 0.2208 3.4107 2.5316 -198.5179 0.2072
6993.0000 4.3019 4.0144 3.7791 86.7422 119.8090 7.7364 -0.0057 0.2221 3.3880 2.5148 -198.5547 0.2069
6993.5000 4.3110 4.0057 3.7412 87.3331 116.1063 7.7364 -0.0048 0.2153 3.3422 2.5191 -198.4018 0.2063
6994.0000 4.2663 3.9502 3.7107 87.3227 113.5204 7.7809 -0.0057 0.2158 3.3750 2.5182 -198.0156 0.1953
6994.5000 4.1882 3.8836 3.6499 87.0305 116.8120 7.7364 -0.0053 0.2216 3.3897 2.5299 -197.9107 0.1933
6995.0000 4.0920 3.8061 3.5769 86.2753 120.3676 7.7587 -0.0038 0.2292 3.4361 2.5458 -198.1250 0.1978
6995.5000 3.9276 3.6612 3.4630 85.2536 118.3403 7.7809 0.0008 0.2213 3.3887 2.5735 -198.4375 0.2048
6996.0000 3.8658 3.5890 3.4080 84.8737 113.8737 7.7587 0.0020 0.2148 3.3570 2.5804 -198.5313 0.1986
6996.5000 3.8963 3.5993 3.4163 85.2452 118.7517 7.7364 -0.0006 0.2212 3.3394 2.5666 -198.2679 0.1976
6997.0000 3.8884 3.5858 3.3968 86.2925 116.0775 7.7475 -0.0008 0.2279 3.3478 2.5621 -198.3516 0.2050
6997.5000 3.8634 3.5628 3.3599 86.5876 114.3727 7.7364 0.0023 0.2382 3.3971 2.5721 -198.2768 0.2160
6998.0000 3.8577 3.5322 3.3337 86.2330 104.0880 7.7809 0.0039 0.2265 3.4675 2.5765 -198.3672 0.2205
6998.5000 3.8797 3.5677 3.3318 86.0595 102.6479 7.7364 0.0022 0.2190 3.5442 2.5682 -198.4554 0.2065
6999.0000 3.9031 3.6067 3.3738 86.3177 111.4056 7.7364 0.0004 0.2220 3.5184 2.5624 -198.4107 0.1957
6999.5000 3.7670 3.4894 3.2629 84.8174 109.9654 7.7587 -0.0007 0.2221 3.4862 2.5569 -198.4297 0.1995
7000.0000 3.6617 3.4020 3.1813 84.8884 114.9314 7.7809 -0.0007 0.2229 3.4541 2.5552 -198.4286 0.2020
7000.5000 3.4655 3.2086 2.9964 84.9302 108.3481 7.7364 -0.0011 0.2134 3.4332 2.5557 -198.3906 0.2035
7001.0000 3.2652 3.0120 2.8352 85.2292 121.3078 7.7587 -0.0003 0.2174 3.3834 2.5654 -198.3214 0.1989
7001.5000 3.1244 2.9003 2.7364 87.1795 123.8942 7.7698 0.0011 0.2254 3.3237 2.5741 -198.2188 0.2019
7002.0000 3.1477 2.8820 2.7207 87.2492 124.1882 7.7587 0.0011 0.2403 3.3263 2.5689 -198.1786 0.2119
7002.5000 3.2154 2.9458 2.7795 87.7411 117.1351 7.7921 -0.0015 0.2426 3.3689 2.5507 -198.0625 0.2196
7003.0000 3.2614 2.9917 2.8219 88.2880 118.0167 7.7587 -0.0049 0.2581 3.4206 2.5277 -198.3482 0.2227
7003.5000 3.2320 2.9692 2.7982 87.9702 118.8988 7.7809 -0.0086 0.2540 3.4546 2.5096 -198.5179 0.2406
7004.0000 3.2069 2.9482 2.7789 88.6369 123.2769 7.7364 -0.0072 0.2508 3.4163 2.5125 -198.7031 0.2429
7004.5000 3.1777 2.9296 2.7572 89.4992 122.6308 7.7587 -0.0034 0.2427 3.3436 2.5237 -198.7232 0.2379
7005.0000 3.1193 2.8755 2.7140 89.6160 128.7422 7.7364 0.0033 0.2346 3.2687 2.5394 -198.5625 0.2278
7005.5000 3.0601 2.8278 2.6680 89.7939 128.5956 7.7364 0.0066 0.2488 3.2279 2.5419 -198.5357 0.2204
7006.0000 3.1051 2.8497 2.6895 90.2569 128.2134 7.7587 0.0089 0.2415 3.2171 2.5492 -198.5859 0.2289
7006.5000 3.1395 2.8874 2.7205 90.0780 120.9260 7.7587 0.0054 0.2637 3.2030 2.5434 -198.7500 0.2248
7007.0000 3.1452 2.9156 2.7462 90.2815 124.1588 7.7809 0.0010 0.2558 3.2420 2.5343 -198.5982 0.2476
7007.5000 3.1519 2.9252 2.7601 90.4042 121.0140 7.7587 -0.0046 0.2731 3.2764 2.5178 -198.4844 0.2400
7008.0000 3.1833 2.9454 2.7853 90.5560 120.0741 7.7364 -0.0064 0.2682 3.3089 2.5102 -198.3672 0.2517
7008.5000 3.2370 2.9847 2.8230 90.9242 110.8172 7.7809 -0.0060 0.2762 3.3056 2.5083 -198.1786 0.2453
7009.0000 3.2951 3.0197 2.8615 90.6632 114.5790 7.7587 -0.0030 0.2617 3.2851 2.5157 -198.1016 0.2554
7009.5000 3.3379 3.0297 2.8740 90.6853 112.3163 7.7587 -0.0015 0.2416 3.2907 2.5190 -198.0089 0.2450
7010.0000 3.2924 2.9968 2.8472 90.5798 118.5752 7.7809 -0.0001 0.2295 3.2684 2.5281 -198.2266 0.2230
7010.5000 3.1765 2.9191 2.7824 90.3356 122.6894 7.7587 -0.0009 0.2406 3.2619 2.5297 -198.3839 0.2118
7011.0000 3.1219 2.8724 2.7347 90.2845 129.6535 7.7809 0.0006 0.2568 3.2316 2.5418 -198.4554 0.2193
7011.5000 3.1058 2.8555 2.7224 89.6071 125.2461 7.7809 0.0010 0.2623 3.2312 2.5567 -198.5000 0.2305
7012.0000 3.0506 2.8300 2.6747 88.8148 121.6016 7.7587 0.0018 0.2519 3.2089 2.5755 -198.4554 0.2384
7012.5000 2.9364 2.7076 2.5616 88.4327 117.3114 7.7698 0.0002 0.2451 3.1783 2.5743 -198.5000 0.2365
7013.0000 2.8054 2.5893 2.4401 88.5199 119.3682 7.7809 -0.0003 0.2456 3.1412 2.5557 -198.6518 0.2375
7013.5000 2.6826 2.4817 2.3513 89.2019 125.4808 7.7587 0.0045 0.2511 3.1193 2.5368 -199.1953 0.2357
7014.0000 2.6588 2.4478 2.3100 90.4823 129.1839 7.7364 0.0082 0.2469 3.1116 2.5194 -199.4821 0.2412
7014.5000 2.7197 2.4837 2.3425 91.5378 131.5350 7.8032 0.0157 0.2535 3.1159 2.5249 -199.4453 0.2322
7015.0000 2.8115 2.5856 2.4306 92.1621 127.4210 7.7364 0.0135 0.2689 3.1201 2.5183 -199.3571 0.2357
7015.5000 2.9034 2.6786 2.5138 92.2167 124.4823 7.7364 0.0124 0.2822 3.1393 2.5179 -198.8359 0.2486
7016.0000 3.0076 2.7623 2.5951 91.8116 120.6909 7.7364 0.0135 0.2917 3.2022 2.5240 -198.6875 0.2581
7016.5000 3.1764 2.8993 2.7173 91.1573 116.5766 7.7364 0.0175 0.2792 3.2778 2.5343 -198.6016 0.2638
7017.0000 3.3590 3.0514 2.8782 90.8143 116.0183 7.7587 0.0161 0.2641 3.3219 2.5372 -198.6696 0.2541
7017.5000 3.4841 3.2000 3.0224 90.3222 114.1674 7.7587 0.0049 0.2528 3.3414 2.5093 -198.6641 0.2354
7018.0000 3.6767 3.3555 3.1874 89.6462 116.2248 7.7364 -0.0054 0.2540 3.3235 2.4937 -198.3750 0.2263
7018.5000 3.9099 3.5486 3.3890 88.8996 116.3124 7.7141 -0.0095 0.2503 3.3436 2.4959 -198.2232 0.2199
7019.0000 4.1555 3.8312 3.6468 86.0378 123.1007 7.7587 -0.0083 0.2205 3.3633 2.5172 -198.1172 0.2200
7019.5000 4.4555 3.9271 3.7409 85.1013 116.8120 7.7587 -0.0059 0.1868 3.4254 2.5231 -198.1484 0.1961
7020.0000 3.5091 3.4077 3.2615 86.0613 118.5754 7.7364 -0.0013 0.1823 3.4014 2.5210 -198.4018 0.1817
