~VERSION INFORMATION
VERS.           1.2   :CWLS Log ASCII Standard - VERSION 1.2
WRAP.           NO    :One Line per depth step
PROD.  Schlumberger   :LAS Producer
PROG.  DLIS to ASCII 17C0-152                          :LAS Program name and version
CREA.        2013/11/03 06:14                          :LAS Creation date {YYYY/MM/DD hh:mm}
DLIS_CREA.  2013-Nov-02 20:25                          :DLIS Creation date and time {YYYY-MMM-DD hh:mm}
SOURCE.     36f617ea-a8f9-4f31-9cfe-b4906ac6e0fc       :DLIS File Name
#--------------------------------------------------
~WELL INFORMATION
#MNEM.UNIT      DATA             DESCRIPTION
#---- ------ --------------   -----------------------------
STRT .F      1000.5000       :START DEPTH        # original; data subset to 5500-8000
STOP .F      7745.0000       :STOP DEPTH        # original; data subset to 5500-8000
STEP .F       0.5000         :STEP       
NULL .          -999.25      :NULL VALUE
COMP .                 COMPANY:  Bear Oil & Gas, Inc.               
WELL .                    WELL:  Marquardt 34-31                    
FLD  .                   FIELD:  Wildcat                            
LOC  .                LOCATION:  SWSE, Sec. 31, T16N, R60W          
CNTY .                  COUNTY:  Laramie                            
STAT .                   STATE:  Wyoming                            
CTRY .                 COUNTRY:                                     
SRVC .         SERVICE COMPANY:  Schlumberger                       
LATI .DEG             LATITUDE:  41.305550 degrees                  
LONG .DEG            LONGITUDE:  -104.12401 degrees                 
API  .              API NUMBER:  49-021-21046-0000                  
DATE .                LOG DATE:  02-Nov-2013
UWI  .          UNIQUE WELL ID:                                     
#-----------------------------------------------------------------------------
~PARAMETER INFORMATION
#MNEM.UNIT    VALUE                      DESCRIPTION
#---- -----   --------------------       ------------------------
CN   .        Bear Oil & Gas  Inc.       :Company Name
WN   .        Marquardt 34-31            :Well Name
FN   .        Wildcat                    :Field Name
FL   .        SWSE  Sec. 31  T16N  R60W  :Field Location
FL1  .        SHL  1265' FSL X 1340' FEL :Field Location, Line 1
COUN .        Laramie                    :County or Parish
STAT .        Wyoming                    :State or Province
NATI .                                   :Nation
DATE .        02-Nov-2013                :Tools Above Rotary Table Date
APIN .        49-021-21046-0000          :API Well Number
SECT .        31                         :Section
TOWN .        16N                        :Township
RANG .        60W                        :Range
DMF  .        KB                         :Drilling Measured From (Name of Drilling Elevation Reference)
LMF  .        KB                         :Logging Measured From (Name of Logging Elevation Reference)
PDAT .        GL                         :Permanent Datum
ENGI .        Heather Hoffman            :Engineer s Name
WITN .        Terry Eittreim             :Witness s Name
LATI .        41.305550 degrees          :Latitude
LONG .        -104.12401 degrees         :Longitude
LUL  .        Fort Morgan  CO            :Logging Unit Location
LUN  .        2135                       :Logging Unit Number
RUN  .        PEX BHC AIT                :Run Number
SON  .        CQQL-00004                 :Service Order Number
BHT  .DEGF     185.00000                 :Bottom Hole Temperature
BS   .IN         7.87500                 :Bit Size
MDEN .G/C3       2.65000                 :Matrix Density for Density Porosity
DFD  .LB/G       9.10000                 :Drilling Fluid Density
DFV  .S         82.00000                 :Drilling Fluid Viscosity
DFL  .C3      -999.25000                 :Drilling Fluid Loss
RMFS .OHMM       1.18400                 :Resistivity of Mud Filtrate Sample
EKB  .F       10594.00000                :Elevation of Kelly Bushing
EGL  .F       5291.00000                 :Elevation of Ground Level
BLI  .F       7724.00000                 :Bottom Log Interval
BSAL .PPM        0.00000                 :Borehole Salinity
FLEV .F         50.00000                 :Depth of Drilling Fluid Level to LMF (Log Measured From)
MCST .DEGF      85.00000                 :Mudcake Sample Temperature
MFST .DEGF      85.00000                 :Mud Filtrate Sample Temperature
MRT  .DEGF     185.00000                 :Maximum Recorded Temperature
MST  .DEGF      85.00000                 :Mud Sample Temperature
RMCS .OHMM       1.77600                 :Resistivity of Mud Cake Sample
RMS  .OHMM       1.48000                 :Resistivity of Mud Sample
RW   .OHMM       1.00000                 :Connate Water Resistivity
TDD  .F       7719.99951                 :Driller Total Depth
TDL  .F       7724.00000                 :Logger Total Depth
TLI  .F       1024.00000                 :Top Log Interval
HIDE .        Wildcat                    :Header Identifier
MATR .        SAND                       :Rock Matrix for Neutron Porosity Corrections
FNUM .           1.00000                 :F-Numerator for Formation Factor Formula
FEXP .           2.00000                 :Exponent "m" for Formation Factor Formula
DFT  .        WATER                      :Drilling Fluid Type
DFPH .        -999.25000                 :Drilling Fluid pH
MCSS .        Calculated                 :Mudcake Sample Source
MFSS .        Calculated                 :Mud Filtrate Sample Source
FD   .G/C3       1.00000                 :Fluid Density
MSS  .        Active Tank                :Mud Sample Source
OS1  .                                   :Other Services Line 1
OS2  .                                   :Other Services Line 2
OS3  .                                   :Other Services Line 3
OS4  .                                   :Other Services Line 4
OS5  .                                   :Other Services Line 5
R1   .                                   :Remarks Line 1
R2   .                                   :Remarks Line 2
R3   .                                   :Remarks Line 3
R4   .                                   :Remarks Line 4
R5   .                                   :Remarks Line 5
R6   .                                   :Remarks Line 6
R7   .                                   :Remarks Line 7
R8   .        This is first run in hole. :Remarks Line 8
TCS  .        09 55 00                   :Time Circulation Stopped
TLAB .        20 18 33                   :Time Logger At Bottom
NMT  .        NOBARITE                   :HRDD Mud Type for Nuclear Devices
EPD  .C3         5291.000000             :Elevation of Permanent Datum above Mean Sea Level
APD  .F         5303.000000              :Elevation of Depth Reference (LMF) above Permanent Datum
#-----------------------------------------------------------------------------
~CURVE INFORMATION
#MNEM.UNIT   API CODE                                  DESCRIPTION
#---- -----  --------                                  -----------------------
DEPT .F                                                :DEPTH (BOREHOLE) {F12.4}
AT10 .OHMM                                             :Array Induction Two Foot Resistivity A10 {F11.4}
AT30 .OHMM                                             :Array Induction Two Foot Resistivity A30 {F11.4}
AT90 .OHMM                                             :Array Induction Two Foot Resistivity A90 {F11.4}
DT   .US/F                                             :Delta-T (also called Slowness or Interval Transit Time) {F11.4}
GR   .GAPI                                             :Gamma Ray {F11.4}
HCAL .IN                                               :HRCC Caliper Calibrated {F11.4}
HDRA .G/C3                                             :Density Standoff Correction {F11.4}
NPHI .CFCF                                             :Thermal Neutron Porosity (original Ratio Method) in Selected Lithology {F11.4}
PEFZ .                                                 :Standard Resolution Formation Photoelectric Factor {F11.4}
RHOZ .G/C3                                             :Standard Resolution Formation Density {F11.4}
SP   .MV                                               :Spontaneous Potential {F11.4}
TNPH .CFCF                                             :Thermal Neutron Porosity (Ratio Method) in Selected Lithology {F11.4}
#-----------------------------------------------------------------------------
# 
#      DEPT        AF10       AF20       AF30       AF60       AF90       AO10       AO20       AO30       AO60       AO90       AT10       AT20       AT30       AT60       AT90     AHFCO60      AHMF      AHORT      AHORX      AHSCA     AHTCO10    AHTCO20    AHTCO30    AHTCO60    AHTCO90     AHTD1      AHTD2      AHTRT      AHTRX       CDF        CFTC       CNTC       CTEM       DCAL       DNPH       DPHZ       DSOZ        DT        ECGR        ED        GDEV        GR        GTEM       HCAL       HDRA       HDRB       HGR        HMIN       HMNO       HNPO       HPRA       HTNP       ITT         ND        NPHI       NPOR       PEFZ    PXND_HILT     RHOZ       RSOZ     RWA_HILT     RXO8       RXOZ        SP        SPAR       SPHI       STIT       TENS       TNPH     HTNP_SAN
#
~A  DEPT AT10 AT30 AT90 DT GR HCAL HDRA NPHI PEFZ RHOZ SP TNPH
# ...
7420.5000 1.4018 1.2828 1.2096 102.9325 146.9923 8.4273 0.1587 0.4941 2.9533 2.4408 -197.0625 0.3910
7421.0000 1.8372 1.5185 1.4737 96.3188 142.1141 8.5164 0.1443 0.4313 3.0520 2.5101 -197.0357 0.3993
7421.5000 2.6382 2.3532 2.2513 87.1014 132.7401 8.1821 0.1085 0.3311 3.1694 2.5803 -197.0893 0.3119
7422.0000 5.3981 4.3638 4.6546 78.6920 114.7556 7.9370 0.0620 0.2319 3.2646 2.6371 -197.2656 0.2456
7422.5000 6.3357 6.2047 6.4164 72.6833 113.0506 7.8924 0.0247 0.2193 3.3222 2.6500 -197.2232 0.2142
7423.0000 5.6001 5.9903 6.3160 71.7945 114.6668 7.8701 0.0133 0.2265 3.3422 2.6539 -196.8516 0.2224
7423.5000 5.1316 5.1130 5.4740 75.3367 123.1889 7.9147 0.0254 0.2370 3.3192 2.6604 -196.5357 0.2314
7424.0000 4.7366 4.4582 4.6903 76.3601 123.0131 7.8701 0.0348 0.2311 3.2503 2.6651 -196.6172 0.2371
7424.5000 4.7930 4.4398 4.5224 76.8352 118.9275 7.8924 0.0377 0.2362 3.1482 2.6469 -196.7768 0.2280
7425.0000 4.8171 4.5301 4.5614 77.2334 116.7533 7.8924 0.0474 0.2472 3.0757 2.6251 -196.7422 0.2411
7425.5000 4.6353 4.4954 4.5939 78.0627 122.2777 7.8924 0.0626 0.2635 3.0255 2.6094 -196.6518 0.2550
7426.0000 4.4236 4.2759 4.4642 79.1217 126.3627 7.8924 0.0809 0.2781 2.9995 2.6161 -196.5469 0.2651
7426.5000 4.4211 4.2488 4.4608 79.4851 134.5025 7.8924 0.0895 0.2720 2.9859 2.6234 -196.5982 0.2654
7427.0000 4.5009 4.4200 4.6901 79.8500 137.4415 7.9147 0.0969 0.2637 2.9996 2.6200 -196.6797 0.2600
7427.5000 4.3896 4.3799 4.6822 80.0018 138.7057 7.8701 0.1031 0.2351 3.0295 2.6096 -196.6429 0.2608
7428.0000 4.0617 4.0394 4.2967 81.1107 133.8569 7.9592 0.1137 0.2604 3.0683 2.5952 -196.5313 0.2444
7428.5000 3.7645 3.6968 3.9352 83.1687 134.7976 8.0261 0.1203 0.2797 3.1018 2.5857 -196.5982 0.2704
7429.0000 3.5664 3.4396 3.6778 84.0563 130.6827 8.0484 0.1319 0.3059 3.1493 2.6131 -196.5859 0.2771
7429.5000 4.0725 3.7684 4.1338 82.8961 127.6270 8.3493 0.1296 0.2815 3.1988 2.6452 -196.6518 0.2814
7430.0000 4.4574 4.3135 4.5834 81.8791 124.5700 7.9592 0.1204 0.2657 3.2385 2.6661 -196.6328 0.2636
7430.5000 4.4566 4.2821 4.4970 80.6506 121.3081 7.9258 0.1018 0.2586 3.2323 2.6438 -196.5357 0.2603
7431.0000 4.1178 3.9400 4.1003 81.0229 129.2126 7.9815 0.0876 0.2700 3.1835 2.6126 -196.2266 0.2552
7431.5000 3.9847 3.7333 3.8623 82.2085 131.7987 8.1041 0.0860 0.2797 3.1497 2.5967 -196.3036 0.2645
7432.0000 3.8418 3.6340 3.6257 83.0488 138.9697 7.9592 0.0938 0.2945 3.1659 2.5872 -196.4688 0.2823
7432.5000 3.7065 3.4227 3.3884 83.6815 136.7066 7.9035 0.1207 0.3152 3.2515 2.5978 -196.5536 0.2890
7433.0000 3.6393 3.3682 3.2854 82.6284 130.5943 7.9592 0.1414 0.3138 3.3976 2.6274 -196.6563 0.3008
7433.5000 3.6606 3.2972 3.2288 79.1117 130.4766 7.9370 0.1670 0.3060 3.6724 2.7365 -196.3929 0.2996
7434.0000 3.9875 3.6339 3.4391 78.8543 117.7234 7.9370 0.1781 0.2913 3.9754 2.8469 -196.1406 0.2979
7434.5000 3.6135 3.5693 3.3726 79.4793 113.0217 7.7921 0.1829 0.2955 4.1667 2.8965 -196.3661 0.2957
7435.0000 3.4961 3.3172 3.1977 77.1352 106.3506 8.0261 0.1734 0.3087 4.0480 2.8333 -196.6953 0.2964
7435.5000 3.3635 3.1491 3.0312 84.3974 115.8129 7.9704 0.1701 0.3152 3.7626 2.7472 -196.8571 0.3131
7436.0000 3.1615 2.9385 2.8730 82.7894 119.3097 8.0484 0.1600 0.3404 3.4075 2.6574 -196.9375 0.3153
7436.5000 3.1212 2.9119 2.8492 85.8743 125.2751 8.0150 0.1630 0.3417 3.1570 2.6228 -196.8036 0.3242
7437.0000 3.1821 2.9828 2.9260 86.1672 135.3548 8.0484 0.1486 0.3428 2.9946 2.5901 -196.7969 0.3308
7437.5000 3.1214 2.9681 2.9216 86.2825 138.4403 8.1264 0.1475 0.3272 2.9502 2.5894 -196.8482 0.3385
7438.0000 2.9177 2.8255 2.8033 87.0331 140.4977 8.2267 0.1367 0.3382 2.9658 2.5646 -196.8906 0.3259
7438.5000 2.7636 2.6295 2.6102 88.0149 140.5269 8.3270 0.1375 0.3384 3.0032 2.5385 -196.8214 0.3392
7439.0000 2.6534 2.5105 2.4809 90.2800 138.4108 8.4273 0.1502 0.3561 3.0360 2.5218 -196.8203 0.3465
7439.5000 2.5543 2.4281 2.3876 91.6084 135.5309 8.4496 0.1695 0.3398 3.0355 2.5135 -197.0625 0.3548
7440.0000 2.4719 2.3340 2.2901 91.6966 136.7061 8.4496 0.1841 0.3272 2.9910 2.5077 -197.1328 0.3326
7440.5000 2.4484 2.3027 2.2368 91.2058 147.2570 8.5053 0.1943 0.3240 2.9547 2.5126 -197.0000 0.3164
7441.0000 2.4349 2.2978 2.2098 90.6306 150.6654 8.5164 0.1909 0.3414 2.9519 2.5042 -196.8047 0.3212
7441.5000 2.4062 2.2839 2.1877 90.8138 146.5814 8.5164 0.1889 0.3590 2.9584 2.4985 -196.7768 0.3407
7442.0000 2.3765 2.2696 2.1761 88.7768 138.6169 8.2267 0.1883 0.3664 2.9450 2.4925 -197.0547 0.3486
7442.5000 2.3674 2.2697 2.1508 88.4891 137.0594 8.5164 0.1866 0.3494 2.9088 2.4920 -197.6250 0.3517
7443.0000 2.2992 2.2635 2.1595 91.5424 131.7403 8.3827 0.1816 0.3601 2.9246 2.4937 -197.6696 0.3455
7443.5000 2.2689 2.1744 2.0989 86.3641 133.7386 8.3827 0.1714 0.3743 3.0201 2.5027 -197.5446 0.3528
7444.0000 2.2825 2.1650 2.0984 90.0894 128.0083 8.2935 0.1690 0.3823 3.1492 2.5036 -197.5156 0.3604
7444.5000 2.2733 2.1689 2.1177 91.4383 127.1557 8.3158 0.1775 0.3614 3.2044 2.5004 -197.5804 0.3731
7445.0000 2.0657 2.0136 1.9768 91.6628 123.7472 8.6056 0.1817 0.3671 3.1143 2.4860 -197.4297 0.3578
7445.5000 1.9269 1.8701 1.8509 93.0523 129.0663 8.4273 0.1807 0.3791 3.0004 2.4863 -197.5625 0.3578
7446.0000 1.8640 1.8245 1.8021 95.6353 134.8560 8.5499 0.1669 0.4003 2.9328 2.4810 -197.7188 0.3657
7446.5000 1.8567 1.8169 1.7972 96.1318 138.2648 8.5387 0.1629 0.3821 2.9427 2.4762 -197.6161 0.3813
7447.0000 1.8348 1.8052 1.7776 97.6103 139.7635 8.5387 0.1631 0.3968 2.9503 2.4669 -197.4688 0.3721
7447.5000 1.8050 1.7646 1.7299 97.4073 137.6766 8.6279 0.1685 0.4069 2.9431 2.4706 -197.5982 0.3839
7448.0000 1.7768 1.7303 1.6955 97.3210 131.6816 8.6947 0.1683 0.3901 2.9322 2.4782 -197.5391 0.3823
7448.5000 1.7465 1.6924 1.6541 97.5614 131.0056 8.6947 0.1599 0.3881 2.9299 2.4802 -197.5357 0.3717
7449.0000 1.7366 1.6580 1.6107 97.8990 126.7448 8.5499 0.1475 0.3835 2.9327 2.4822 -197.6875 0.3742
7449.5000 1.6991 1.6368 1.5892 98.2256 132.9457 8.6947 0.1308 0.3743 2.9401 2.4785 -197.5536 0.3744
7450.0000 1.6574 1.5902 1.5334 98.4462 135.0320 8.7393 0.1161 0.3653 2.9500 2.4726 -197.4453 0.3644
7450.5000 1.6214 1.5780 1.5163 98.9888 137.2361 9.0067 0.1068 0.3557 2.9713 2.4619 -197.6429 0.3589
7451.0000 1.6136 1.5831 1.5148 99.0662 132.9160 8.8062 0.1024 0.3866 2.9977 2.4553 -197.6484 0.3523
7451.5000 1.6261 1.6004 1.5218 98.8696 128.1555 8.7170 0.1036 0.3706 3.0283 2.4540 -197.6429 0.3659
7452.0000 1.6281 1.6018 1.5223 98.6909 123.8354 8.8953 0.1126 0.3642 3.0431 2.4615 -197.5625 0.3510
7452.5000 1.6019 1.5406 1.4704 98.9287 117.4584 9.0067 0.1320 0.3819 3.0444 2.4617 -197.4911 0.3561
7453.0000 1.5454 1.4826 1.4140 99.8868 118.4578 8.8284 0.1492 0.3767 3.0117 2.4646 -197.6406 0.3713
7453.5000 1.4886 1.4246 1.3664 100.1467 124.0119 8.5610 0.1499 0.3605 2.9650 2.4539 -197.7411 0.3588
7454.0000 1.4507 1.3821 1.3323 101.1464 129.4484 8.8953 0.1416 0.3354 2.9200 2.4514 -197.7656 0.3368
7454.5000 1.4210 1.3506 1.2986 101.7290 129.4774 8.9622 0.1285 0.3530 2.8836 2.4448 -197.6696 0.3326
7455.0000 1.3861 1.3173 1.2722 102.1708 125.5694 8.8730 0.1212 0.3718 2.8434 2.4399 -197.5000 0.3492
7455.5000 1.3544 1.2784 1.2275 103.2908 129.5953 8.7170 0.1161 0.3776 2.7951 2.4271 -197.3482 0.3607
7456.0000 1.3158 1.2444 1.1857 103.8876 124.1590 8.5164 0.1145 0.3851 2.7502 2.4112 -197.5781 0.3644
7456.5000 1.3013 1.2234 1.1619 104.3276 128.6842 8.4718 0.1170 0.4109 2.7371 2.3995 -197.7679 0.3623
7457.0000 1.2943 1.2284 1.1646 104.7803 133.3567 8.4496 0.1154 0.4166 2.7565 2.4023 -197.8281 0.3894
7457.5000 1.3242 1.2453 1.1761 103.4625 151.9292 8.3270 0.1144 0.4230 2.8136 2.4271 -197.4732 0.3934
7458.0000 1.4180 1.3064 1.2334 101.3038 151.7241 8.1375 0.1178 0.3906 2.9038 2.4494 -197.2266 0.3929
7458.5000 1.5223 1.4023 1.3007 99.0949 142.0854 7.8812 0.1387 0.3678 2.9827 2.4618 -196.9609 0.3689
7459.0000 1.5883 1.4427 1.3527 97.0708 124.4233 7.9815 0.1684 0.3428 3.0264 2.4543 -197.2054 0.3529
7459.5000 1.5368 1.4046 1.3234 96.9976 121.0435 8.3604 0.1850 0.3514 3.0080 2.4569 -197.4643 0.3422
7460.0000 1.4976 1.3692 1.2980 97.8582 124.7756 8.4273 0.1781 0.3594 2.9846 2.4657 -197.4766 0.3469
