~VERSION INFORMATION
VERS.           1.2   :CWLS Log ASCII Standard - VERSION 1.2
WRAP.           NO    :One Line per depth step
PROD.  Schlumberger   :LAS Producer
PROG.  DLIS to ASCII 17C0-152                          :LAS Program name and version
CREA.        2013/11/03 06:14                          :LAS Creation date {YYYY/MM/DD hh:mm}
DLIS_CREA.  2013-Nov-02 20:25                          :DLIS Creation date and time {YYYY-MMM-DD hh:mm}
SOURCE.     36f617ea-a8f9-4f31-9cfe-b4906ac6e0fc       :DLIS File Name
#--------------------------------------------------
~WELL INFORMATION
#MNEM.UNIT      DATA             DESCRIPTION
#---- ------ --------------   -----------------------------
STRT .F      1000.5000       :START DEPTH        # original; data subset to 5500-8000
STOP .F      7745.0000       :STOP DEPTH        # original; data subset to 5500-8000
STEP .F       0.5000         :STEP       
NULL .          -999.25      :NULL VALUE
COMP .                 COMPANY:  Bear Oil & Gas, Inc.               
WELL .                    WELL:  Marquardt 34-31                    
FLD  .                   FIELD:  Wildcat                            
LOC  .                LOCATION:  SWSE, Sec. 31, T16N, R60W          
CNTY .                  COUNTY:  Laramie                            
STAT .                   STATE:  Wyoming                            
CTRY .                 COUNTRY:                                     
SRVC .         SERVICE COMPANY:  Schlumberger                       
LATI .DEG             LATITUDE:  41.305550 degrees                  
LONG .DEG            LONGITUDE:  -104.12401 degrees                 
API  .              API NUMBER:  49-021-21046-0000                  
DATE .                LOG DATE:  02-Nov-2013
UWI  .          UNIQUE WELL ID:                                     
#-----------------------------------------------------------------------------
~PARAMETER INFORMATION
#MNEM.UNIT    VALUE                      DESCRIPTION
#---- -----   --------------------       ------------------------
CN   .        Bear Oil & Gas  Inc.       :Company Name
WN   .        Marquardt 34-31            :Well Name
FN   .        Wildcat                    :Field Name
FL   .        SWSE  Sec. 31  T16N  R60W  :Field Location
FL1  .        SHL  1265' FSL X 1340' FEL :Field Location, Line 1
COUN .        Laramie                    :County or Parish
STAT .        Wyoming                    :State or Province
NATI .                                   :Nation
DATE .        02-Nov-2013                :Tools Above Rotary Table Date
APIN .        49-021-21046-0000          :API Well Number
SECT .        31                         :Section
TOWN .        16N                        :Township
RANG .        60W                        :Range
DMF  .        KB                         :Drilling Measured From (Name of Drilling Elevation Reference)
LMF  .        KB                         :Logging Measured From (Name of Logging Elevation Reference)
PDAT .        GL                         :Permanent Datum
ENGI .        Heather Hoffman            :Engineer s Name
WITN .        Terry Eittreim             :Witness s Name
LATI .        41.305550 degrees          :Latitude
LONG .        -104.12401 degrees         :Longitude
LUL  .        Fort Morgan  CO            :Logging Unit Location
LUN  .        2135                       :Logging Unit Number
RUN  .        PEX BHC AIT                :Run Number
SON  .        CQQL-00004                 :Service Order Number
BHT  .DEGF     185.00000                 :Bottom Hole Temperature
BS   .IN         7.87500                 :Bit Size
MDEN .G/C3       2.65000                 :Matrix Density for Density Porosity
DFD  .LB/G       9.10000                 :Drilling Fluid Density
DFV  .S         82.00000                 :Drilling Fluid Viscosity
DFL  .C3      -999.25000                 :Drilling Fluid Loss
RMFS .OHMM       1.18400                 :Resistivity of Mud Filtrate Sample
EKB  .F       10594.00000                :Elevation of Kelly Bushing
EGL  .F       5291.00000                 :Elevation of Ground Level
BLI  .F       7724.00000                 :Bottom Log Interval
BSAL .PPM        0.00000                 :Borehole Salinity
FLEV .F         50.00000                 :Depth of Drilling Fluid Level to LMF (Log Measured From)
MCST .DEGF      85.00000                 :Mudcake Sample Temperature
MFST .DEGF      85.00000                 :Mud Filtrate Sample Temperature
MRT  .DEGF     185.00000                 :Maximum Recorded Temperature
MST  .DEGF      85.00000                 :Mud Sample Temperature
RMCS .OHMM       1.77600                 :Resistivity of Mud Cake Sample
RMS  .OHMM       1.48000                 :Resistivity of Mud Sample
RW   .OHMM       1.00000                 :Connate Water Resistivity
TDD  .F       7719.99951                 :Driller Total Depth
TDL  .F       7724.00000                 :Logger Total Depth
TLI  .F       1024.00000                 :Top Log Interval
HIDE .        Wildcat                    :Header Identifier
MATR .        SAND                       :Rock Matrix for Neutron Porosity Corrections
FNUM .           1.00000                 :F-Numerator for Formation Factor Formula
FEXP .           2.00000                 :Exponent "m" for Formation Factor Formula
DFT  .        WATER                      :Drilling Fluid Type
DFPH .        -999.25000                 :Drilling Fluid pH
MCSS .        Calculated                 :Mudcake Sample Source
MFSS .        Calculated                 :Mud Filtrate Sample Source
FD   .G/C3       1.00000                 :Fluid Density
MSS  .        Active Tank                :Mud Sample Source
OS1  .                                   :Other Services Line 1
OS2  .                                   :Other Services Line 2
OS3  .                                   :Other Services Line 3
OS4  .                                   :Other Services Line 4
OS5  .                                   :Other Services Line 5
R1   .                                   :Remarks Line 1
R2   .                                   :Remarks Line 2
R3   .                                   :Remarks Line 3
R4   .                                   :Remarks Line 4
R5   .                                   :Remarks Line 5
R6   .                                   :Remarks Line 6
R7   .                                   :Remarks Line 7
R8   .        This is first run in hole. :Remarks Line 8
TCS  .        09 55 00                   :Time Circulation Stopped
TLAB .        20 18 33                   :Time Logger At Bottom
NMT  .        NOBARITE                   :HRDD Mud Type for Nuclear Devices
EPD  .C3         5291.000000             :Elevation of Permanent Datum above Mean Sea Level
APD  .F         5303.000000              :Elevation of Depth Reference (LMF) above Permanent Datum
#-----------------------------------------------------------------------------
~CURVE INFORMATION
#MNEM.UNIT   API CODE                                  DESCRIPTION
#---- -----  --------                                  -----------------------
DEPT .F                                                :DEPTH (BOREHOLE) {F12.4}
AT10 .OHMM                                             :Array Induction Two Foot Resistivity A10 {F11.4}
AT30 .OHMM                                             :Array Induction Two Foot Resistivity A30 {F11.4}
AT90 .OHMM                                             :Array Induction Two Foot Resistivity A90 {F11.4}
DT   .US/F                                             :Delta-T (also called Slowness or Interval Transit Time) {F11.4}
GR   .GAPI                                             :Gamma Ray {F11.4}
HCAL .IN                                               :HRCC Caliper Calibrated {F11.4}
HDRA .G/C3                                             :Density Standoff Correction {F11.4}
NPHI .CFCF                                             :Thermal Neutron Porosity (original Ratio Method) in Selected Lithology {F11.4}
PEFZ .                                                 :Standard Resolution Formation Photoelectric Factor {F11.4}
RHOZ .G/C3                                             :Standard Resolution Formation Density {F11.4}
SP   .MV                                               :Spontaneous Potential {F11.4}
TNPH .CFCF                                             :Thermal Neutron Porosity (Ratio Method) in Selected Lithology {F11.4}
#-----------------------------------------------------------------------------
# 
#      DEPT        AF10       AF20       AF30       AF60       AF90       AO10       AO20       AO30       AO60       AO90       AT10       AT20       AT30       AT60       AT90     AHFCO60      AHMF      AHORT      AHORX      AHSCA     AHTCO10    AHTCO20    AHTCO30    AHTCO60    AHTCO90     AHTD1      AHTD2      AHTRT      AHTRX       CDF        CFTC       CNTC       CTEM       DCAL       DNPH       DPHZ       DSOZ        DT        ECGR        ED        GDEV        GR        GTEM       HCAL       HDRA       HDRB       HGR        HMIN       HMNO       HNPO       HPRA       HTNP       ITT         ND        NPHI       NPOR       PEFZ    PXND_HILT     RHOZ       RSOZ     RWA_HILT     RXO8       RXOZ        SP        SPAR       SPHI       STIT       TENS       TNPH     HTNP_SAN
#
~A  DEPT AT10 AT30 AT90 DT GR HCAL HDRA NPHI PEFZ RHOZ SP TNPH
# ...
6542.0000 2.0622 2.2366 2.2413 105.0424 190.0443 7.7809 0.0138 0.3623 2.9700 2.3636 -199.2969 0.3643
6542.5000 2.3615 2.1890 2.1921 103.7333 176.8785 7.7141 0.0121 0.3266 2.9456 2.3680 -199.1786 0.3400
6543.0000 2.6930 2.5135 2.5555 102.0320 168.2387 7.6918 0.0001 0.3060 2.9873 2.3600 -199.2188 0.3057
6543.5000 2.4647 2.2373 2.2552 97.1789 164.7123 7.6918 0.0006 0.3078 3.0161 2.3539 -199.1518 0.2968
6544.0000 1.5312 1.4374 1.4729 102.8867 170.5018 7.6918 0.0025 0.3553 2.9386 2.3102 -199.1875 0.3207
6544.5000 0.8898 0.8497 0.8880 111.9978 180.9333 7.7252 0.0058 0.4005 2.8042 2.2674 -199.7422 0.3672
6545.0000 0.7624 0.7896 0.7885 110.8659 185.8702 7.6918 0.0043 0.3926 2.7584 2.2564 -199.5893 0.3911
6545.5000 1.2364 1.1875 1.1183 117.3667 195.1270 7.6918 0.0024 0.3698 2.9918 2.2945 -199.4141 0.3559
6546.0000 2.0526 1.9208 1.6853 109.1270 213.9345 7.6918 -0.0031 0.3463 3.4691 2.3161 -199.5357 0.3535
6546.5000 3.0767 2.7103 2.3260 107.1952 244.2040 7.6695 0.0003 0.3884 4.0238 2.3182 -199.1406 0.3605
6547.0000 3.7381 2.9457 2.5631 114.0877 271.4738 7.6806 -0.0014 0.3950 4.4402 2.3078 -198.8929 0.4031
6547.5000 3.9505 2.9178 2.5740 115.6025 288.8716 7.6918 -0.0002 0.4420 4.5970 2.3175 -198.7232 0.3906
6548.0000 3.5715 2.8342 2.5412 116.9089 309.2349 7.6918 -0.0065 0.4304 4.6071 2.3301 -198.8906 0.4323
6548.5000 3.1103 2.6316 2.4209 116.9247 357.8987 7.7029 -0.0061 0.4467 4.5484 2.3484 -199.0000 0.4328
6549.0000 2.8849 2.5783 2.4014 116.2666 397.2487 7.6472 -0.0061 0.4174 4.5152 2.3692 -199.2422 0.4484
6549.5000 2.8529 2.6168 2.4992 113.8406 439.2433 7.7141 -0.0032 0.4038 4.3693 2.4051 -199.2054 0.3945
6550.0000 2.8797 2.6791 2.5660 109.8859 410.0039 7.7141 -0.0000 0.3529 4.0490 2.4221 -199.2589 0.3750
6550.5000 2.6141 2.3786 2.2541 106.1309 352.3166 7.7364 0.0108 0.3600 3.6364 2.4201 -199.5000 0.3310
6551.0000 1.9059 1.8086 1.7329 110.5473 275.2057 7.7252 0.0236 0.3879 3.3290 2.3992 -199.7411 0.3574
6551.5000 1.4335 1.3866 1.3373 108.8882 238.7967 7.6472 0.0241 0.4270 3.2143 2.3765 -199.6094 0.3705
6552.0000 1.6159 1.4980 1.4449 107.2103 233.6251 7.7141 0.0146 0.3914 3.3379 2.3814 -199.4107 0.3706
6552.5000 2.5771 2.3489 2.1514 106.6974 230.4798 7.7141 0.0008 0.3239 3.6368 2.3958 -199.4643 0.3343
6553.0000 4.7784 4.3495 3.8388 96.1747 216.4323 7.7141 -0.0020 0.2875 4.0144 2.4176 -199.6797 0.2842
6553.5000 6.9629 5.1013 4.4634 95.5633 210.3792 7.7029 -0.0035 0.2682 4.2417 2.4195 -199.8036 0.2789
6554.0000 4.6956 4.6566 4.2626 98.9912 199.6539 7.7141 0.0019 0.2984 4.2488 2.4393 -199.9219 0.2557
6554.5000 3.3651 3.1453 2.9774 96.3232 190.0449 7.7029 0.0079 0.2859 4.0993 2.4644 -199.9821 0.2774
6555.0000 3.2677 2.9775 2.8941 97.5353 186.4589 7.7364 0.0105 0.3152 3.8901 2.4649 -199.6071 0.2651
6555.5000 3.3976 3.2852 3.1842 99.2539 185.2825 7.7141 0.0063 0.3403 3.7334 2.4263 -199.5859 0.2965
6556.0000 3.3167 3.2404 3.1498 96.5472 202.9734 7.7141 0.0034 0.3615 3.6848 2.3966 -199.8571 0.3195
6556.5000 3.3444 3.1802 3.0555 99.8596 204.6187 7.7587 0.0038 0.3518 3.7599 2.3982 -200.2813 0.3338
6557.0000 3.2789 3.3308 3.2052 102.6092 212.8187 7.7364 0.0044 0.3433 3.9246 2.4188 -200.3125 0.3217
6557.5000 3.6705 3.3731 3.2191 99.1981 213.6710 7.8478 0.0025 0.3618 4.0872 2.4199 -200.3304 0.3234
6558.0000 5.2469 4.8744 4.4725 97.7575 214.1411 7.7141 0.0022 0.3551 4.2227 2.4228 -199.9219 0.3413
6558.5000 8.9948 7.9566 7.5560 94.1057 215.5803 7.7252 0.0009 0.3191 4.2981 2.4199 -200.0089 0.3222
6559.0000 9.8290 8.7307 8.0839 92.9998 212.2888 7.7141 0.0005 0.2852 4.2872 2.4300 -199.9063 0.2935
6559.5000 8.7561 7.6212 7.3438 93.2921 208.2043 7.7141 -0.0012 0.2799 4.2111 2.4350 -199.8929 0.2747
6560.0000 7.1452 6.5408 6.3562 94.1121 200.6818 7.7364 -0.0009 0.2940 4.0721 2.4451 -199.7656 0.2787
6560.5000 5.7696 5.5740 5.4501 95.9571 194.3342 7.7141 0.0010 0.2858 3.9686 2.4508 -199.7679 0.2923
6561.0000 5.0720 5.0417 4.9083 97.2034 192.4835 7.7364 0.0014 0.3058 3.9406 2.4418 -199.8828 0.2754
6561.5000 4.6293 4.5111 4.3416 97.2510 188.9564 7.7364 0.0003 0.3008 4.0288 2.4287 -200.0804 0.2894
6562.0000 4.4982 4.3252 4.1352 95.9081 191.5720 7.7364 -0.0012 0.3210 4.1622 2.4275 -199.9531 0.2768
6562.5000 4.4858 4.3578 4.1038 95.3671 193.9805 7.7364 0.0007 0.2906 4.2991 2.4510 -199.9554 0.2904
6563.0000 4.5585 4.2492 4.0037 92.2372 204.2085 7.7364 -0.0002 0.2883 4.4051 2.4623 -200.6161 0.2559
6563.5000 5.6948 4.9130 4.5231 89.9104 191.2485 7.7364 -0.0018 0.2652 4.5175 2.4586 -201.7656 0.2478
6564.0000 7.3582 6.7397 6.0108 88.8483 188.4285 7.7141 -0.0048 0.2594 4.6090 2.4435 -202.4732 0.2328
6564.5000 8.9492 7.9043 7.0197 86.8821 175.2618 7.7364 -0.0053 0.2465 4.6806 2.4394 -202.8750 0.2346
6565.0000 8.5040 7.6412 6.8609 88.1150 195.9502 7.7141 -0.0029 0.2577 4.6428 2.4554 -202.8047 0.2384
6565.5000 6.9881 6.7843 6.1960 89.8045 203.5609 7.7587 -0.0005 0.2746 4.5660 2.4721 -201.7589 0.2602
6566.0000 6.0466 5.7635 5.3956 91.9291 216.8444 7.7587 0.0010 0.2949 4.5073 2.4806 -201.3281 0.2778
6566.5000 5.1212 4.9370 4.6342 92.6431 209.3215 7.7364 -0.0004 0.2920 4.5671 2.4741 -202.1339 0.2867
6567.0000 5.7207 5.5265 5.1789 92.1754 213.0245 7.7475 -0.0018 0.2988 4.6672 2.4687 -203.8047 0.2647
6567.5000 6.7776 6.4208 5.9729 90.9510 211.1430 7.7364 -0.0030 0.2901 4.7809 2.4692 -204.5179 0.2660
6568.0000 7.7438 7.1476 6.5729 84.7991 194.2756 7.7252 -0.0050 0.2637 4.9094 2.4657 -205.7734 0.2471
6568.5000 8.2585 7.4793 6.9964 83.9413 173.3227 7.7364 -0.0041 0.2176 4.9334 2.4748 -208.4107 0.2181
6569.0000 8.2314 7.6390 7.1879 82.2340 164.3895 7.7364 -0.0012 0.2043 4.8797 2.4878 -208.2500 0.1916
6569.5000 8.0261 7.6105 7.2079 81.3044 171.6180 7.7252 -0.0007 0.2110 4.7905 2.4885 -207.1607 0.1944
6570.0000 7.8814 7.6228 7.2744 83.8394 173.7340 7.7364 -0.0017 0.2268 4.7551 2.4798 -207.5893 0.1987
6570.5000 7.5027 7.2889 7.0178 84.4503 172.9111 7.7364 -0.0029 0.2333 4.7409 2.4727 -208.2031 0.2090
6571.0000 6.7012 6.5281 6.3010 84.4758 174.7914 7.7141 -0.0012 0.2330 4.7324 2.4797 -208.4286 0.2123
6571.5000 6.4415 6.1002 5.8761 82.0579 164.6240 7.7364 -0.0014 0.2308 4.8037 2.4767 -208.6563 0.2081
6572.0000 7.3978 6.8906 6.6183 82.1160 159.3343 7.7141 -0.0011 0.2151 4.8657 2.4726 -210.2589 0.1996
6572.5000 8.2075 7.7097 7.1915 81.0740 157.4547 7.7364 0.0013 0.2248 4.9212 2.4719 -210.1696 0.1957
6573.0000 8.6732 7.8977 7.3272 82.3570 170.8247 7.7364 0.0066 0.2239 4.9431 2.4809 -209.7813 0.2080
6573.5000 8.9437 8.2731 7.5306 82.1308 162.8317 7.7141 0.0077 0.2229 4.9541 2.4772 -210.7589 0.1992
6574.0000 8.5935 8.0234 7.3116 80.0335 149.4312 7.7252 0.0062 0.2016 4.9103 2.4683 -212.6484 0.1913
6574.5000 8.1804 7.7368 7.0569 77.5525 129.6839 7.7141 0.0038 0.1960 4.8691 2.4612 -214.7054 0.1721
6575.0000 7.9796 7.7302 7.0371 77.1231 134.1498 7.7364 0.0031 0.1995 4.8551 2.4652 -214.0357 0.1781
6575.5000 8.0606 7.6859 7.0213 77.9808 136.6181 7.7141 0.0025 0.2182 4.8582 2.4750 -212.1250 0.1926
6576.0000 8.2132 7.8208 7.1014 80.2060 153.6331 7.7364 -0.0011 0.2281 4.8573 2.4750 -210.7768 0.2121
6576.5000 8.3763 7.9525 7.2181 83.0182 155.7498 7.7141 -0.0046 0.2448 4.8902 2.4709 -210.0078 0.2177
6577.0000 8.8186 8.1952 7.3647 79.9346 154.5154 7.6918 -0.0051 0.2257 4.9374 2.4717 -210.5446 0.2205
6577.5000 9.2205 8.6273 7.8434 80.2226 145.1115 7.7364 -0.0033 0.2098 4.9796 2.4730 -212.8482 0.1959
6578.0000 9.2714 8.8367 8.0660 79.1550 142.5547 7.7364 -0.0006 0.1972 4.9903 2.4711 -213.6406 0.1839
6578.5000 9.2986 8.7776 8.2222 78.3354 155.6610 7.7141 0.0007 0.2134 4.9678 2.4666 -213.5000 0.1845
6579.0000 9.4335 8.9998 8.3834 78.9905 156.1309 7.7587 0.0006 0.2119 4.9775 2.4635 -213.7891 0.1979
6579.5000 9.6777 9.2984 8.5702 79.8448 159.0109 7.7141 0.0029 0.2113 5.0168 2.4807 -214.4554 0.1857
6580.0000 8.8385 8.7650 8.1633 77.6591 154.3096 7.7141 0.0030 0.2029 5.0342 2.4939 -213.6250 0.1852
6580.5000 8.4278 8.0798 7.4674 76.0943 149.6081 7.7141 0.0025 0.2058 4.9814 2.5063 -214.7321 0.1805
6581.0000 8.5863 8.2975 7.7722 77.2476 143.0252 7.7364 0.0001 0.1825 4.8689 2.5065 -214.3281 0.1847
6581.5000 8.4247 8.1874 7.5661 78.9477 144.2007 7.7364 -0.0002 0.2074 4.7873 2.5079 -213.3214 0.1728
