~VERSION INFORMATION
VERS.           2.0   :CWLS Log ASCII Standard - VERSION 2.0
WRAP.           NO    :One Line per depth step
PROD.  Schlumberger   :LAS Producer
PROG.  DLIS to ASCII 19C1-222                          :LAS Program name and version
CREA.        2013/09/09 02:34                          :LAS Creation date {YYYY/MM/DD hh:mm}
DLIS_CREA.  2013-Sep-09 02:29                          :DLIS Creation date and time {YYYY-MMM-DD hh:mm}
SOURCE.     049-021-21038_Marquardt 44-31_Run_PEX-AIT_Mainpass.dlis  :DLIS File Name
FILE-ID.     MaxWell_4Dlis                             :File Identification Number
#--------------------------------------------------
~WELL INFORMATION
#MNEM.UNIT      DATA             DESCRIPTION
#---- ------ --------------   -----------------------------
STRT .F      952.5           :START DEPTH        # original; data subset to 5500-8000
STOP .F      7703.0          :STOP DEPTH        # original; data subset to 5500-8000
STEP .F       0.5            :STEP     
NULL .          -999.25      :NULL VALUE
COMP .        Bear Oil & Gas, Inc                      :COMPANY
WELL .        Marquardt 44-31                          :WELL
FLD  .        Wildcat                                  :FIELD
LOC  .        Lat/Long : 41.3038/-104.1202             :LOCATION
CNTY .        Laramie                                  :COUNTY
STAT .        Wyoming                                  :STATE
CTRY .        USA                                      :COUNTRY
API  .        049-021-21038                            :API NUMBER
UWI  .        049021210380000                          :UNIQUE WELL ID
DATE .        08-Sep-2013                              :LOG DATE {DD-MMM-YYYY}
SRVC .        Schlumberger                             :SERVICE COMPANY
LATI .DEG     41.303800 degrees                        :LATITUDE
LONG .DEG     -104.12020 degrees                       :LONGITUDE
GDAT .                                                 :GeoDetic Datum
SECT .        31                                       :Section
RANG .        60W                                      :Range
TOWN .        16N                                      :Township
#-----------------------------------------------------------------------------
~PARAMETER INFORMATION
#MNEM.UNIT    VALUE                      DESCRIPTION
#---- -----   --------------------       ------------------------
CN   .        Bear Oil & Gas  Inc        :Company Name
WN   .        Marquardt 44-31            :Well Name
FN   .        Wildcat                    :Field Name
FL   .        Lat/Long   41.3038/-104.1202 :Field Location
FL1  .        SHL   766' FSL X 245' FEL SESE :Field Location, Line 1
COUN .        Laramie                    :County or Parish
STAT .        Wyoming                    :State or Province
NATI .        USA                        :Nation
DATE .        08-Sep-2013                :Tools Above Rotary Table Date
APIN .        049-021-21038              :API Well Number
SECT .        31                         :Section
TOWN .        16N                        :Township
RANG .        60W                        :Range
DMF  .        KB                         :Drilling Measured From (Name of Drilling Elevation Reference)
LMF  .        KB                         :Logging Measured From (Name of Logging Elevation Reference)
PDAT .        GL                         :Permanent Datum
ENGI .        Arvin Shi                  :Engineer s Name
WITN .        Terry Eittreim             :Witness s Name
LATI .        41.303800 degrees          :Latitude
LONG .        -104.12020 degrees         :Longitude
LUL  .        Fort Morgan                :Logging Unit Location
LUN  .        3030                       :Logging Unit Number
RUN  .        Run 1                      :Run Number
SON  .        C6VJ-00075                 :Service Order Number
BHT  .DEGF     184.00000                 :Bottom Hole Temperature
BS   .IN         7.87500                 :Bit Size
MDEN .G/C3       2.65000                 :Matrix Density for Density Porosity
DFD  .LB/G       9.00000                 :Drilling Fluid Density
DFV  .S         80.00000                 :Drilling Fluid Viscosity
DFL  .C3      -999.25000                 :Drilling Fluid Loss
RMFS .OHMM       0.80250                 :Resistivity of Mud Filtrate Sample
EKB  .F       5298.00000                 :Elevation of Kelly Bushing
EGL  .F       5286.00000                 :Elevation of Ground Level
BLI  .F       7686.00000                 :Bottom Log Interval
BSAL .PPM     4641.08936                 :Borehole Salinity
FLEV .F          8.00000                 :Depth of Drilling Fluid Level to LMF (Log Measured From)
MCST .DEGF      84.00000                 :Mudcake Sample Temperature
MFST .DEGF      84.00000                 :Mud Filtrate Sample Temperature
MRT  .DEGF     184.00000                 :Maximum Recorded Temperature
MST  .DEGF      84.00000                 :Mud Sample Temperature
RMCS .OHMM       1.33750                 :Resistivity of Mud Cake Sample
RMS  .OHMM       1.07000                 :Resistivity of Mud Sample
RW   .OHMM       1.00000                 :Connate Water Resistivity
TDD  .F       7680.00000                 :Driller Total Depth
TDL  .F       7686.00000                 :Logger Total Depth
TLI  .F       1023.00000                 :Top Log Interval
HIDE .        Wildcat                    :Header Identifier
MATR .        SAND                       :Rock Matrix for Neutron Porosity Corrections
FNUM .           1.00000                 :F-Numerator for Formation Factor Formula
FEXP .           2.00000                 :Exponent "m" for Formation Factor Formula
DFT  .        Fresh Water                :Drilling Fluid Type
DFPH .        -999.25000                 :Drilling Fluid pH
MCSS .        Calculated                 :Mudcake Sample Source
MFSS .        Calculated                 :Mud Filtrate Sample Source
FD   .G/C3       1.00000                 :Fluid Density
MSS  .        Flowline                   :Mud Sample Source
OS1  .                                   :Other Services Line 1
OS2  .                                   :Other Services Line 2
OS3  .                                   :Other Services Line 3
OS4  .                                   :Other Services Line 4
OS5  .                                   :Other Services Line 5
R1   .                                   :Remarks Line 1
R2   .                                   :Remarks Line 2
R3   .                                   :Remarks Line 3
R4   .                                   :Remarks Line 4
R5   .                                   :Remarks Line 5
R6   .                                   :Remarks Line 6
R7   .                                   :Remarks Line 7
R8   .                                   :Remarks Line 8
TCS  .        15 00 00                   :Time Circulation Stopped
TLAB .        00 30 46                   :Time Logger At Bottom
NMT  .        NOBARITE                   :HRDD Mud Type for Nuclear Devices
EPD  .C3         5286.000000             :Elevation of Permanent Datum above Mean Sea Level
APD  .F          12.000000               :Elevation of Depth Reference (LMF) above Permanent Datum
#-----------------------------------------------------------------------------
~CURVE INFORMATION
#MNEM.UNIT   API CODE                                  DESCRIPTION
#---- -----  --------                                  -----------------------
DEPT .F                                                :DEPTH (BOREHOLE) {F10.1}
AT10 .OHMM                                             :Array Induction Two Foot Resistivity A10 {F11.4}
AT30 .OHMM                                             :Array Induction Two Foot Resistivity A30 {F11.4}
AT90 .OHMM                                             :Array Induction Two Foot Resistivity A90 {F11.4}
GR   .GAPI                                             :Gamma Ray {F11.4}
HCAL .IN                                               :HRCC Caliper Calibrated {F11.4}
HDRA .G/C3                                             :Density Standoff Correction {F11.4}
NPHI .CFCF                                             :Thermal Neutron Porosity (original Ratio Method) in Selected Lithology {F11.4}
PEFZ .                                                 :Standard Resolution Formation Photoelectric Factor {F11.4}
RHOZ .G/C3                                             :Standard Resolution Formation Density {F11.4}
SP   .MV                                               :Spontaneous Potential {F11.4}
TNPH .CFCF                                             :Thermal Neutron Porosity (Ratio Method) in Selected Lithology {F11.4}
#-----------------------------------------------------------------------------
# 
#     DEPT       AF10       AF20       AF30       AF60       AF90       AO10       AO20       AO30       AO60       AO90       AT10       AT20       AT30       AT60       AT90     AHFCO60      AHMF      AHORT      AHORX      AHSCA     AHTCO10    AHTCO20    AHTCO30    AHTCO60    AHTCO90     AHTD1      AHTD2      AHTRT      AHTRX       CDF        CFTC       CNTC       CTEM       DCAL       DNPH       DPHZ       DSOZ       ECGR        ED        GDEV        GR        GTEM       HCAL       HDRA       HDRB       HGR        HMIN       HMNO       HNPO       HPRA       HTNP        ND        NPHI       NPOR       PEFZ    PXND_HILT     RHOZ       RSOZ     RWA_HILT     RXO8       RXOZ        SP        SPAR       STIT       TENS       TNPH     HTNP_SAN
#
~A  DEPT AT10 AT30 AT90 GR HCAL HDRA NPHI PEFZ RHOZ SP TNPH
# ...
7214.0 3.9478 3.5949 3.2984 144.7950 7.8241 -0.0115 0.2761 3.4483 2.4207 -462.0625 0.2364
7214.5 3.9805 3.7417 3.4760 128.7161 7.7796 -0.0091 0.2950 3.6698 2.4363 -462.0714 0.2519
7215.0 4.1382 3.8525 3.5441 120.9887 7.7796 -0.0083 0.2902 3.7556 2.4382 -461.8750 0.2791
7215.5 4.1884 3.9138 3.6685 120.7619 7.7907 -0.0080 0.2722 3.7613 2.4364 -461.9732 0.2788
7216.0 4.2289 3.9667 3.7246 111.2508 7.8018 -0.0107 0.2503 3.7186 2.4415 -462.0357 0.2589
7216.5 4.2188 4.0334 3.7834 111.1938 7.8018 -0.0090 0.2512 3.6428 2.4553 -461.5625 0.2355
7217.0 4.0316 3.9220 3.7055 107.3157 7.8241 -0.0076 0.2682 3.5791 2.4607 -461.4375 0.2373
7217.5 3.8826 3.7456 3.5478 119.5446 7.7907 -0.0078 0.2832 3.5375 2.4546 -461.3393 0.2596
7218.0 3.9032 3.6848 3.4899 127.6973 7.8018 -0.0076 0.2858 3.5192 2.4514 -461.3203 0.2685
7218.5 4.2019 3.9882 3.7607 127.7255 7.8241 -0.0061 0.2751 3.5298 2.4620 -461.4286 0.2595
7219.0 4.5560 4.3582 4.0676 122.6587 7.8018 -0.0032 0.2633 3.5708 2.4816 -461.2500 0.2514
7219.5 4.5746 4.4328 4.1691 113.1475 7.8241 -0.0031 0.2596 3.6288 2.4847 -461.2679 0.2473
7220.0 4.2920 4.1676 3.9560 124.4700 7.8018 -0.0051 0.2644 3.6706 2.4688 -461.2344 0.2491
7220.5 4.1817 4.0278 3.8295 125.2345 7.8018 -0.0075 0.2679 3.6791 2.4472 -461.1786 0.2600
7221.0 4.0908 3.9878 3.8069 132.3961 7.8130 -0.0078 0.2730 3.6817 2.4389 -461.3482 0.2550
7221.5 4.1665 4.0025 3.8391 126.0555 7.8018 -0.0059 0.2516 3.6602 2.4486 -461.0781 0.2516
7222.0 4.4366 4.2857 4.0778 124.6965 7.7796 -0.0054 0.2590 3.6642 2.4576 -461.1339 0.2387
7222.5 4.6271 4.5160 4.2181 121.1580 7.7796 -0.0029 0.2629 3.6995 2.4515 -461.1161 0.2379
7223.0 4.7423 4.6928 4.3719 118.7236 7.7796 -0.0034 0.2764 3.7351 2.4380 -460.9732 0.2352
7223.5 4.7731 4.7197 4.4676 124.3851 7.7796 -0.0043 0.2813 3.6960 2.4388 -461.2734 0.2487
7224.0 4.7977 4.7142 4.4536 126.4238 7.8018 -0.0045 0.2622 3.6397 2.4504 -461.0982 0.2536
7224.5 4.7402 4.5630 4.3474 121.8376 7.7796 -0.0022 0.2531 3.6382 2.4676 -460.9018 0.2383
7225.0 4.7214 4.3195 4.0617 119.1484 7.8241 -0.0011 0.2217 3.7133 2.4815 -461.0982 0.2234
7225.5 4.3604 4.3760 3.9899 113.9394 7.7796 -0.0025 0.2146 3.7484 2.4973 -461.1719 0.1980
7226.0 4.1709 3.5678 3.3311 125.0361 7.8018 -0.0014 0.2203 3.6341 2.4718 -461.6696 0.2054
7226.5 2.5414 2.7050 2.5916 135.1989 7.8241 0.0297 0.2743 3.3887 2.4377 -462.1786 0.2359
7227.0 1.7886 1.7307 1.6516 174.2072 7.8018 0.0530 0.3359 3.1082 2.4031 -462.5547 0.3008
7227.5 1.7001 1.6400 1.5865 186.6629 8.0911 0.0500 0.3411 2.9575 2.3938 -462.2411 0.3257
7228.0 2.7448 2.5307 2.3075 175.1128 7.8018 0.0176 0.3008 3.1035 2.4195 -461.4464 0.2779
7228.5 4.4749 4.2890 3.8658 138.2562 7.8018 -0.0086 0.2391 3.4229 2.4440 -461.2411 0.2313
7229.0 4.7331 4.7059 4.2140 117.6477 7.7796 -0.0111 0.2384 3.6825 2.4760 -460.8672 0.2130
7229.5 4.1899 4.1177 3.8298 122.8569 7.8018 -0.0110 0.2584 3.6802 2.4712 -460.4375 0.2391
7230.0 3.9091 3.7262 3.5139 137.2367 7.8018 -0.0110 0.2753 3.5643 2.4609 -460.3839 0.2628
7230.5 4.0938 3.8234 3.6310 142.4453 7.8018 -0.0110 0.2759 3.5379 2.4529 -460.0625 0.2691
7231.0 4.3697 4.1990 3.9802 140.8601 7.7796 -0.0099 0.2629 3.5903 2.4586 -460.1696 0.2515
7231.5 4.7697 4.5512 4.3011 129.7639 7.8018 -0.0068 0.2453 3.6448 2.4719 -460.4732 0.2372
7232.0 4.7209 4.5958 4.3485 127.7259 7.8463 -0.0060 0.2240 3.6524 2.4765 -460.2768 0.2252
7232.5 4.4918 4.3856 4.1492 125.6871 7.8018 -0.0046 0.2391 3.5968 2.4764 -460.4609 0.2174
7233.0 4.3464 4.1838 3.9835 134.0665 7.8018 -0.0050 0.2495 3.5148 2.4707 -460.5357 0.2344
7233.5 4.3309 4.1460 3.9455 128.4053 7.7796 -0.0036 0.2610 3.4496 2.4733 -460.6696 0.2350
7234.0 4.5232 4.3328 4.1240 130.8962 7.7796 -0.0030 0.2529 3.4277 2.4771 -460.8594 0.2402
7234.5 4.7353 4.5320 4.3237 124.5834 7.8018 -0.0058 0.2497 3.5000 2.4686 -460.8214 0.2369
7235.0 4.9301 4.6966 4.4613 128.4332 7.8018 -0.0077 0.2542 3.5600 2.4685 -460.8750 0.2282
7235.5 5.1319 4.8899 4.6216 120.0543 7.8018 -0.0108 0.2439 3.6657 2.4625 -460.7589 0.2229
7236.0 5.3099 5.0502 4.7804 116.6290 7.7796 -0.0087 0.2542 3.7416 2.4678 -460.6797 0.2136
7236.5 5.2698 5.0562 4.7966 116.3174 7.7796 -0.0040 0.2520 3.8416 2.4599 -460.7321 0.2302
7237.0 5.0045 4.8858 4.6271 126.2825 7.8018 0.0026 0.2670 3.8547 2.4582 -460.4554 0.2459
7237.5 4.7943 4.5769 4.3989 131.4908 7.8018 0.0052 0.2750 3.8098 2.4571 -460.5357 0.2537
7238.0 4.7849 4.5431 4.3421 134.0670 7.7796 0.0009 0.2932 3.7471 2.4555 -460.5469 0.2589
7238.5 5.0568 4.7694 4.5337 128.9994 7.7907 -0.0062 0.2855 3.7499 2.4489 -460.4375 0.2766
7239.0 5.2099 4.9588 4.6886 128.0940 7.8018 -0.0092 0.2757 3.7901 2.4549 -460.8047 0.2694
7239.5 5.4063 5.1064 4.8288 124.2437 7.8018 -0.0072 0.2638 3.8150 2.4746 -460.7143 0.2498
7240.0 5.2021 5.0465 4.7700 128.6032 7.7796 -0.0058 0.2535 3.8270 2.4830 -460.4107 0.2409
7240.5 4.8884 4.6802 4.4594 130.8677 7.7796 -0.0062 0.2573 3.7877 2.4785 -460.4018 0.2410
7241.0 4.5712 4.3674 4.1900 139.0204 7.8018 -0.0083 0.2529 3.7237 2.4688 -460.3594 0.2492
7241.5 4.6264 4.3740 4.1909 133.8683 7.7796 -0.0085 0.2591 3.6889 2.4644 -460.7143 0.2416
7242.0 4.7911 4.5303 4.3185 133.8680 7.8018 -0.0085 0.2602 3.6815 2.4669 -460.7411 0.2369
7242.5 4.9021 4.6474 4.4353 130.6982 7.8130 -0.0078 0.2570 3.7110 2.4691 -460.7734 0.2378
7243.0 4.9709 4.7456 4.5082 130.8958 7.8018 -0.0089 0.2637 3.7522 2.4696 -460.8750 0.2435
7243.5 5.0086 4.7347 4.4811 125.9708 7.8018 -0.0108 0.2557 3.8166 2.4680 -460.6875 0.2459
7244.0 5.0312 4.7476 4.5486 124.1585 7.8018 -0.0111 0.2432 3.8613 2.4741 -460.8393 0.2376
7244.5 5.0931 4.7910 4.6003 122.5735 7.7796 -0.0076 0.2373 3.8343 2.4895 -460.5156 0.2256
7245.0 4.8887 4.7692 4.6154 122.9695 7.7796 -0.0033 0.2376 3.7516 2.4990 -460.0446 0.2273
7245.5 4.5904 4.3622 4.2268 125.0079 7.8018 -0.0019 0.2539 3.6684 2.4938 -460.1518 0.2249
7246.0 4.6334 4.3022 4.1979 128.7731 7.7796 0.0005 0.2762 3.6720 2.4760 -460.0446 0.2344
7246.5 4.8742 4.6521 4.5117 123.5643 7.8018 0.0047 0.2787 3.7448 2.4644 -460.3672 0.2443
7247.0 5.2465 4.9736 4.8199 118.5820 7.7796 0.0024 0.2654 3.8282 2.4597 -460.6339 0.2394
7247.5 4.9367 4.7588 4.6178 116.6288 7.8018 -0.0012 0.2407 3.8107 2.4693 -460.4196 0.2338
7248.0 4.5773 4.3944 4.2751 121.0453 7.7796 -0.0061 0.2347 3.7378 2.4763 -460.4609 0.2296
7248.5 4.3389 4.1486 4.0228 130.1033 7.7796 -0.0049 0.2482 3.6660 2.4768 -460.3393 0.2322
7249.0 4.0700 3.9131 3.7912 129.6505 7.8241 -0.0061 0.2588 3.6476 2.4667 -460.5179 0.2412
7249.5 3.9047 3.7486 3.6261 130.4430 7.8018 -0.0068 0.2590 3.6203 2.4652 -460.7500 0.2458
7250.0 3.8413 3.6586 3.5249 117.4785 7.8018 -0.0079 0.2501 3.6154 2.4641 -460.7344 0.2409
7250.5 3.8410 3.6902 3.5461 115.8928 7.7796 -0.0091 0.2442 3.6099 2.4687 -460.9107 0.2331
7251.0 3.8577 3.7050 3.5527 112.7225 7.8018 -0.0108 0.2550 3.6590 2.4629 -460.7321 0.2250
7251.5 3.8508 3.6921 3.5350 115.4966 7.7796 -0.0095 0.2555 3.7122 2.4606 -460.9453 0.2332
7252.0 4.0710 3.8653 3.7085 110.7698 7.8130 -0.0075 0.2587 3.7637 2.4645 -460.9375 0.2330
7252.5 4.2880 4.1533 3.9796 105.5604 7.8018 -0.0057 0.2520 3.8284 2.4723 -460.5357 0.2267
7253.0 4.5627 4.4649 4.2554 101.9370 7.7796 -0.0077 0.2459 3.9142 2.4778 -460.6696 0.2180
7253.5 4.8626 4.8502 4.6325 102.9278 7.7796 -0.0053 0.2154 3.9055 2.4986 -460.5000 0.2175
7254.0 4.8128 4.8737 4.6995 109.0426 7.7796 -0.0064 0.2048 3.8624 2.4975 -460.4821 0.2002
7254.5 4.4700 4.5816 4.4370 114.9305 7.8018 -0.0058 0.2050 3.7551 2.4884 -460.7589 0.1976
7255.0 4.3442 4.1633 4.1205 122.5169 7.7796 -0.0063 0.2324 3.6902 2.4634 -460.7422 0.1958
7255.5 4.1343 4.0686 3.9202 122.4035 7.8018 -0.0019 0.2347 3.6166 2.4625 -460.8839 0.2082
7256.0 4.5260 4.0336 3.8993 123.7621 7.7907 0.0045 0.2365 3.5967 2.4732 -460.7589 0.2045
7256.5 4.5165 4.3653 4.2054 119.9122 7.7796 0.0047 0.2114 3.6399 2.4747 -460.9732 0.2058
7257.0 4.2626 3.4481 3.2322 132.5943 7.7796 0.0224 0.1984 3.6561 2.4667 -461.7031 0.1989
7257.5 2.0526 2.3287 2.2260 170.4136 7.7796 0.0549 0.2493 3.5486 2.4637 -462.4643 0.2166
7258.0 1.3842 1.3778 1.3420 209.1388 7.8352 0.0752 0.3183 3.3479 2.4601 -462.9643 0.2713
7258.5 1.5434 1.4473 1.4222 212.4227 8.3803 0.0552 0.3428 3.1976 2.4480 -461.9844 0.3007
