~VERSION INFORMATION
VERS.           2.0   :CWLS Log ASCII Standard - VERSION 2.0
WRAP.           NO    :One Line per depth step
PROD.  Schlumberger   :LAS Producer
PROG.  DLIS to ASCII 19C1-222                          :LAS Program name and version
CREA.        2013/09/09 02:34                          :LAS Creation date {YYYY/MM/DD hh:mm}
DLIS_CREA.  2013-Sep-09 02:29                          :DLIS Creation date and time {YYYY-MMM-DD hh:mm}
SOURCE.     049-021-21038_Marquardt 44-31_Run_PEX-AIT_Mainpass.dlis  :DLIS File Name
FILE-ID.     MaxWell_4Dlis                             :File Identification Number
#--------------------------------------------------
~WELL INFORMATION
#MNEM.UNIT      DATA             DESCRIPTION
#---- ------ --------------   -----------------------------
STRT .F      952.5           :START DEPTH        # original; data subset to 5500-8000
STOP .F      7703.0          :STOP DEPTH        # original; data subset to 5500-8000
STEP .F       0.5            :STEP     
NULL .          -999.25      :NULL VALUE
COMP .        Bear Oil & Gas, Inc                      :COMPANY
WELL .        Marquardt 44-31                          :WELL
FLD  .        Wildcat                                  :FIELD
LOC  .        Lat/Long : 41.3038/-104.1202             :LOCATION
CNTY .        Laramie                                  :COUNTY
STAT .        Wyoming                                  :STATE
CTRY .        USA                                      :COUNTRY
API  .        049-021-21038                            :API NUMBER
UWI  .        049021210380000                          :UNIQUE WELL ID
DATE .        08-Sep-2013                              :LOG DATE {DD-MMM-YYYY}
SRVC .        Schlumberger                             :SERVICE COMPANY
LATI .DEG     41.303800 degrees                        :LATITUDE
LONG .DEG     -104.12020 degrees                       :LONGITUDE
GDAT .                                                 :GeoDetic Datum
SECT .        31                                       :Section
RANG .        60W                                      :Range
TOWN .        16N                                      :Township
#-----------------------------------------------------------------------------
~PARAMETER INFORMATION
#MNEM.UNIT    VALUE                      DESCRIPTION
#---- -----   --------------------       ------------------------
CN   .        Bear Oil & Gas  Inc        :Company Name
WN   .        Marquardt 44-31            :Well Name
FN   .        Wildcat                    :Field Name
FL   .        Lat/Long   41.3038/-104.1202 :Field Location
FL1  .        SHL   766' FSL X 245' FEL SESE :Field Location, Line 1
COUN .        Laramie                    :County or Parish
STAT .        Wyoming                    :State or Province
NATI .        USA                        :Nation
DATE .        08-Sep-2013                :Tools Above Rotary Table Date
APIN .        049-021-21038              :API Well Number
SECT .        31                         :Section
TOWN .        16N                        :Township
RANG .        60W                        :Range
DMF  .        KB                         :Drilling Measured From (Name of Drilling Elevation Reference)
LMF  .        KB                         :Logging Measured From (Name of Logging Elevation Reference)
PDAT .        GL                         :Permanent Datum
ENGI .        Arvin Shi                  :Engineer s Name
WITN .        Terry Eittreim             :Witness s Name
LATI .        41.303800 degrees          :Latitude
LONG .        -104.12020 degrees         :Longitude
LUL  .        Fort Morgan                :Logging Unit Location
LUN  .        3030                       :Logging Unit Number
RUN  .        Run 1                      :Run Number
SON  .        C6VJ-00075                 :Service Order Number
BHT  .DEGF     184.00000                 :Bottom Hole Temperature
BS   .IN         7.87500                 :Bit Size
MDEN .G/C3       2.65000                 :Matrix Density for Density Porosity
DFD  .LB/G       9.00000                 :Drilling Fluid Density
DFV  .S         80.00000                 :Drilling Fluid Viscosity
DFL  .C3      -999.25000                 :Drilling Fluid Loss
RMFS .OHMM       0.80250                 :Resistivity of Mud Filtrate Sample
EKB  .F       5298.00000                 :Elevation of Kelly Bushing
EGL  .F       5286.00000                 :Elevation of Ground Level
BLI  .F       7686.00000                 :Bottom Log Interval
BSAL .PPM     4641.08936                 :Borehole Salinity
FLEV .F          8.00000                 :Depth of Drilling Fluid Level to LMF (Log Measured From)
MCST .DEGF      84.00000                 :Mudcake Sample Temperature
MFST .DEGF      84.00000                 :Mud Filtrate Sample Temperature
MRT  .DEGF     184.00000                 :Maximum Recorded Temperature
MST  .DEGF      84.00000                 :Mud Sample Temperature
RMCS .OHMM       1.33750                 :Resistivity of Mud Cake Sample
RMS  .OHMM       1.07000                 :Resistivity of Mud Sample
RW   .OHMM       1.00000                 :Connate Water Resistivity
TDD  .F       7680.00000                 :Driller Total Depth
TDL  .F       7686.00000                 :Logger Total Depth
TLI  .F       1023.00000                 :Top Log Interval
HIDE .        Wildcat                    :Header Identifier
MATR .        SAND                       :Rock Matrix for Neutron Porosity Corrections
FNUM .           1.00000                 :F-Numerator for Formation Factor Formula
FEXP .           2.00000                 :Exponent "m" for Formation Factor Formula
DFT  .        Fresh Water                :Drilling Fluid Type
DFPH .        -999.25000                 :Drilling Fluid pH
MCSS .        Calculated                 :Mudcake Sample Source
MFSS .        Calculated                 :Mud Filtrate Sample Source
FD   .G/C3       1.00000                 :Fluid Density
MSS  .        Flowline                   :Mud Sample Source
OS1  .                                   :Other Services Line 1
OS2  .                                   :Other Services Line 2
OS3  .                                   :Other Services Line 3
OS4  .                                   :Other Services Line 4
OS5  .                                   :Other Services Line 5
R1   .                                   :Remarks Line 1
R2   .                                   :Remarks Line 2
R3   .                                   :Remarks Line 3
R4   .                                   :Remarks Line 4
R5   .                                   :Remarks Line 5
R6   .                                   :Remarks Line 6
R7   .                                   :Remarks Line 7
R8   .                                   :Remarks Line 8
TCS  .        15 00 00                   :Time Circulation Stopped
TLAB .        00 30 46                   :Time Logger At Bottom
NMT  .        NOBARITE                   :HRDD Mud Type for Nuclear Devices
EPD  .C3         5286.000000             :Elevation of Permanent Datum above Mean Sea Level
APD  .F          12.000000               :Elevation of Depth Reference (LMF) above Permanent Datum
#-----------------------------------------------------------------------------
~CURVE INFORMATION
#MNEM.UNIT   API CODE                                  DESCRIPTION
#---- -----  --------                                  -----------------------
DEPT .F                                                :DEPTH (BOREHOLE) {F10.1}
AT10 .OHMM                                             :Array Induction Two Foot Resistivity A10 {F11.4}
AT30 .OHMM                                             :Array Induction Two Foot Resistivity A30 {F11.4}
AT90 .OHMM                                             :Array Induction Two Foot Resistivity A90 {F11.4}
GR   .GAPI                                             :Gamma Ray {F11.4}
HCAL .IN                                               :HRCC Caliper Calibrated {F11.4}
HDRA .G/C3                                             :Density Standoff Correction {F11.4}
NPHI .CFCF                                             :Thermal Neutron Porosity (original Ratio Method) in Selected Lithology {F11.4}
PEFZ .                                                 :Standard Resolution Formation Photoelectric Factor {F11.4}
RHOZ .G/C3                                             :Standard Resolution Formation Density {F11.4}
SP   .MV                                               :Spontaneous Potential {F11.4}
TNPH .CFCF                                             :Thermal Neutron Porosity (Ratio Method) in Selected Lithology {F11.4}
#-----------------------------------------------------------------------------
# 
#     DEPT       AF10       AF20       AF30       AF60       AF90       AO10       AO20       AO30       AO60       AO90       AT10       AT20       AT30       AT60       AT90     AHFCO60      AHMF      AHORT      AHORX      AHSCA     AHTCO10    AHTCO20    AHTCO30    AHTCO60    AHTCO90     AHTD1      AHTD2      AHTRT      AHTRX       CDF        CFTC       CNTC       CTEM       DCAL       DNPH       DPHZ       DSOZ       ECGR        ED        GDEV        GR        GTEM       HCAL       HDRA       HDRB       HGR        HMIN       HMNO       HNPO       HPRA       HTNP        ND        NPHI       NPOR       PEFZ    PXND_HILT     RHOZ       RSOZ     RWA_HILT     RXO8       RXOZ        SP        SPAR       STIT       TENS       TNPH     HTNP_SAN
#
~A  DEPT AT10 AT30 AT90 GR HCAL HDRA NPHI PEFZ RHOZ SP TNPH
# ...
5954.5 3.4035 3.3070 3.1850 101.2292 7.8463 -0.0019 0.2567 2.9693 2.5359 -486.5357 0.2389
5955.0 3.3528 3.2999 3.1858 102.6161 7.8241 -0.0044 0.2618 2.9809 2.5235 -486.6607 0.2495
5955.5 3.3153 3.2710 3.1657 99.8992 7.8352 -0.0041 0.2577 2.9530 2.5178 -486.8125 0.2576
5956.0 3.3347 3.2535 3.1480 92.5953 7.8686 -0.0033 0.2550 2.9281 2.5114 -486.6339 0.2488
5956.5 3.3303 3.2278 3.1258 92.1992 7.8463 -0.0012 0.2588 2.8808 2.5162 -486.8839 0.2445
5957.0 3.2974 3.2076 3.1012 88.1229 7.8018 0.0013 0.2652 2.8606 2.5333 -486.9554 0.2473
5957.5 3.3255 3.1998 3.0977 87.9249 7.8018 -0.0002 0.2844 2.9031 2.5361 -486.9219 0.2571
5958.0 3.1380 3.1292 3.0165 90.5571 7.8463 -0.0015 0.2982 2.9712 2.5334 -486.9107 0.2754
5958.5 2.9714 2.8640 2.8016 94.7749 7.8018 -0.0017 0.3101 2.9805 2.5288 -486.6607 0.2899
5959.0 2.8314 2.7265 2.6342 101.3136 7.8241 0.0012 0.2974 2.9458 2.5393 -486.6172 0.2999
5959.5 2.9663 2.8001 2.6958 103.5790 7.8463 0.0017 0.2755 2.9043 2.5470 -486.6161 0.2828
5960.0 2.9718 2.8773 2.7363 107.9385 7.8018 -0.0013 0.2739 2.9275 2.5434 -486.4375 0.2645
5960.5 2.9916 2.8903 2.7532 104.8248 7.8018 -0.0047 0.2810 2.9668 2.5242 -486.4297 0.2656
5961.0 2.8637 2.7972 2.6800 101.1162 7.8352 -0.0061 0.3004 3.0015 2.5076 -485.9732 0.2734
5961.5 2.7918 2.6896 2.5913 103.4092 7.8018 -0.0033 0.2977 2.9709 2.5086 -485.7891 0.2920
5962.0 2.7063 2.6130 2.5202 104.3434 7.8241 -0.0018 0.2899 2.9321 2.5130 -485.9107 0.2928
5962.5 2.6948 2.5925 2.4997 107.1455 7.7796 -0.0025 0.2835 2.9296 2.5112 -485.6641 0.2871
5963.0 2.7151 2.6062 2.5190 104.6541 7.8018 -0.0035 0.2783 2.9625 2.5083 -485.9922 0.2801
5963.5 2.7925 2.6809 2.5862 101.8802 7.8018 -0.0052 0.2839 3.0051 2.5071 -485.8839 0.2698
5964.0 2.8761 2.7522 2.6584 96.6717 7.8018 -0.0047 0.2801 3.0269 2.5147 -485.7344 0.2725
5964.5 2.9456 2.8180 2.7264 90.1329 7.8352 -0.0059 0.2919 3.0398 2.5162 -485.8661 0.2678
5965.0 3.0225 2.8988 2.7981 92.1990 7.8241 -0.0044 0.2841 3.0017 2.5280 -485.7578 0.2798
5965.5 3.0834 2.9718 2.8535 93.4163 7.8908 -0.0038 0.2831 2.9666 2.5321 -486.1094 0.2718
5966.0 3.0283 2.9393 2.8223 91.3493 7.8018 -0.0035 0.2755 2.9648 2.5269 -486.2500 0.2783
5966.5 3.0027 2.9030 2.7993 88.0940 7.8241 -0.0021 0.2733 2.9883 2.5245 -486.2578 0.2716
5967.0 3.0456 2.9503 2.8532 89.5944 7.8018 -0.0017 0.2641 3.0170 2.5207 -486.3125 0.2658
5967.5 3.0972 3.0062 2.8907 92.2558 7.8018 -0.0007 0.2549 3.0062 2.5227 -486.1071 0.2591
5968.0 3.1445 3.0460 2.9350 94.2374 7.8352 -0.0008 0.2562 2.9743 2.5193 -486.4141 0.2470
5968.5 3.3087 3.1903 3.0764 94.2370 7.8686 0.0001 0.2571 2.9373 2.5222 -486.4286 0.2423
5969.0 3.4753 3.3696 3.2367 94.0390 7.9131 0.0016 0.2550 2.9089 2.5361 -486.0781 0.2376
5969.5 3.6228 3.4809 3.3458 95.5390 7.8241 0.0007 0.2618 2.9214 2.5442 -486.2321 0.2433
5970.0 3.5887 3.4897 3.3561 91.4628 7.8241 0.0004 0.2653 2.9203 2.5501 -486.0391 0.2522
5970.5 3.4890 3.4434 3.3243 93.0762 7.8241 0.0001 0.2730 2.8994 2.5502 -486.2266 0.2592
5971.0 3.3694 3.3176 3.2107 92.1708 7.8463 -0.0003 0.2656 2.8702 2.5459 -486.2768 0.2692
5971.5 3.3366 3.2632 3.1573 94.5484 7.9910 0.0005 0.2712 2.8470 2.5422 -486.0625 0.2629
5972.0 3.4644 3.3815 3.2511 104.5128 8.0688 0.0009 0.2812 2.8779 2.5329 -486.0234 0.2653
5972.5 3.5720 3.4328 3.2925 105.3051 8.0688 -0.0011 0.2916 2.9088 2.5259 -485.6250 0.2696
5973.0 3.5099 3.4048 3.2698 105.8716 8.0466 -0.0024 0.2934 2.9703 2.5211 -485.6328 0.2832
5973.5 3.3711 3.2508 3.1309 100.6347 7.7573 -0.0046 0.2869 3.0711 2.5243 -486.0536 0.2880
5974.0 3.2373 3.1486 3.0408 100.5218 7.8018 -0.0042 0.3035 3.1996 2.5292 -486.0313 0.2762
5974.5 3.1346 3.0982 2.9953 100.7482 7.7796 -0.0044 0.2886 3.2556 2.5372 -485.7422 0.2912
5975.0 2.9185 2.8770 2.8020 100.3236 7.8018 -0.0036 0.2890 3.1756 2.5382 -485.4643 0.2831
5975.5 2.7160 2.6327 2.5749 100.2383 7.8241 -0.0024 0.2675 3.0408 2.5387 -485.2891 0.2847
5976.0 2.6948 2.5678 2.5040 104.5978 7.8018 -0.0019 0.2894 2.9474 2.5386 -485.5714 0.2666
5976.5 2.7324 2.6312 2.5464 101.4270 7.8018 0.0006 0.2945 2.9251 2.5451 -485.2578 0.2763
5977.0 2.7261 2.6326 2.5433 103.2108 7.8463 0.0020 0.3008 2.9302 2.5454 -485.3929 0.2867
5977.5 2.6915 2.5779 2.5014 99.3044 7.8130 0.0022 0.3018 2.9264 2.5429 -485.3984 0.2958
5978.0 2.6758 2.5549 2.4701 102.5034 7.8241 -0.0002 0.2883 2.9294 2.5348 -485.1797 0.2914
5978.5 2.7032 2.5914 2.4994 107.1457 7.8241 -0.0035 0.2892 2.9698 2.5240 -485.2589 0.2791
5979.0 2.7442 2.6360 2.5349 106.6929 7.8018 -0.0038 0.2782 3.0256 2.5215 -484.9297 0.2778
5979.5 2.7844 2.6818 2.5768 106.2112 7.8018 -0.0014 0.2941 3.1159 2.5311 -485.3839 0.2738
5980.0 2.8401 2.7164 2.6130 98.0019 7.8241 0.0030 0.2890 3.1647 2.5508 -485.5000 0.2877
5980.5 2.8819 2.7417 2.6285 99.3889 7.9131 0.0033 0.2945 3.1849 2.5598 -485.0859 0.2764
5981.0 2.9441 2.8254 2.6923 102.1066 7.8018 0.0010 0.2816 3.1332 2.5578 -485.1607 0.2784
5981.5 3.0185 2.8929 2.7809 106.6644 7.8018 -0.0008 0.2680 3.0777 2.5597 -485.0625 0.2657
5982.0 2.9079 2.8111 2.7126 102.5599 7.8018 -0.0003 0.2599 3.0309 2.5666 -485.3214 0.2579
5982.5 2.8788 2.7682 2.6688 106.4663 7.8241 -0.0012 0.2743 3.0290 2.5588 -485.3438 0.2575
5983.0 2.8000 2.7087 2.6275 104.6828 7.8018 -0.0023 0.2837 3.0171 2.5470 -485.1797 0.2704
5983.5 2.8104 2.6823 2.6085 105.5883 7.8241 -0.0047 0.2984 3.0243 2.5333 -485.2857 0.2716
5984.0 2.8560 2.7467 2.6425 104.2017 7.8130 -0.0045 0.2955 3.0364 2.5361 -485.0078 0.2834
5984.5 2.8650 2.7736 2.6712 103.7491 7.8241 -0.0053 0.2913 3.0907 2.5309 -484.9375 0.2897
5985.0 2.8764 2.7770 2.6774 106.3537 7.8018 -0.0007 0.2751 3.1227 2.5366 -485.1339 0.2877
5985.5 2.9256 2.8120 2.7076 97.4932 7.8018 0.0025 0.2871 3.1142 2.5350 -485.1719 0.2671
5986.0 3.0810 2.9384 2.8269 99.1342 7.8018 0.0049 0.2879 3.0888 2.5408 -485.3750 0.2731
5986.5 3.2834 3.1581 3.0227 95.6244 7.8241 0.0003 0.2955 3.1189 2.5349 -485.4375 0.2734
5987.0 3.2318 3.1543 3.0333 96.5584 7.7796 -0.0017 0.2894 3.1422 2.5463 -484.8828 0.2795
5987.5 3.0938 2.9965 2.9001 97.3513 7.7796 -0.0052 0.2881 3.1574 2.5470 -484.9018 0.2729
5988.0 3.0360 2.9411 2.8493 103.6926 7.8018 -0.0055 0.2818 3.0983 2.5524 -484.6875 0.2721
5988.5 3.0074 2.9265 2.8372 109.4391 7.8018 -0.0068 0.2644 3.0684 2.5468 -484.5804 0.2738
5989.0 3.0361 2.9355 2.8547 111.3075 7.8241 -0.0048 0.2641 3.0565 2.5537 -484.6719 0.2670
5989.5 3.1151 3.0109 2.9205 105.3058 7.7796 -0.0053 0.2667 3.1090 2.5511 -484.6518 0.2645
5990.0 3.1703 3.0657 2.9797 100.9462 7.7796 -0.0064 0.2687 3.1537 2.5498 -485.1016 0.2631
5990.5 3.1907 3.0890 3.0076 97.5492 7.8018 -0.0075 0.2821 3.1759 2.5487 -485.0391 0.2571
5991.0 3.1893 3.0984 3.0123 100.1249 7.8018 -0.0070 0.2770 3.1924 2.5453 -485.2232 0.2634
5991.5 3.1937 3.0866 3.0114 99.3891 7.8018 -0.0078 0.2865 3.2002 2.5381 -485.1563 0.2631
5992.0 3.1244 3.0606 2.9870 98.7382 7.8018 -0.0083 0.2823 3.1963 2.5308 -484.9464 0.2785
5992.5 3.0668 2.9865 2.9330 96.3602 7.7796 -0.0078 0.2857 3.1553 2.5344 -484.9844 0.2788
5993.0 3.0138 2.9385 2.8707 101.7953 7.8018 -0.0057 0.2840 3.1181 2.5399 -484.7031 0.2859
5993.5 3.0265 2.9706 2.9019 101.2007 7.7907 -0.0045 0.2778 3.1007 2.5419 -484.5446 0.2759
5994.0 3.0681 2.9726 2.9024 105.8715 7.8018 -0.0050 0.2789 3.1157 2.5379 -484.7734 0.2680
5994.5 3.1843 3.1005 3.0238 103.5504 7.8130 -0.0061 0.2788 3.1427 2.5363 -484.6339 0.2686
5995.0 3.3135 3.2385 3.1429 105.5319 7.7573 -0.0080 0.2826 3.1603 2.5354 -484.9844 0.2690
5995.5 3.3173 3.2458 3.1658 101.4558 7.8018 -0.0093 0.2759 3.1544 2.5347 -484.8672 0.2682
5996.0 3.2780 3.2383 3.1662 99.8706 7.8018 -0.0092 0.2681 3.1254 2.5363 -484.8929 0.2597
5996.5 3.2280 3.1711 3.1106 97.7758 7.7796 -0.0063 0.2567 3.0861 2.5476 -485.0391 0.2579
5997.0 3.1785 3.1137 3.0615 96.9833 7.7796 -0.0024 0.2580 3.0572 2.5675 -484.6875 0.2525
5997.5 3.2049 3.1396 3.0896 93.8690 7.8018 -0.0025 0.2569 3.0840 2.5709 -484.8482 0.2534
5998.0 3.2112 3.1559 3.1134 93.5864 7.7796 -0.0046 0.2627 3.1226 2.5658 -485.0938 0.2550
5998.5 3.2209 3.1399 3.1001 99.5306 7.8018 -0.0093 0.2637 3.1677 2.5486 -485.0536 0.2557
5999.0 3.1141 3.0408 2.9993 104.9661 7.7573 -0.0105 0.2825 3.1550 2.5428 -485.2734 0.2530
