~VERSION INFORMATION
VERS.           2.0   :CWLS Log ASCII Standard - VERSION 2.0
WRAP.           NO    :One Line per depth step
PROD.  Schlumberger   :LAS Producer
PROG.  DLIS to ASCII 19C2-270                          :LAS Program name and version
CREA.        2013/09/21 19:52                          :LAS Creation date {YYYY/MM/DD hh:mm}
DLIS_CREA.  2013-Sep-21 19:47                          :DLIS Creation date and time {YYYY-MMM-DD hh:mm}
SOURCE.     49-021-21035_McGahan Farms 42-31_Run_PEX_Mainpass.dlis  :DLIS File Name
FILE-ID.     MaxWell_3Dlis                             :File Identification Number
#--------------------------------------------------
~WELL INFORMATION
#MNEM.UNIT      DATA             DESCRIPTION
#---- ------ --------------   -----------------------------
STRT .F      1000.5          :START DEPTH        # original; data subset to 5500-8000
STOP .F      7716.5          :STOP DEPTH        # original; data subset to 5500-8000
STEP .F       0.5            :STEP     
NULL .          -999.25      :NULL VALUE
COMP .        Bear Oil & Gas, Inc                      :COMPANY
WELL .        McGahan Farms 42-31                      :WELL
FLD  .        Wildcat                                  :FIELD
LOC  .        Lat/Long: 41.3098/-104.1197              :LOCATION
CNTY .        Laramie                                  :COUNTY
STAT .        Wyoming                                  :STATE
CTRY .        USA                                      :COUNTRY
API  .        49-021-21035                             :API NUMBER
UWI  .        49021210350000                           :UNIQUE WELL ID
DATE .        21-Sep-2013                              :LOG DATE {DD-MMM-YYYY}
SRVC .        Schlumberger                             :SERVICE COMPANY
LATI .DEG     41.309800 degrees                        :LATITUDE
LONG .DEG     -104.11970 degrees                       :LONGITUDE
GDAT .                                                 :GeoDetic Datum
SECT .        31                                       :Section
RANG .        60W                                      :Range
TOWN .        16N                                      :Township
#-----------------------------------------------------------------------------
~PARAMETER INFORMATION
#MNEM.UNIT    VALUE                      DESCRIPTION
#---- -----   --------------------       ------------------------
CN   .        Bear Oil & Gas  Inc        :Company Name
WN   .        McGahan Farms 42-31        :Well Name
FN   .        Wildcat                    :Field Name
FL   .        Lat/Long  41.3098/-104.1197 :Field Location
FL1  .        SHL   2375' FNL X 190' FEL SENE :Field Location, Line 1
COUN .        Laramie                    :County or Parish
STAT .        Wyoming                    :State or Province
NATI .        USA                        :Nation
DATE .        21-Sep-2013                :Tools Above Rotary Table Date
APIN .        49-021-21035               :API Well Number
SECT .        31                         :Section
TOWN .        16N                        :Township
RANG .        60W                        :Range
DMF  .        KB                         :Drilling Measured From (Name of Drilling Elevation Reference)
LMF  .        KB                         :Logging Measured From (Name of Logging Elevation Reference)
PDAT .        GL                         :Permanent Datum
ENGI .        Arvin Shi                  :Engineer s Name
WITN .        Terry Eittreim             :Witness s Name
LATI .        41.309800 degrees          :Latitude
LONG .        -104.11970 degrees         :Longitude
LUL  .        Fort Morgan                :Logging Unit Location
LUN  .        3022                       :Logging Unit Number
RUN  .        Run 1                      :Run Number
SON  .        C6VJ-00079                 :Service Order Number
BHT  .DEGF     175.00000                 :Bottom Hole Temperature
BS   .IN         7.87500                 :Bit Size
MDEN .G/C3       2.65000                 :Matrix Density for Density Porosity
DFD  .LB/G       9.20000                 :Drilling Fluid Density
DFV  .S         80.00000                 :Drilling Fluid Viscosity
DFL  .C3      -999.25000                 :Drilling Fluid Loss
RMFS .OHMM       0.96000                 :Resistivity of Mud Filtrate Sample
EKB  .F       5307.00000                 :Elevation of Kelly Bushing
EGL  .F       5295.00000                 :Elevation of Ground Level
BLI  .F       7700.00000                 :Bottom Log Interval
BSAL .PPM     3275.14868                 :Borehole Salinity
FLEV .F          8.00000                 :Depth of Drilling Fluid Level to LMF (Log Measured From)
MCST .DEGF      98.00000                 :Mudcake Sample Temperature
MFST .DEGF      98.00000                 :Mud Filtrate Sample Temperature
MRT  .DEGF     175.00000                 :Maximum Recorded Temperature
MST  .DEGF      98.00000                 :Mud Sample Temperature
RMCS .OHMM       1.60000                 :Resistivity of Mud Cake Sample
RMS  .OHMM       1.28000                 :Resistivity of Mud Sample
RW   .OHMM       1.00000                 :Connate Water Resistivity
TDD  .F       7697.00000                 :Driller Total Depth
TDL  .F       7700.00000                 :Logger Total Depth
TLI  .F       1018.00000                 :Top Log Interval
HIDE .        Wildcat                    :Header Identifier
MATR .        SAND                       :Rock Matrix for Neutron Porosity Corrections
FNUM .           1.00000                 :F-Numerator for Formation Factor Formula
FEXP .           2.00000                 :Exponent "m" for Formation Factor Formula
DFT  .        Chemical Gel               :Drilling Fluid Type
DFPH .        -999.25000                 :Drilling Fluid pH
MCSS .        Calculated                 :Mudcake Sample Source
MFSS .        Calculated                 :Mud Filtrate Sample Source
FD   .G/C3       1.00000                 :Fluid Density
MSS  .        Flowline                   :Mud Sample Source
OS1  .                                   :Other Services Line 1
OS2  .                                   :Other Services Line 2
OS3  .                                   :Other Services Line 3
OS4  .                                   :Other Services Line 4
OS5  .                                   :Other Services Line 5
R1   .                                   :Remarks Line 1
R2   .                                   :Remarks Line 2
R3   .                                   :Remarks Line 3
R4   .                                   :Remarks Line 4
R5   .                                   :Remarks Line 5
R6   .                                   :Remarks Line 6
R7   .                                   :Remarks Line 7
R8   .                                   :Remarks Line 8
TCS  .        11 00 00                   :Time Circulation Stopped
TLAB .        17 20 49                   :Time Logger At Bottom
NMT  .        NOBARITE                   :HRDD Mud Type for Nuclear Devices
EPD  .C3         5295.000000             :Elevation of Permanent Datum above Mean Sea Level
APD  .F          12.000000               :Elevation of Depth Reference (LMF) above Permanent Datum
#-----------------------------------------------------------------------------
~CURVE INFORMATION
#MNEM.UNIT   API CODE                                  DESCRIPTION
#---- -----  --------                                  -----------------------
DEPT .F                                                :DEPTH (BOREHOLE) {F10.1}
AT10 .OHMM                                             :Array Induction Two Foot Resistivity A10 {F11.4}
AT30 .OHMM                                             :Array Induction Two Foot Resistivity A30 {F11.4}
AT90 .OHMM                                             :Array Induction Two Foot Resistivity A90 {F11.4}
GR   .GAPI                                             :Gamma Ray {F11.4}
HCAL .IN                                               :HRCC Caliper Calibrated {F11.4}
HDRA .G/C3                                             :Density Standoff Correction {F11.4}
NPHI .CFCF                                             :Thermal Neutron Porosity (original Ratio Method) in Selected Lithology {F11.4}
PEFZ .                                                 :Standard Resolution Formation Photoelectric Factor {F11.4}
RHOZ .G/C3                                             :Standard Resolution Formation Density {F11.4}
SP   .MV                                               :Spontaneous Potential {F11.4}
TNPH .CFCF                                             :Thermal Neutron Porosity (Ratio Method) in Selected Lithology {F11.4}
#-----------------------------------------------------------------------------
# 
#     DEPT       AF10       AF20       AF30       AF60       AF90       AO10       AO20       AO30       AO60       AO90       AT10       AT20       AT30       AT60       AT90     AHFCO60      AHMF      AHORT      AHORX      AHSCA     AHTCO10    AHTCO20    AHTCO30    AHTCO60    AHTCO90     AHTD1      AHTD2      AHTRT      AHTRX       CDF        CFTC       CNTC       CTEM       DCAL       DNPH       DPHZ       DSOZ       ECGR        ED        GDEV        GR        GTEM       HCAL       HDRA       HDRB       HGR        HMIN       HMNO       HNPO       HPRA       HTNP        ND        NPHI       NPOR       PEFZ    PXND_HILT     RHOZ       RSOZ     RWA_HILT     RXO8       RXOZ        SP        SPAR       STIT       TENS       TNPH     HTNP_SAN
#
~A  DEPT AT10 AT30 AT90 GR HCAL HDRA NPHI PEFZ RHOZ SP TNPH
# ...
6225.0 2.9511 2.7744 2.6388 95.7436 7.9502 0.0430 0.2987 3.0683 2.5530 -356.8542 0.3007
6225.5 2.9087 2.7296 2.5989 93.3633 7.9062 0.0326 0.2685 3.0310 2.5405 -356.7083 0.2858
6226.0 2.8934 2.7106 2.5755 93.8919 7.9502 0.0195 0.2400 3.0089 2.5329 -356.5521 0.2552
6226.5 2.8747 2.6958 2.5748 100.7687 7.9502 0.0119 0.2439 3.0057 2.5195 -356.5313 0.2379
6227.0 2.9136 2.7408 2.6116 108.9671 7.9722 0.0145 0.2576 3.0251 2.5289 -356.6146 0.2387
6227.5 3.0070 2.8064 2.6906 109.4968 7.9062 0.0116 0.2714 3.0185 2.5328 -356.8021 0.2492
6228.0 3.1030 2.9033 2.7694 108.1740 7.9502 0.0069 0.2839 2.9908 2.5406 -356.7188 0.2564
6228.5 3.2282 3.0280 2.8753 102.3557 7.9502 0.0007 0.2743 2.9633 2.5446 -356.6000 0.2673
6229.0 3.2025 3.0447 2.9071 105.5292 7.9062 0.0029 0.2683 2.9293 2.5595 -356.4271 0.2674
6229.5 3.1993 3.0048 2.8930 97.5949 7.9502 0.0014 0.2699 2.9098 2.5651 -356.4063 0.2614
6230.0 3.2593 3.0679 2.9643 99.1815 7.9722 0.0018 0.2844 2.9358 2.5617 -356.6146 0.2586
6230.5 3.3140 3.1383 3.0126 92.0404 7.9722 0.0093 0.2972 2.9723 2.5538 -356.7083 0.2646
6231.0 3.2531 3.0772 2.9583 90.9828 7.9722 0.0194 0.2825 2.9879 2.5528 -356.6042 0.2825
6231.5 3.2078 3.0356 2.9268 92.8340 7.9502 0.0173 0.2755 2.9415 2.5513 -356.4896 0.2812
6232.0 3.1813 3.0154 2.9039 89.3957 7.9722 0.0068 0.2632 2.9024 2.5353 -356.5000 0.2802
6232.5 3.1331 2.9723 2.8602 95.4784 7.9722 0.0062 0.2715 2.9134 2.5339 -356.7292 0.2660
6233.0 3.0699 2.9098 2.8022 92.8339 7.9502 0.0181 0.2597 2.9545 2.5435 -356.8542 0.2615
6233.5 3.1633 2.9464 2.8345 98.9172 7.9502 0.0210 0.2701 2.9837 2.5562 -356.7604 0.2448
6234.0 3.2092 3.0398 2.8974 98.6535 7.9502 0.0145 0.2544 2.9996 2.5578 -356.5375 0.2574
6234.5 3.2202 3.0587 2.9318 98.1242 7.9722 0.0109 0.2573 3.0111 2.5567 -356.6146 0.2420
6235.0 3.1879 3.0098 2.8996 104.4717 7.9502 0.0116 0.2517 2.9963 2.5588 -356.7083 0.2516
6235.5 3.1667 2.9899 2.8793 108.1735 7.9722 0.0103 0.2594 2.9301 2.5612 -356.6667 0.2459
6236.0 3.1542 2.9729 2.8646 101.5618 7.9062 0.0028 0.2663 2.8892 2.5583 -356.6979 0.2519
6236.5 3.1959 2.9983 2.8875 96.2719 7.9282 -0.0010 0.2588 2.9121 2.5593 -356.5104 0.2562
6237.0 3.2548 3.0749 2.9542 96.2729 7.9062 -0.0031 0.2519 2.9689 2.5568 -356.4583 0.2549
6237.5 3.2696 3.0999 2.9822 105.2653 7.9282 -0.0048 0.2557 3.0048 2.5496 -356.4479 0.2443
6238.0 3.2876 3.0960 2.9886 105.2655 7.9282 -0.0061 0.2664 3.0021 2.5402 -356.4167 0.2466
6238.5 3.3032 3.1167 2.9980 97.4366 7.9282 -0.0061 0.2801 2.9837 2.5375 -356.6146 0.2535
6239.0 3.3206 3.1433 3.0316 91.3535 7.9062 -0.0069 0.2610 2.9934 2.5280 -356.5208 0.2629
6239.5 3.2919 3.1179 3.0114 88.4442 7.9062 -0.0011 0.2641 2.9997 2.5381 -356.3542 0.2498
6240.0 3.2429 3.0918 2.9842 87.8091 7.8842 0.0055 0.2830 3.0327 2.5363 -356.4479 0.2579
6240.5 3.1858 3.0301 2.9334 95.4790 7.9062 0.0258 0.2950 3.0350 2.5612 -356.5521 0.2788
6241.0 3.2023 3.0328 2.9366 99.4460 7.9062 0.0371 0.2905 3.0352 2.5693 -356.6750 0.2881
6241.5 3.2125 3.0541 2.9479 98.6527 7.9062 0.0380 0.2684 3.0101 2.5821 -356.7500 0.2782
6242.0 3.2024 3.0330 2.9464 97.5946 7.9062 0.0269 0.2643 3.0056 2.5712 -356.5625 0.2618
6242.5 3.2021 3.0440 2.9486 94.9502 7.8842 0.0214 0.2688 3.0413 2.5668 -356.4792 0.2593
6243.0 3.2356 3.0609 2.9688 94.4209 7.9282 0.0309 0.2732 3.0884 2.5671 -356.5313 0.2591
6243.5 3.2571 3.0850 2.9889 93.4693 7.9062 0.0275 0.2856 3.0717 2.5613 -356.5625 0.2598
6244.0 3.3135 3.1387 3.0409 93.9979 7.9502 0.0199 0.2857 3.0065 2.5546 -356.7083 0.2690
6244.5 3.2492 3.0883 2.9884 96.9077 7.9282 0.0043 0.2894 2.9289 2.5399 -356.8021 0.2777
6245.0 3.1836 3.0202 2.9295 97.8592 7.9282 0.0021 0.2851 2.8858 2.5347 -356.5521 0.2876
6245.5 3.1085 2.9698 2.8780 104.2070 7.9502 0.0058 0.2860 2.8845 2.5319 -356.3750 0.2808
6246.0 3.1050 2.9346 2.8449 100.5038 7.9722 0.0132 0.2760 2.9130 2.5412 -356.3021 0.2810
6246.5 3.1260 2.9763 2.8665 101.2975 8.0381 0.0123 0.2778 2.9311 2.5487 -356.3021 0.2747
6247.0 3.1677 3.0227 2.9195 97.5948 7.9062 0.0059 0.2788 2.9504 2.5474 -356.3125 0.2779
6247.5 3.0876 2.9254 2.8326 101.2976 7.9502 -0.0020 0.2761 2.9260 2.5343 -356.2917 0.2789
6248.0 3.0211 2.8545 2.7787 100.7686 7.9502 0.0016 0.2821 2.9089 2.5334 -356.1771 0.2677
6248.5 3.0384 2.8626 2.7702 100.5038 7.9282 0.0031 0.2815 2.8589 2.5227 -356.1146 0.2679
6249.0 3.0166 2.8542 2.7534 100.7686 7.9062 0.0037 0.2847 2.8255 2.5249 -356.2292 0.2658
6249.5 3.0216 2.8404 2.7435 101.2977 7.9282 0.0031 0.2750 2.8247 2.5360 -356.3125 0.2689
6250.0 2.9692 2.8293 2.7287 99.9753 7.9502 0.0036 0.2773 2.8668 2.5405 -356.2813 0.2663
6250.5 2.8642 2.7326 2.6331 98.6527 7.8842 0.0320 0.2887 2.9920 2.5597 -356.1563 0.2843
6251.0 2.7664 2.6118 2.5309 98.3880 7.9282 0.0464 0.2954 3.0550 2.5408 -356.0729 0.2889
6251.5 2.7442 2.5732 2.4771 96.2728 7.9282 0.0579 0.2955 3.0643 2.5482 -356.1771 0.2901
6252.0 2.7942 2.6165 2.5144 103.6779 7.9502 0.0379 0.2953 3.0039 2.5194 -356.1354 0.2903
6252.5 2.8148 2.6525 2.5348 98.6529 7.8183 0.0414 0.3025 2.9981 2.5319 -356.0938 0.2921
6253.0 2.7889 2.6346 2.5219 104.4709 7.9502 0.0490 0.2988 3.0155 2.5354 -355.9583 0.2885
6253.5 2.7962 2.6276 2.5169 95.2145 7.9062 0.0658 0.3119 3.0281 2.5578 -355.8854 0.2905
6254.0 2.7769 2.6044 2.4909 98.3885 7.9062 0.0689 0.2971 3.0199 2.5652 -355.8125 0.3055
6254.5 2.8099 2.6245 2.5074 93.6278 7.9062 0.0656 0.2786 3.0274 2.5625 -355.9000 0.2884
6255.0 2.8619 2.6721 2.5432 93.3631 7.9062 0.0531 0.2860 3.0632 2.5505 -355.8750 0.2702
6255.5 2.8183 2.6375 2.5091 87.0152 7.9502 0.0428 0.2968 3.0938 2.5416 -355.8646 0.2753
6256.0 2.7780 2.6007 2.4730 92.3053 7.9062 0.0432 0.3147 3.1101 2.5395 -355.8229 0.2807
6256.5 2.8338 2.6345 2.4955 93.3628 7.8842 0.0576 0.2901 3.1409 2.5398 -355.6875 0.2982
6257.0 2.8683 2.6957 2.5443 96.8016 7.9282 0.0720 0.2838 3.2199 2.5334 -355.5625 0.2843
6257.5 2.8380 2.6798 2.5228 92.8342 7.9282 0.0795 0.2993 3.3017 2.5347 -355.5000 0.2892
6258.0 2.7815 2.6089 2.4666 91.2475 7.8842 0.0819 0.2992 3.3292 2.5290 -355.7188 0.2984
6258.5 2.7222 2.5541 2.4216 89.1317 7.9502 0.0869 0.3066 3.2848 2.5316 -355.8542 0.2892
6259.0 2.7334 2.5543 2.4231 84.8998 7.9502 0.0898 0.2960 3.2105 2.5397 -355.6146 0.2957
6259.5 2.7159 2.5580 2.4146 89.9250 7.9502 0.0781 0.2992 3.1557 2.5642 -355.6500 0.2807
6260.0 2.7003 2.5293 2.4089 90.1892 7.9062 0.0572 0.2862 3.1596 2.5654 -355.6146 0.2851
6260.5 2.6158 2.4696 2.3546 97.5947 7.9282 0.0609 0.2681 3.2353 2.5695 -355.6563 0.2783
6261.0 2.5507 2.4059 2.3005 98.6530 7.9502 0.0892 0.2785 3.3006 2.5842 -355.7292 0.2771
6261.5 2.4767 2.3277 2.2384 101.2972 7.9722 0.1131 0.3059 3.2951 2.5755 -355.7083 0.2853
6262.0 2.4267 2.2990 2.2040 97.3300 7.9722 0.1230 0.3263 3.2383 2.5565 -355.6563 0.3072
6262.5 2.4583 2.2929 2.1951 97.3300 7.9282 0.1204 0.3166 3.1938 2.5257 -355.4896 0.3105
6263.0 2.4761 2.3120 2.2094 96.5372 7.9722 0.1237 0.2777 3.1878 2.5365 -355.5417 0.2916
6263.5 2.5189 2.3478 2.2399 94.6859 7.9502 0.1197 0.2919 3.2011 2.5467 -355.5313 0.2701
6264.0 2.4410 2.2982 2.1913 93.6279 7.9282 0.0983 0.3035 3.2082 2.5430 -355.4479 0.2884
6264.5 2.3930 2.2320 2.1280 97.0658 7.9502 0.0748 0.3281 3.2034 2.5408 -355.3125 0.2950
6265.0 2.3621 2.2121 2.1077 99.7106 7.9282 0.0495 0.3206 3.1757 2.5339 -355.2000 0.3050
6265.5 2.5376 2.3121 2.1990 96.5366 7.8842 0.0413 0.3073 3.1463 2.5420 -355.2813 0.2988
6266.0 2.6506 2.4544 2.3246 96.2724 7.9282 0.0338 0.3058 3.1254 2.5390 -355.4375 0.2918
6266.5 2.6598 2.5024 2.3621 89.9250 7.9062 0.0304 0.3022 3.1077 2.5508 -355.5104 0.2997
6267.0 2.6773 2.4832 2.3522 92.5696 7.8842 0.0166 0.3108 3.0696 2.5498 -355.3958 0.2944
6267.5 2.7239 2.5057 2.3764 93.8923 7.8842 0.0063 0.2984 3.0524 2.5701 -355.1563 0.2970
6268.0 2.8826 2.6952 2.5330 96.5370 7.8622 -0.0029 0.2890 3.0809 2.5559 -355.4063 0.2856
6268.5 3.0079 2.7939 2.6429 93.0988 7.9062 -0.0011 0.2849 3.1283 2.5428 -355.4896 0.2820
6269.0 2.7666 2.5928 2.4773 95.4790 7.8842 0.0033 0.2884 3.1179 2.5093 -355.3438 0.2870
6269.5 2.6494 2.4711 2.3542 103.6778 7.8622 0.0091 0.2768 3.0573 2.5054 -355.2708 0.2917
6270.0 2.6094 2.4334 2.3342 103.1491 7.8842 0.0273 0.2785 3.0338 2.5062 -355.2813 0.2699
