~VERSION INFORMATION
VERS.           1.2   :CWLS Log ASCII Standard - VERSION 1.2
WRAP.           NO    :One Line per depth step
PROD.  Schlumberger   :LAS Producer
PROG.  DLIS to ASCII 17C0-152                          :LAS Program name and version
CREA.        2013/08/16 09:04                          :LAS Creation date {YYYY/MM/DD hh:mm}
DLIS_CREA.  2013-Aug-16 00:16                          :DLIS Creation date and time {YYYY-MMM-DD hh:mm}
SOURCE.     960568ea-4174-41e0-a405-0f32a02141a6       :DLIS File Name
#--------------------------------------------------
~WELL INFORMATION
#MNEM.UNIT      DATA             DESCRIPTION
#---- ------ --------------   -----------------------------
STRT .F      457.0000        :START DEPTH        # original; data subset to 5500-8000
STOP .F      7701.0000       :STOP DEPTH        # original; data subset to 5500-8000
STEP .F       0.5000         :STEP       
NULL .          -999.25      :NULL VALUE
COMP .                 COMPANY:  Bear Oil & Gas, Inc.               
WELL .                    WELL:  Fornstrom 13-32A                   
FLD  .                   FIELD:  Wildcat                            
LOC  .                LOCATION:  SHL: NWSW 1925' FSL & 540" FWL     
CNTY .                  COUNTY:  Laramie                            
STAT .                   STATE:  Wyoming                            
CTRY .                 COUNTRY:  United States                      
SRVC .         SERVICE COMPANY:  Schlumberger                       
LATI .DEG             LATITUDE:  41.307320 degrees                  
LONG .DEG            LONGITUDE:  -104.11715 degrees                 
API  .              API NUMBER:  49-021-21022                       
DATE .                LOG DATE:  15-Aug-2013
UWI  .          UNIQUE WELL ID:  49021210220000                     
#-----------------------------------------------------------------------------
~PARAMETER INFORMATION
#MNEM.UNIT    VALUE                      DESCRIPTION
#---- -----   --------------------       ------------------------
CN   .        Bear Oil & Gas  Inc.       :Company Name
WN   .        Fornstrom 13-32A           :Well Name
FN   .        Wildcat                    :Field Name
FL   .        SHL  NWSW 1925' FSL & 540  FWL :Field Location
FL1  .        Sec. 32  T. 16N  R. 60W    :Field Location, Line 1
COUN .        Laramie                    :County or Parish
STAT .        Wyoming                    :State or Province
NATI .        United States              :Nation
DATE .        15-Aug-2013                :Tools Above Rotary Table Date
APIN .        49-021-21022               :API Well Number
SECT .        32                         :Section
TOWN .        16N                        :Township
RANG .        60W                        :Range
DMF  .        KB                         :Drilling Measured From (Name of Drilling Elevation Reference)
LMF  .        KB                         :Logging Measured From (Name of Logging Elevation Reference)
PDAT .        GL                         :Permanent Datum
ENGI .        Max Pace                   :Engineer s Name
WITN .        Tery Eittreim              :Witness s Name
LATI .        41.307320 degrees          :Latitude
LONG .        -104.11715 degrees         :Longitude
LUL  .        Fort Morgan  CO            :Logging Unit Location
LUN  .        3030                       :Logging Unit Number
RUN  .        Run 1                      :Run Number
SON  .        CA0R-00040                 :Service Order Number
BHT  .DEGF     168.00000                 :Bottom Hole Temperature
BS   .IN         7.87500                 :Bit Size
MDEN .G/C3       2.65000                 :Matrix Density for Density Porosity
DFD  .LB/G       8.80000                 :Drilling Fluid Density
DFV  .S         36.00000                 :Drilling Fluid Viscosity
DFL  .C3         5.00000                 :Drilling Fluid Loss
RMFS .OHMM       1.11000                 :Resistivity of Mud Filtrate Sample
EKB  .F       5298.00000                 :Elevation of Kelly Bushing
EGL  .F       5286.00000                 :Elevation of Ground Level
BLI  .F       7687.00000                 :Bottom Log Interval
BSAL .PPM     3295.90967                 :Borehole Salinity
FLEV .F          8.00000                 :Depth of Drilling Fluid Level to LMF (Log Measured From)
MCST .DEGF      84.00000                 :Mudcake Sample Temperature
MFST .DEGF      84.00000                 :Mud Filtrate Sample Temperature
MRT  .DEGF     168.00000                 :Maximum Recorded Temperature
MST  .DEGF      84.00000                 :Mud Sample Temperature
RMCS .OHMM       1.85000                 :Resistivity of Mud Cake Sample
RMS  .OHMM       1.48000                 :Resistivity of Mud Sample
RW   .OHMM       1.00000                 :Connate Water Resistivity
TDD  .F       7680.00000                 :Driller Total Depth
TDL  .F       7687.00000                 :Logger Total Depth
TLI  .F       1026.25000                 :Top Log Interval
HIDE .        Wildcat                    :Header Identifier
MATR .        SAND                       :Rock Matrix for Neutron Porosity Corrections
FNUM .           1.00000                 :F-Numerator for Formation Factor Formula
FEXP .           2.00000                 :Exponent "m" for Formation Factor Formula
DFT  .        Fresh Water                :Drilling Fluid Type
DFPH .           8.50000                 :Drilling Fluid pH
MCSS .        Calculated                 :Mudcake Sample Source
MFSS .        Calculated                 :Mud Filtrate Sample Source
FD   .G/C3       1.00000                 :Fluid Density
MSS  .        Active Tank                :Mud Sample Source
OS1  .                                   :Other Services Line 1
OS2  .                                   :Other Services Line 2
OS3  .                                   :Other Services Line 3
OS4  .                                   :Other Services Line 4
OS5  .                                   :Other Services Line 5
R1   .                                   :Remarks Line 1
R2   .                                   :Remarks Line 2
R3   .                                   :Remarks Line 3
R4   .                                   :Remarks Line 4
R5   .                                   :Remarks Line 5
R6   .                                   :Remarks Line 6
R7   .                                   :Remarks Line 7
R8   .                                   :Remarks Line 8
TCS  .        14 00 00                   :Time Circulation Stopped
TLAB .        22 20 59                   :Time Logger At Bottom
NMT  .        NOBARITE                   :HRDD Mud Type for Nuclear Devices
EPD  .F         5286.000000              :Elevation of Permanent Datum above Mean Sea Level
APD  .F          12.000000               :Elevation of Depth Reference (LMF) above Permanent Datum
#-----------------------------------------------------------------------------
~CURVE INFORMATION
#MNEM.UNIT   API CODE                                  DESCRIPTION
#---- -----  --------                                  -----------------------
DEPT .F                                                :DEPTH (BOREHOLE) {F12.4}
AT10 .OHMM                                             :Array Induction Two Foot Resistivity A10 {F11.4}
AT30 .OHMM                                             :Array Induction Two Foot Resistivity A30 {F11.4}
AT90 .OHMM                                             :Array Induction Two Foot Resistivity A90 {F11.4}
GR   .GAPI                                             :Gamma Ray {F11.4}
HCAL .IN                                               :HRCC Caliper Calibrated {F11.4}
HDRA .G/C3                                             :Density Standoff Correction {F11.4}
NPHI .CFCF                                             :Thermal Neutron Porosity (original Ratio Method) in Selected Lithology {F11.4}
PEFZ .                                                 :Standard Resolution Formation Photoelectric Factor {F11.4}
RHOZ .G/C3                                             :Standard Resolution Formation Density {F11.4}
SP   .MV                                               :Spontaneous Potential {F11.4}
TNPH .CFCF                                             :Thermal Neutron Porosity (Ratio Method) in Selected Lithology {F11.4}
#-----------------------------------------------------------------------------
# 
#      DEPT        AF10       AF20       AF30       AF60       AF90       AO10       AO20       AO30       AO60       AO90       AT10       AT20       AT30       AT60       AT90     AHFCO60      AHMF      AHORT      AHORX      AHSCA     AHTCO10    AHTCO20    AHTCO30    AHTCO60    AHTCO90     AHTD1      AHTD2      AHTRT      AHTRX       CDF        CFTC       CNTC       CTEM       DCAL       DNPH       DPHZ       DSOZ       ECGR        ED        GDEV        GR        GTEM       HCAL       HDRA       HDRB       HGR        HMIN       HMNO       HNPO       HPRA       HTNP        ND        NPHI       NPOR       PEFZ    PXND_HILT     RHOZ       RSOZ     RWA_HILT     RXO8       RXOZ        SP        SPAR       STIT       TENS       TNPH     HTNP_SAN
#
~A  DEPT AT10 AT30 AT90 GR HCAL HDRA NPHI PEFZ RHOZ SP TNPH
# ...
7677.0000 2.9586 2.8556 2.3796 144.4762 7.4369 -0.0366 0.3370 3.1973 2.5208 68.4141 -999.2500
7677.5000 4.2269 3.9961 3.3107 144.4762 7.4484 -0.0293 0.3370 3.1628 2.5297 68.0804 -999.2500
7678.0000 3.9708 4.3090 3.5442 144.4762 7.4484 -5422.6790 0.3370 -5436.7935 -5433.9925 68.1172 -999.2500
7678.5000 3.4569 3.8794 3.3212 144.4762 7.4369 -999.2500 0.3370 -999.2500 -999.2500 68.0446 -999.2500
7679.0000 3.1309 3.3214 2.9461 144.4762 7.4369 -999.2500 0.3370 -999.2500 -999.2500 68.1172 -999.2500
7679.5000 2.9481 3.0089 2.7219 144.4762 7.4484 -999.2500 0.3370 -999.2500 -999.2500 68.1250 -999.2500
7680.0000 3.0391 3.0925 2.8992 144.4762 7.4369 -999.2500 0.3370 -999.2500 -999.2500 68.0000 -999.2500
7680.5000 3.2171 3.3019 2.8984 144.4762 7.4484 -999.2500 0.3370 -999.2500 -999.2500 68.3482 -999.2500
7681.0000 3.2458 3.4186 2.9515 144.4762 7.4291 -999.2500 0.3370 -999.2500 -999.2500 68.1563 -999.2500
7681.5000 3.1992 3.4709 2.9147 144.4762 7.3367 -999.2500 0.3370 -999.2500 -999.2500 68.2857 -999.2500
7682.0000 3.1380 3.4712 2.8178 144.4762 2.9867 -999.2500 0.3370 -999.2500 -999.2500 68.4219 -999.2500
7682.5000 3.1153 3.4632 2.7350 144.4762 2.4357 -999.2500 0.3370 -999.2500 -999.2500 68.0357 -999.2500
7683.0000 3.0892 3.4377 2.6680 144.4762 2.4388 -999.2500 0.3370 -999.2500 -999.2500 68.4766 -999.2500
7683.5000 3.0586 3.4014 2.5949 144.4762 2.4388 -999.2500 0.3370 -999.2500 -999.2500 68.5804 -999.2500
7684.0000 3.0373 3.3737 2.5425 144.4762 2.4388 -999.2500 0.3370 -999.2500 -999.2500 68.5313 -999.2500
7684.5000 3.0341 3.3661 2.5122 144.4762 2.4388 -999.2500 0.3370 -999.2500 -999.2500 68.7857 -999.2500
7685.0000 3.0388 3.3793 2.4994 144.4762 2.4388 -999.2500 0.3370 -999.2500 -999.2500 68.6328 -999.2500
7685.5000 3.0408 3.3799 2.4986 144.4762 2.4388 -999.2500 0.3370 -999.2500 -999.2500 69.1071 -999.2500
7686.0000 3.0384 3.3780 2.5023 144.4762 2.4388 -999.2500 0.3370 -999.2500 -999.2500 69.5938 -999.2500
7686.5000 3.0366 3.3762 2.5063 144.4762 2.4388 -999.2500 0.3370 -999.2500 -999.2500 69.9554 -999.2500
7687.0000 3.0382 3.3747 2.5148 144.4762 2.4388 -999.2500 0.3370 -999.2500 -999.2500 70.5234 -999.2500
7687.5000 3.0370 3.3766 2.5283 144.4762 2.4388 -999.2500 0.3370 -999.2500 -999.2500 70.3214 -999.2500
7688.0000 3.0385 3.3766 2.5482 144.4762 2.4388 -999.2500 0.3370 -999.2500 -999.2500 70.2500 -999.2500
7688.5000 3.0363 3.3779 2.5782 144.4762 2.4388 -999.2500 0.3370 -999.2500 -999.2500 70.1250 -999.2500
7689.0000 3.0344 3.3791 2.6219 144.4762 2.4388 -999.2500 0.3370 -999.2500 -999.2500 69.7734 -999.2500
7689.5000 3.0404 3.4001 2.6847 144.4762 2.4388 -999.2500 0.3370 -999.2500 -999.2500 70.2109 -999.2500
7690.0000 3.0523 3.4414 2.7703 144.4762 2.4388 -999.2500 0.3370 -999.2500 -999.2500 69.9196 -999.2500
7690.5000 3.0682 3.4908 2.8681 144.4762 2.4388 -999.2500 0.3370 -999.2500 -999.2500 69.8542 -999.2500
7691.0000 3.0978 3.5250 2.9614 144.4762 2.4388 -999.2500 0.3370 -999.2500 -999.2500 69.8828 -999.2500
7691.5000 3.1226 3.5443 3.0294 144.4762 2.4388 -999.2500 0.3370 -999.2500 -999.2500 69.4375 -999.2500
7692.0000 3.1695 3.4933 3.0064 144.4762 2.4388 -999.2500 0.3370 -999.2500 -999.2500 69.3403 -999.2500
7692.5000 3.1754 3.3654 2.8806 144.4762 2.4388 -999.2500 0.3370 -999.2500 -999.2500 68.8438 -999.2500
7693.0000 3.1587 3.2004 2.7319 144.4762 2.4388 -999.2500 0.3370 -999.2500 -999.2500 68.7083 -999.2500
7693.5000 -999.2500 -999.2500 -999.2500 144.4762 2.4388 -999.2500 0.3370 -999.2500 -999.2500 68.7639 -999.2500
7694.0000 -999.2500 -999.2500 -999.2500 144.4762 2.4388 -999.2500 0.3370 -999.2500 -999.2500 68.3063 -999.2500
7694.5000 -999.2500 -999.2500 -999.2500 144.4762 2.4388 -999.2500 0.3370 -999.2500 -999.2500 68.0057 -999.2500
7695.0000 -999.2500 -999.2500 -999.2500 144.4762 2.4388 -999.2500 0.3370 -999.2500 -999.2500 68.4750 -999.2500
7695.5000 -999.2500 -999.2500 -999.2500 144.4762 2.4388 -999.2500 0.3370 -999.2500 -999.2500 68.0227 -999.2500
7696.0000 -999.2500 -999.2500 -999.2500 144.4762 2.4388 -999.2500 0.3370 -999.2500 -999.2500 68.1563 -999.2500
7696.5000 -999.2500 -999.2500 -999.2500 144.4762 2.4388 -999.2500 0.3370 -999.2500 -999.2500 67.8542 -999.2500
7697.0000 -999.2500 -999.2500 -999.2500 144.4762 2.4388 -999.2500 0.3370 -999.2500 -999.2500 68.1058 -999.2500
7697.5000 -999.2500 -999.2500 -999.2500 144.4762 2.4388 -999.2500 0.3370 -999.2500 -999.2500 67.9183 -999.2500
7698.0000 -999.2500 -999.2500 -999.2500 144.4762 2.4388 -999.2500 0.3370 -999.2500 -999.2500 67.8833 -999.2500
7698.5000 -999.2500 -999.2500 -999.2500 144.4762 2.4388 -999.2500 0.3370 -999.2500 -999.2500 68.0491 -999.2500
7699.0000 -999.2500 -999.2500 -999.2500 144.4762 2.4388 -999.2500 0.3370 -999.2500 -999.2500 67.8984 -999.2500
7699.5000 -999.2500 -999.2500 -999.2500 144.4762 2.4388 -999.2500 0.3370 -999.2500 -999.2500 68.2569 -999.2500
7700.0000 -999.2500 -999.2500 -999.2500 144.4762 2.4388 -999.2500 0.3370 -999.2500 -999.2500 68.4574 -999.2500
7700.5000 -999.2500 -999.2500 -999.2500 144.4762 2.4388 -999.2500 0.3370 -999.2500 -999.2500 68.2129 -999.2500
7701.0000 -999.2500 -999.2500 -999.2500 144.4762 2.4388 -999.2500 0.3370 -999.2500 -999.2500 68.1195 -999.2500
