~VERSION INFORMATION
VERS.           1.2   :CWLS Log ASCII Standard - VERSION 1.2
WRAP.           NO    :One Line per depth step
PROD.  Schlumberger   :LAS Producer
PROG.  DLIS to ASCII 17C0-152                          :LAS Program name and version
CREA.        2013/10/21 20:50                          :LAS Creation date {YYYY/MM/DD hh:mm}
DLIS_CREA.  2013-Oct-21 08:39                          :DLIS Creation date and time {YYYY-MMM-DD hh:mm}
SOURCE.     9ec8b34d-aca5-43ef-91a8-8c41069c79cd       :DLIS File Name
#--------------------------------------------------
~WELL INFORMATION
#MNEM.UNIT      DATA             DESCRIPTION
#---- ------ --------------   -----------------------------
STRT .F      901.5000        :START DEPTH        # original; data subset to 5500-8000
STOP .F      7746.5000       :STOP DEPTH        # original; data subset to 5500-8000
STEP .F       0.5000         :STEP       
NULL .          -999.25      :NULL VALUE
COMP .                 COMPANY:  Bear Oil and Gas, Inc.             
WELL .                    WELL:  McGahan Farms 32 31                
FLD  .                   FIELD:  Wildcat                            
LOC  .                LOCATION:  SHL: SWNE 2563' FNL & 1423' FEL    
CNTY .                  COUNTY:  Laramie                            
STAT .                   STATE:  Wyoming                            
CTRY .                 COUNTRY:  United States                      
SRVC .         SERVICE COMPANY:  Schlumberger                       
LATI .DEG             LATITUDE:  41.309490 degrees                  
LONG .DEG            LONGITUDE:  -104.12429 degrees                 
API  .              API NUMBER:  49-021-21045                       
DATE .                LOG DATE:  21-Oct-2013
UWI  .          UNIQUE WELL ID:  49021210450000                     
#-----------------------------------------------------------------------------
~PARAMETER INFORMATION
#MNEM.UNIT    VALUE                      DESCRIPTION
#---- -----   --------------------       ------------------------
CN   .        Bear Oil and Gas  Inc.     :Company Name
WN   .        McGahan Farms 32 31        :Well Name
FN   .        Wildcat                    :Field Name
FL   .        SHL  SWNE 2563' FNL & 1423' FEL :Field Location
FL1  .        Section 31  Township 16N  Range 60W :Field Location, Line 1
COUN .        Laramie                    :County or Parish
STAT .        Wyoming                    :State or Province
NATI .        United States              :Nation
DATE .        21-Oct-2013                :Tools Above Rotary Table Date
APIN .        49-021-21045               :API Well Number
SECT .        31                         :Section
TOWN .        16N                        :Township
RANG .        60W                        :Range
DMF  .        KB                         :Drilling Measured From (Name of Drilling Elevation Reference)
LMF  .        KB                         :Logging Measured From (Name of Logging Elevation Reference)
PDAT .        GL                         :Permanent Datum
ENGI .        Max Pace                   :Engineer s Name
WITN .        Terry                      :Witness s Name
LATI .        41.309490 degrees          :Latitude
LONG .        -104.12429 degrees         :Longitude
LUL  .        Fort Morgan  CO            :Logging Unit Location
LUN  .        3022                       :Logging Unit Number
RUN  .        Run 1                      :Run Number
SON  .        CA0R-00056                 :Service Order Number
BHT  .DEGF     166.00000                 :Bottom Hole Temperature
BS   .IN         7.87500                 :Bit Size
MDEN .G/C3       2.65000                 :Matrix Density for Density Porosity
DFD  .LB/G       9.10000                 :Drilling Fluid Density
DFV  .S         63.00000                 :Drilling Fluid Viscosity
DFL  .C3         8.80000                 :Drilling Fluid Loss
RMFS .OHMM       1.24500                 :Resistivity of Mud Filtrate Sample
EKB  .F       5307.00000                 :Elevation of Kelly Bushing
EGL  .F       5295.00000                 :Elevation of Ground Level
BLI  .F       7730.00000                 :Bottom Log Interval
BSAL .PPM        0.00000                 :Borehole Salinity
FLEV .F          8.00000                 :Depth of Drilling Fluid Level to LMF (Log Measured From)
MCST .DEGF      61.00000                 :Mudcake Sample Temperature
MFST .DEGF      61.00000                 :Mud Filtrate Sample Temperature
MRT  .DEGF     166.00000                 :Maximum Recorded Temperature
MST  .DEGF      61.00000                 :Mud Sample Temperature
RMCS .OHMM       2.07500                 :Resistivity of Mud Cake Sample
RMS  .OHMM       1.66000                 :Resistivity of Mud Sample
RW   .OHMM       1.00000                 :Connate Water Resistivity
TDD  .F       7719.99951                 :Driller Total Depth
TDL  .F       7730.00000                 :Logger Total Depth
TLI  .F       1023.75000                 :Top Log Interval
HIDE .        Wildcat                    :Header Identifier
MATR .        SAND                       :Rock Matrix for Neutron Porosity Corrections
FNUM .           1.00000                 :F-Numerator for Formation Factor Formula
FEXP .           2.00000                 :Exponent "m" for Formation Factor Formula
DFT  .        Fresh Water                :Drilling Fluid Type
DFPH .           7.50000                 :Drilling Fluid pH
MCSS .        Calculated                 :Mudcake Sample Source
MFSS .        Calculated                 :Mud Filtrate Sample Source
FD   .G/C3       1.00000                 :Fluid Density
MSS  .        Active Tank                :Mud Sample Source
OS1  .                                   :Other Services Line 1
OS2  .                                   :Other Services Line 2
OS3  .                                   :Other Services Line 3
OS4  .                                   :Other Services Line 4
OS5  .                                   :Other Services Line 5
R1   .        Tool string run as per tool sketch :Remarks Line 1
R2   .        All Schlumberger depth control procedures followed :Remarks Line 2
R3   .        IDW used as primary depth reference :Remarks Line 3
R4   .        Z Chart used as secondary depth reference :Remarks Line 4
R5   .        Matrix Density zoned as per client request :Remarks Line 5
R6   .        Crew  Max Pace  Tyler Riter  Cody Bruns :Remarks Line 6
R7   .                                   :Remarks Line 7
R8   .                                   :Remarks Line 8
TCS  .        19 00 00                   :Time Circulation Stopped
TLAB .        06 35 50                   :Time Logger At Bottom
NMT  .        NOBARITE                   :HRDD Mud Type for Nuclear Devices
EPD  .C3         5295.000000             :Elevation of Permanent Datum above Mean Sea Level
APD  .F          12.000000               :Elevation of Depth Reference (LMF) above Permanent Datum
#-----------------------------------------------------------------------------
~CURVE INFORMATION
#MNEM.UNIT   API CODE                                  DESCRIPTION
#---- -----  --------                                  -----------------------
DEPT .F                                                :DEPTH (BOREHOLE) {F12.4}
AT10 .OHMM                                             :Array Induction Two Foot Resistivity A10 {F11.4}
AT30 .OHMM                                             :Array Induction Two Foot Resistivity A30 {F11.4}
AT90 .OHMM                                             :Array Induction Two Foot Resistivity A90 {F11.4}
DT   .US/F                                             :Delta-T (also called Slowness or Interval Transit Time) {F11.4}
GR   .GAPI                                             :Gamma Ray {F11.4}
HCAL .IN                                               :HRCC Caliper Calibrated {F11.4}
HDRA .G/C3                                             :Density Standoff Correction {F11.4}
NPHI .CFCF                                             :Thermal Neutron Porosity (original Ratio Method) in Selected Lithology {F11.4}
PEFZ .                                                 :Standard Resolution Formation Photoelectric Factor {F11.4}
RHOZ .G/C3                                             :Standard Resolution Formation Density {F11.4}
SP   .MV                                               :Spontaneous Potential {F11.4}
TNPH .CFCF                                             :Thermal Neutron Porosity (Ratio Method) in Selected Lithology {F11.4}
#-----------------------------------------------------------------------------
# 
#      DEPT        AF10       AF20       AF30       AF60       AF90       AO10       AO20       AO30       AO60       AO90       AT10       AT20       AT30       AT60       AT90     AHFCO60      AHMF      AHORT      AHORX      AHSCA     AHTCO10    AHTCO20    AHTCO30    AHTCO60    AHTCO90     AHTD1      AHTD2      AHTRT      AHTRX       CDF        CFTC       CNTC       CTEM       DCAL       DNPH       DPHZ       DSOZ        DT        ECGR        ED        GDEV        GR        GTEM       HCAL       HDRA       HDRB       HGR        HMIN       HMNO       HNPO       HPRA       HTNP       ITT         ND        NPHI       NPOR       PEFZ    PXND_HILT     RHOZ       RSOZ     RWA_HILT     RXO8       RXOZ        SP        SPAR       SPHI       STIT       TENS       TNPH     HTNP_SAN
#
~A  DEPT AT10 AT30 AT90 DT GR HCAL HDRA NPHI PEFZ RHOZ SP TNPH
# ...
6552.5000 3.2884 3.1984 3.1713 98.5552 208.2701 7.8021 0.0014 0.3589 3.7089 2.3834 201.0268 0.3010
6553.0000 3.3623 3.2781 3.1404 103.0311 215.2146 7.8021 0.0016 0.3586 3.7249 2.3725 200.6719 0.3345
6553.5000 3.2986 3.2643 3.2038 99.8564 223.2914 7.8021 0.0016 0.3676 3.7903 2.3741 200.5000 0.3226
6554.0000 4.2686 3.8744 3.7309 97.5768 217.7235 7.8396 -0.0001 0.3175 3.9223 2.3827 200.5982 0.3374
6554.5000 6.5996 6.2310 5.7594 96.7445 220.0781 7.7521 -0.0028 0.3118 4.0827 2.3999 200.3672 0.2834
6555.0000 9.6694 8.0139 7.2508 92.6359 210.5029 7.7771 -0.0042 0.2753 4.1755 2.4199 200.2768 0.2827
6555.5000 9.0878 7.5136 6.9254 92.7532 213.7150 7.7521 -0.0048 0.2702 4.2158 2.4331 200.4531 0.2516
6556.0000 7.5489 6.8604 6.4467 93.1102 212.9817 7.7771 -0.0056 0.2595 4.2071 2.4314 200.5078 0.2543
6556.5000 6.0125 5.8736 5.5587 94.6480 212.9816 7.7771 -0.0066 0.2795 4.1487 2.4256 200.5804 0.2630
6557.0000 5.3307 5.2823 5.0718 96.2137 213.1959 7.7771 -0.0070 0.2889 4.0800 2.4147 200.5156 0.2725
6557.5000 4.9119 4.9417 4.7527 96.0860 213.4398 7.7521 0.0097 0.3014 3.9837 2.4242 200.5804 0.2623
6558.0000 4.5862 4.6555 4.4093 94.4932 215.7953 7.7521 0.0107 0.3055 4.1054 2.4276 200.6016 0.2718
6558.5000 4.2108 4.2070 3.9979 95.0168 218.3644 7.7771 0.0108 0.3079 4.2572 2.4426 200.5859 0.2788
6559.0000 3.7935 3.6437 3.4629 93.4611 211.2685 7.7771 -0.0023 0.2951 4.4690 2.4408 200.0313 0.2743
6559.5000 4.4202 4.0980 3.8831 92.2575 208.6982 7.7771 0.0054 0.2727 4.5543 2.4428 199.1607 0.2577
6560.0000 5.8289 5.7666 5.2243 90.6925 202.0603 7.7521 0.0110 0.2561 4.6154 2.4421 198.1719 0.2397
6560.5000 7.3111 7.3778 6.4506 89.8906 196.9197 7.7771 0.0078 0.2404 4.6635 2.4439 197.4609 0.2341
6561.0000 7.9596 7.6103 7.0042 86.0894 194.9933 7.7771 -0.0013 0.2413 4.7075 2.4451 197.0804 0.2307
6561.5000 6.6400 6.7807 6.3737 87.7118 206.1290 7.7771 -0.0060 0.2714 4.6683 2.4479 197.4219 0.2383
6562.0000 5.9797 6.0982 5.6630 90.7744 219.9271 7.7771 -0.0055 0.2948 4.5919 2.4468 198.3125 0.2697
6562.5000 4.8319 4.9997 4.7903 91.9702 225.7691 7.7271 -0.0045 0.2992 4.5192 2.4474 197.7266 0.2815
6563.0000 5.1376 4.7185 4.6498 92.3073 223.8404 7.7271 -0.0033 0.2889 4.5296 2.4527 196.1328 0.2668
6563.5000 5.9916 5.6706 5.4177 91.9337 211.2054 7.7521 -0.0018 0.2866 4.5896 2.4650 195.2143 0.2512
6564.0000 6.8866 6.7875 6.5653 87.1076 185.5091 7.7771 -0.0007 0.2685 4.6511 2.4806 193.2578 0.2466
6564.5000 7.6591 7.4413 6.9341 84.1066 169.2352 7.7521 -0.0017 0.2267 4.7493 2.4865 190.3828 0.2253
6565.0000 7.7006 7.4554 6.8463 83.2103 164.3099 7.7896 -0.0043 0.2052 4.8629 2.4826 190.8571 0.1956
6565.5000 7.5569 7.2366 6.7265 81.1523 174.0989 7.7771 -0.0064 0.2155 4.9239 2.4762 191.9375 0.1952
6566.0000 7.4177 7.0331 6.5508 82.6524 180.9512 7.8021 -0.0066 0.2322 4.9010 2.4727 191.7143 0.2068
6566.5000 7.0492 6.9893 6.4730 84.3835 181.8077 7.7771 -0.0045 0.2409 4.8333 2.4746 191.2031 0.2156
6567.0000 6.4354 6.1687 5.8329 84.1769 180.0945 7.8021 -0.0015 0.2437 4.7883 2.4816 190.6016 0.2212
6567.5000 5.9462 5.6666 5.3349 82.1462 176.6687 7.8021 -0.0007 0.2331 4.8153 2.4837 189.6875 0.2186
6568.0000 7.1595 6.5370 6.1730 81.8823 177.3110 7.8021 -0.0002 0.2227 4.7905 2.4887 188.0781 0.2045
6568.5000 8.0265 7.5762 7.0749 81.5236 180.7366 7.7771 -0.0013 0.2145 4.7467 2.4852 188.3516 0.2026
6569.0000 8.3395 7.6970 7.1686 81.6316 183.3065 7.7771 -0.0023 0.2321 4.7053 2.4793 187.7054 0.1962
6569.5000 8.4890 8.0856 7.4630 82.2081 176.4542 7.7646 -0.0052 0.2284 4.8053 2.4670 186.4297 0.2037
6570.0000 8.0163 7.6516 7.1123 80.9704 157.6101 7.7771 -0.0075 0.2198 4.9286 2.4641 184.8438 0.1954
6570.5000 7.1611 7.0954 6.6405 78.8354 141.8861 7.7771 -0.0075 0.1968 4.9798 2.4740 183.1696 0.1926
6571.0000 6.6141 6.3372 5.9635 78.5317 141.2433 7.7896 -0.0045 0.1988 4.9119 2.4938 183.2656 0.1853
6571.5000 7.3981 7.0426 6.8297 78.2690 152.3786 7.7771 -0.0019 0.2035 4.8509 2.5056 185.6607 0.1957
6572.0000 8.3264 7.9138 7.2513 80.8005 156.7840 7.8021 -0.0008 0.2327 4.8233 2.5091 187.0938 0.1963
6572.5000 8.5360 8.0603 7.4071 82.3560 158.9254 7.7771 -0.0043 0.2530 4.8881 2.4970 188.1719 0.2107
6573.0000 8.4783 7.9611 7.4452 80.4056 150.7880 7.7521 -0.0061 0.2482 4.8893 2.4943 187.1875 0.2227
6573.5000 8.6733 8.2242 7.6144 80.0168 146.8715 7.7771 -0.0088 0.2335 4.9443 2.4817 185.0078 0.2194
6574.0000 8.8091 8.3938 7.7908 79.0403 152.8680 7.7771 -0.0068 0.2180 4.8840 2.4824 185.3828 0.2130
6574.5000 8.9236 8.6545 8.0257 78.5592 163.7895 7.7771 -0.0045 0.2299 4.8591 2.4840 185.1339 0.2097
6575.0000 9.2129 8.8097 8.1799 79.1459 169.1738 7.7771 -0.0015 0.2207 4.8273 2.4949 184.5703 0.2099
6575.5000 9.5451 8.9976 8.2954 79.4394 164.6761 7.7646 -0.0006 0.2142 4.8924 2.4999 183.4922 0.1918
6576.0000 8.9676 8.6508 7.8745 77.9163 158.0377 7.8021 -0.0004 0.1994 4.9646 2.5015 183.8482 0.1867
6576.5000 8.0632 7.7717 7.2910 76.5060 149.0434 7.7771 -0.0002 0.2016 5.0250 2.4975 182.9531 0.1790
6577.0000 7.7811 7.4196 6.9213 77.5782 145.6174 7.7771 0.0012 0.1978 5.0144 2.4964 183.1406 0.1822
6577.5000 8.0195 7.7497 7.2172 77.2283 155.2545 7.7771 0.0006 0.2069 5.0026 2.4882 184.3482 0.1899
6578.0000 7.8364 7.5750 7.1756 80.1661 175.3844 7.7771 0.0010 0.2297 4.9328 2.4916 185.7500 0.1996
6578.5000 7.5707 7.1159 6.6269 79.6402 162.1071 7.7771 -0.0002 0.2218 4.9184 2.4907 185.0000 0.2073
6579.0000 8.2982 7.7198 7.1575 78.0420 140.0497 7.7771 -0.0013 0.2068 4.9545 2.4922 182.0000 0.1782
6579.5000 8.7677 8.3480 7.5516 75.4971 120.3486 7.7771 -0.0024 0.1698 5.0675 2.4814 182.5536 0.1680
6580.0000 8.8302 8.2885 7.5959 74.5453 129.9857 7.7896 -0.0041 0.1764 5.1156 2.4771 183.7109 0.1633
6580.5000 8.1533 7.8174 7.2287 76.8027 144.7613 7.7771 -0.0057 0.1969 5.1147 2.4734 184.4219 0.1813
6581.0000 7.7656 7.3231 6.8467 77.3614 139.3767 7.7771 -0.0069 0.2050 5.0178 2.4832 183.8047 0.1896
6581.5000 7.0623 6.6755 6.2478 76.7795 123.5300 7.7771 -0.0059 0.1994 4.9515 2.4923 181.8929 0.1744
6582.0000 7.4118 6.8705 6.4118 73.6123 101.0453 7.7771 -0.0040 0.1716 4.9076 2.5041 179.2031 0.1594
6582.5000 7.5277 7.1910 6.7091 70.5446 88.0743 7.7771 -0.0041 0.1541 4.9543 2.5077 177.6161 0.1440
6583.0000 7.8149 7.4001 6.7911 70.1430 79.5083 7.8021 -0.0050 0.1423 4.9717 2.5096 178.1250 0.1440
6583.5000 7.7261 7.5757 6.9366 75.1851 89.7868 7.8021 -0.0048 0.1867 4.8707 2.5131 181.4453 0.1521
6584.0000 7.2566 6.9070 6.4455 78.1196 124.5398 7.8021 -0.0061 0.2245 4.7944 2.5031 186.7143 0.1948
6584.5000 7.0649 6.6345 6.2482 82.0327 160.3021 7.7771 -0.0070 0.2634 4.7587 2.4927 189.9219 0.2284
6585.0000 7.1832 6.7172 6.1926 86.4340 185.7861 7.8271 -0.0089 0.2525 4.8227 2.4794 190.7969 0.2531
6585.5000 6.6085 6.1605 5.8109 85.2937 188.7221 7.8271 -0.0091 0.2656 4.8336 2.4761 192.1429 0.2368
6586.0000 6.1345 5.7322 5.3584 84.6035 190.6497 7.7771 -0.0089 0.2579 4.8129 2.4741 192.5313 0.2555
6586.5000 6.5910 6.1755 5.7798 86.8635 194.5032 7.7521 -0.0086 0.2537 4.7768 2.4714 192.5000 0.2417
6587.0000 6.9254 6.5122 6.0619 86.6962 189.8533 7.7771 -0.0067 0.2380 4.6859 2.4758 192.9196 0.2355
6587.5000 6.7864 6.1913 5.8326 87.2566 196.9201 7.7771 -0.0063 0.2387 4.6463 2.4729 193.3594 0.2201
6588.0000 7.0568 6.4997 6.0127 88.4546 194.3506 7.7521 -0.0009 0.2495 4.6475 2.4664 192.9464 0.2224
6588.5000 7.3400 7.0197 6.3871 87.6602 209.0352 7.7771 -0.0002 0.2542 4.7288 2.4579 191.6719 0.2242
6589.0000 6.9992 6.7988 6.2831 87.7720 205.1803 7.7771 -0.0006 0.2516 4.7921 2.4598 189.9922 0.2298
6589.5000 6.0793 5.7569 5.3547 87.7692 211.3911 7.7771 -0.0071 0.2413 4.8991 2.4591 188.2946 0.2320
6590.0000 5.7525 5.4982 5.0671 87.4128 200.2253 7.7771 -0.0098 0.2531 4.9664 2.4567 189.3438 0.2227
6590.5000 7.0187 6.6794 6.0237 86.7695 198.8790 7.7771 -0.0094 0.2791 5.0098 2.4514 191.2422 0.2320
6591.0000 7.9425 7.9229 6.8987 86.1664 196.0943 7.7521 -0.0086 0.2932 5.0204 2.4510 191.7679 0.2564
6591.5000 8.3474 8.4485 6.9345 85.5600 205.7309 7.7771 -0.0078 0.2749 5.0758 2.4529 191.8594 0.2711
6592.0000 8.3790 8.8841 7.7111 84.9573 200.8354 7.7521 -0.0075 0.2572 5.1336 2.4577 192.0781 0.2553
6592.5000 8.4297 9.0684 8.2788 84.4173 202.9774 7.7521 -0.0070 0.2385 5.0971 2.4670 192.0089 0.2328
