~VERSION INFORMATION
VERS.           1.2   :CWLS Log ASCII Standard - VERSION 1.2
WRAP.           NO    :One Line per depth step
PROD.  Schlumberger   :LAS Producer
PROG.  DLIS to ASCII 17C0-152                          :LAS Program name and version
CREA.        2013/11/03 06:14                          :LAS Creation date {YYYY/MM/DD hh:mm}
DLIS_CREA.  2013-Nov-02 20:25                          :DLIS Creation date and time {YYYY-MMM-DD hh:mm}
SOURCE.     36f617ea-a8f9-4f31-9cfe-b4906ac6e0fc       :DLIS File Name
#--------------------------------------------------
~WELL INFORMATION
#MNEM.UNIT      DATA             DESCRIPTION
#---- ------ --------------   -----------------------------
STRT .F      1000.5000       :START DEPTH        # original; data subset to 5500-8000
STOP .F      7745.0000       :STOP DEPTH        # original; data subset to 5500-8000
STEP .F       0.5000         :STEP       
NULL .          -999.25      :NULL VALUE
COMP .                 COMPANY:  Bear Oil & Gas, Inc.               
WELL .                    WELL:  Marquardt 34-31                    
FLD  .                   FIELD:  Wildcat                            
LOC  .                LOCATION:  SWSE, Sec. 31, T16N, R60W          
CNTY .                  COUNTY:  Laramie                            
STAT .                   STATE:  Wyoming                            
CTRY .                 COUNTRY:                                     
SRVC .         SERVICE COMPANY:  Schlumberger                       
LATI .DEG             LATITUDE:  41.305550 degrees                  
LONG .DEG            LONGITUDE:  -104.12401 degrees                 
API  .              API NUMBER:  49-021-21046-0000                  
DATE .                LOG DATE:  02-Nov-2013
UWI  .          UNIQUE WELL ID:                                     
#-----------------------------------------------------------------------------
~PARAMETER INFORMATION
#MNEM.UNIT    VALUE                      DESCRIPTION
#---- -----   --------------------       ------------------------
CN   .        Bear Oil & Gas  Inc.       :Company Name
WN   .        Marquardt 34-31            :Well Name
FN   .        Wildcat                    :Field Name
FL   .        SWSE  Sec. 31  T16N  R60W  :Field Location
FL1  .        SHL  1265' FSL X 1340' FEL :Field Location, Line 1
COUN .        Laramie                    :County or Parish
STAT .        Wyoming                    :State or Province
NATI .                                   :Nation
DATE .        02-Nov-2013                :Tools Above Rotary Table Date
APIN .        49-021-21046-0000          :API Well Number
SECT .        31                         :Section
TOWN .        16N                        :Township
RANG .        60W                        :Range
DMF  .        KB                         :Drilling Measured From (Name of Drilling Elevation Reference)
LMF  .        KB                         :Logging Measured From (Name of Logging Elevation Reference)
PDAT .        GL                         :Permanent Datum
ENGI .        Heather Hoffman            :Engineer s Name
WITN .        Terry Eittreim             :Witness s Name
LATI .        41.305550 degrees          :Latitude
LONG .        -104.12401 degrees         :Longitude
LUL  .        Fort Morgan  CO            :Logging Unit Location
LUN  .        2135                       :Logging Unit Number
RUN  .        PEX BHC AIT                :Run Number
SON  .        CQQL-00004                 :Service Order Number
BHT  .DEGF     185.00000                 :Bottom Hole Temperature
BS   .IN         7.87500                 :Bit Size
MDEN .G/C3       2.65000                 :Matrix Density for Density Porosity
DFD  .LB/G       9.10000                 :Drilling Fluid Density
DFV  .S         82.00000                 :Drilling Fluid Viscosity
DFL  .C3      -999.25000                 :Drilling Fluid Loss
RMFS .OHMM       1.18400                 :Resistivity of Mud Filtrate Sample
EKB  .F       10594.00000                :Elevation of Kelly Bushing
EGL  .F       5291.00000                 :Elevation of Ground Level
BLI  .F       7724.00000                 :Bottom Log Interval
BSAL .PPM        0.00000                 :Borehole Salinity
FLEV .F         50.00000                 :Depth of Drilling Fluid Level to LMF (Log Measured From)
MCST .DEGF      85.00000                 :Mudcake Sample Temperature
MFST .DEGF      85.00000                 :Mud Filtrate Sample Temperature
MRT  .DEGF     185.00000                 :Maximum Recorded Temperature
MST  .DEGF      85.00000                 :Mud Sample Temperature
RMCS .OHMM       1.77600                 :Resistivity of Mud Cake Sample
RMS  .OHMM       1.48000                 :Resistivity of Mud Sample
RW   .OHMM       1.00000                 :Connate Water Resistivity
TDD  .F       7719.99951                 :Driller Total Depth
TDL  .F       7724.00000                 :Logger Total Depth
TLI  .F       1024.00000                 :Top Log Interval
HIDE .        Wildcat                    :Header Identifier
MATR .        SAND                       :Rock Matrix for Neutron Porosity Corrections
FNUM .           1.00000                 :F-Numerator for Formation Factor Formula
FEXP .           2.00000                 :Exponent "m" for Formation Factor Formula
DFT  .        WATER                      :Drilling Fluid Type
DFPH .        -999.25000                 :Drilling Fluid pH
MCSS .        Calculated                 :Mudcake Sample Source
MFSS .        Calculated                 :Mud Filtrate Sample Source
FD   .G/C3       1.00000                 :Fluid Density
MSS  .        Active Tank                :Mud Sample Source
OS1  .                                   :Other Services Line 1
OS2  .                                   :Other Services Line 2
OS3  .                                   :Other Services Line 3
OS4  .                                   :Other Services Line 4
OS5  .                                   :Other Services Line 5
R1   .                                   :Remarks Line 1
R2   .                                   :Remarks Line 2
R3   .                                   :Remarks Line 3
R4   .                                   :Remarks Line 4
R5   .                                   :Remarks Line 5
R6   .                                   :Remarks Line 6
R7   .                                   :Remarks Line 7
R8   .        This is first run in hole. :Remarks Line 8
TCS  .        09 55 00                   :Time Circulation Stopped
TLAB .        20 18 33                   :Time Logger At Bottom
NMT  .        NOBARITE                   :HRDD Mud Type for Nuclear Devices
EPD  .C3         5291.000000             :Elevation of Permanent Datum above Mean Sea Level
APD  .F         5303.000000              :Elevation of Depth Reference (LMF) above Permanent Datum
#-----------------------------------------------------------------------------
~CURVE INFORMATION
#MNEM.UNIT   API CODE                                  DESCRIPTION
#---- -----  --------                                  -----------------------
DEPT .F                                                :DEPTH (BOREHOLE) {F12.4}
AT10 .OHMM                                             :Array Induction Two Foot Resistivity A10 {F11.4}
AT30 .OHMM                                             :Array Induction Two Foot Resistivity A30 {F11.4}
AT90 .OHMM                                             :Array Induction Two Foot Resistivity A90 {F11.4}
DT   .US/F                                             :Delta-T (also called Slowness or Interval Transit Time) {F11.4}
GR   .GAPI                                             :Gamma Ray {F11.4}
HCAL .IN                                               :HRCC Caliper Calibrated {F11.4}
HDRA .G/C3                                             :Density Standoff Correction {F11.4}
NPHI .CFCF                                             :Thermal Neutron Porosity (original Ratio Method) in Selected Lithology {F11.4}
PEFZ .                                                 :Standard Resolution Formation Photoelectric Factor {F11.4}
RHOZ .G/C3                                             :Standard Resolution Formation Density {F11.4}
SP   .MV                                               :Spontaneous Potential {F11.4}
TNPH .CFCF                                             :Thermal Neutron Porosity (Ratio Method) in Selected Lithology {F11.4}
#-----------------------------------------------------------------------------
# 
#      DEPT        AF10       AF20       AF30       AF60       AF90       AO10       AO20       AO30       AO60       AO90       AT10       AT20       AT30       AT60       AT90     AHFCO60      AHMF      AHORT      AHORX      AHSCA     AHTCO10    AHTCO20    AHTCO30    AHTCO60    AHTCO90     AHTD1      AHTD2      AHTRT      AHTRX       CDF        CFTC       CNTC       CTEM       DCAL       DNPH       DPHZ       DSOZ        DT        ECGR        ED        GDEV        GR        GTEM       HCAL       HDRA       HDRB       HGR        HMIN       HMNO       HNPO       HPRA       HTNP       ITT         ND        NPHI       NPOR       PEFZ    PXND_HILT     RHOZ       RSOZ     RWA_HILT     RXO8       RXOZ        SP        SPAR       SPHI       STIT       TENS       TNPH     HTNP_SAN
#
~A  DEPT AT10 AT30 AT90 DT GR HCAL HDRA NPHI PEFZ RHOZ SP TNPH
# ...
6101.5000 3.9683 3.8433 3.6750 83.8124 96.1828 7.7364 -0.0026 0.2493 2.8821 2.5321 -199.9297 0.2406
6102.0000 3.8931 3.7245 3.5761 83.9415 96.2710 7.7141 -0.0024 0.2588 2.8784 2.5291 -199.5703 0.2485
6102.5000 3.8818 3.6949 3.5452 83.8857 98.2101 7.7141 -0.0011 0.2566 2.8342 2.5345 -199.7500 0.2502
6103.0000 3.9578 3.8071 3.6475 84.2179 96.9172 7.7141 0.0006 0.2711 2.7953 2.5424 -199.8672 0.2449
6103.5000 3.9666 3.8133 3.6559 83.7555 97.3874 7.7141 0.0001 0.2560 2.8246 2.5394 -199.5536 0.2587
6104.0000 3.8916 3.7102 3.5662 83.7924 102.5300 7.6918 -0.0002 0.2661 2.8801 2.5369 -199.2500 0.2463
6104.5000 3.9112 3.7134 3.5675 83.6681 106.9965 7.6918 0.0013 0.2534 2.9324 2.5436 -199.0938 0.2538
6105.0000 3.9391 3.7738 3.6235 84.0648 106.0271 7.6918 0.0030 0.2602 2.9253 2.5563 -199.0781 0.2447
6105.5000 3.8668 3.7055 3.5579 83.9305 104.8225 7.7364 0.0033 0.2508 2.8894 2.5658 -199.3571 0.2547
6106.0000 3.7994 3.6474 3.5012 83.9493 103.5001 7.6918 -0.0001 0.2564 2.8641 2.5576 -199.6563 0.2430
6106.5000 3.8566 3.6745 3.5246 84.0137 98.1223 7.7364 -0.0016 0.2545 2.8512 2.5523 -199.8304 0.2473
6107.0000 3.8502 3.6885 3.5337 83.7646 100.5611 7.6918 -0.0043 0.2634 2.8734 2.5407 -199.8571 0.2481
6107.5000 3.8356 3.6647 3.5033 83.8995 100.2380 7.7141 -0.0049 0.2613 2.8970 2.5391 -199.5781 0.2564
6108.0000 3.7950 3.6309 3.4727 84.1386 105.8214 7.7141 -0.0047 0.2678 2.9146 2.5405 -199.2188 0.2541
6108.5000 3.7188 3.5493 3.3893 84.5955 102.6768 7.7141 -0.0035 0.2593 2.9223 2.5415 -199.4554 0.2587
6109.0000 3.7888 3.5997 3.4380 84.6018 101.9721 7.7141 -0.0026 0.2617 2.8954 2.5409 -199.7969 0.2458
6109.5000 3.8658 3.6925 3.5126 83.7864 106.9680 7.7364 -0.0044 0.2417 2.8976 2.5301 -199.9821 0.2468
6110.0000 3.9917 3.7944 3.5996 83.3933 105.7925 7.7029 -0.0044 0.2436 2.9152 2.5264 -200.0625 0.2292
6110.5000 3.8840 3.7501 3.5648 83.5999 103.9113 7.7364 -0.0039 0.2474 2.9521 2.5242 -199.8125 0.2303
6111.0000 3.7972 3.6431 3.4737 83.7883 92.7441 7.7141 -0.0001 0.2630 2.9447 2.5391 -199.5625 0.2358
6111.5000 3.7860 3.6031 3.4329 84.2025 94.3904 7.7141 0.0009 0.2566 2.9059 2.5469 -199.6016 0.2530
6112.0000 3.8222 3.6478 3.4795 84.6241 94.2141 7.7364 0.0023 0.2569 2.8636 2.5589 -199.3929 0.2507
6112.5000 3.8462 3.6617 3.5012 84.1402 101.0024 7.6918 -0.0006 0.2587 2.8750 2.5502 -199.2188 0.2521
6113.0000 3.8806 3.6929 3.5197 83.9077 101.0021 7.7364 -0.0020 0.2734 2.8934 2.5478 -199.4821 0.2470
6113.5000 3.9096 3.7409 3.5552 83.9927 101.6190 7.7141 -0.0043 0.2698 2.9028 2.5409 -199.6094 0.2541
6114.0000 3.9122 3.7468 3.5701 83.7155 94.0077 7.7252 -0.0060 0.2755 2.9062 2.5340 -199.6518 0.2565
6114.5000 3.8514 3.6980 3.5268 83.8794 92.3622 7.7141 -0.0069 0.2756 2.9085 2.5282 -199.6484 0.2726
6115.0000 3.8182 3.6575 3.4898 84.2235 92.5678 7.6918 -0.0080 0.2618 2.9242 2.5203 -199.3393 0.2720
6115.5000 3.7696 3.6128 3.4509 84.2145 105.4983 7.7141 -0.0065 0.2559 2.9033 2.5274 -199.2422 0.2542
6116.0000 3.7038 3.5743 3.4191 84.9943 108.9954 7.6918 -0.0053 0.2545 2.8917 2.5341 -199.0982 0.2498
6116.5000 3.6788 3.5145 3.3659 84.7887 110.9351 7.7364 -0.0047 0.2733 2.8844 2.5378 -199.3438 0.2471
6117.0000 3.7742 3.5999 3.4442 84.6489 106.2331 7.7141 -0.0056 0.2714 2.8962 2.5317 -199.8750 0.2594
6117.5000 3.8426 3.6769 3.5148 84.6101 102.2657 7.6918 -0.0066 0.2756 2.8877 2.5263 -200.0625 0.2602
6118.0000 3.7757 3.6154 3.4614 84.3903 102.5891 7.7364 -0.0064 0.2537 2.8583 2.5279 -199.6518 0.2670
6118.5000 3.7235 3.5411 3.3879 84.7555 104.2350 7.7141 -0.0042 0.2535 2.8074 2.5396 -199.3125 0.2481
6119.0000 3.7599 3.5723 3.4182 84.5580 103.6766 7.7141 -0.0044 0.2473 2.8185 2.5397 -199.3661 0.2468
6119.5000 3.8644 3.6908 3.5179 84.0923 103.5885 7.7364 -0.0042 0.2535 2.8392 2.5420 -199.7344 0.2401
6120.0000 3.9636 3.7735 3.5905 83.7728 97.2111 7.7364 -0.0033 0.2551 2.8602 2.5481 -199.8929 0.2384
6120.5000 3.8942 3.7478 3.5680 83.7135 99.1801 7.7141 -0.0022 0.2667 2.8673 2.5529 -199.6406 0.2456
6121.0000 3.8429 3.6548 3.4824 83.7737 102.3536 7.7141 -0.0021 0.2809 2.8922 2.5509 -199.2679 0.2617
6121.5000 3.8382 3.6377 3.4669 84.1286 104.7341 7.7141 -0.0039 0.2782 2.9221 2.5404 -199.2344 0.2728
6122.0000 3.8361 3.6646 3.4789 83.9931 98.2393 7.7141 -0.0031 0.2725 2.9223 2.5413 -199.0893 0.2654
6122.5000 3.8379 3.6576 3.4863 84.0036 93.1854 7.7141 -0.0009 0.2788 2.8916 2.5480 -199.1719 0.2625
6123.0000 3.8333 3.6475 3.4744 83.9682 93.8905 7.7141 0.0015 0.2883 2.8910 2.5558 -199.2857 0.2735
6123.5000 3.9183 3.7027 3.5288 83.8000 104.1467 7.6918 0.0040 0.2842 2.8916 2.5665 -199.5000 0.2778
6124.0000 4.0113 3.8321 3.6403 83.4542 108.7895 7.7475 0.0041 0.2575 2.8999 2.5761 -199.7768 0.2682
6124.5000 4.0596 3.8748 3.6927 83.4744 109.7298 7.6918 0.0038 0.2528 2.8719 2.5792 -199.5313 0.2484
6125.0000 3.9361 3.7577 3.6024 83.6427 114.4319 7.7029 -0.0003 0.2521 2.8562 2.5665 -199.2857 0.2489
6125.5000 3.8594 3.6844 3.5312 83.9744 113.6091 7.6918 -0.0029 0.2530 2.8615 2.5502 -199.3359 0.2475
6126.0000 3.8321 3.6721 3.5169 84.6146 111.2583 7.6918 -0.0073 0.2478 2.9034 2.5288 -199.3214 0.2454
6126.5000 3.7678 3.5991 3.4600 84.5065 100.2086 7.7141 -0.0074 0.2549 2.9094 2.5228 -199.1172 0.2390
6127.0000 3.7279 3.5586 3.4138 84.8650 93.8318 7.6918 -0.0075 0.2715 2.9096 2.5133 -199.2143 0.2464
6127.5000 3.7639 3.5908 3.4360 84.9943 93.5967 7.7141 -0.0052 0.2851 2.9034 2.5149 -199.3281 0.2614
6128.0000 3.7862 3.6119 3.4504 84.8711 96.0652 7.6918 -0.0024 0.2764 2.9206 2.5206 -199.2734 0.2727
6128.5000 3.8152 3.6367 3.4553 84.6125 96.7407 7.6918 -0.0046 0.2780 2.9313 2.5363 -199.3839 0.2673
6129.0000 3.8319 3.6487 3.4590 84.7498 97.3578 7.7141 -0.0026 0.2702 2.9219 2.5531 -199.3304 0.2699
6129.5000 3.7823 3.6012 3.4303 84.7458 93.9490 7.7141 -0.0031 0.2711 2.9062 2.5634 -198.9922 0.2629
6130.0000 3.7678 3.5898 3.4221 84.7446 102.5300 7.7141 0.0021 0.2559 2.8791 2.5608 -199.0547 0.2636
6130.5000 3.7458 3.5677 3.3933 85.3752 100.2669 7.6918 -0.0004 0.2533 2.8832 2.5453 -199.2589 0.2467
6131.0000 3.6826 3.5354 3.3622 85.5888 106.1446 7.7029 -0.0009 0.2668 2.8917 2.5345 -199.1797 0.2444
6131.5000 3.6855 3.5119 3.3394 85.1025 105.0869 7.7141 -0.0041 0.2761 2.9278 2.5265 -199.1964 0.2542
6132.0000 3.8464 3.6317 3.4494 84.1660 104.6170 7.6918 -0.0052 0.2619 2.9610 2.5314 -199.3516 0.2584
6132.5000 4.0707 3.8586 3.6535 83.6578 104.8221 7.6918 -0.0049 0.2436 2.9899 2.5421 -199.4821 0.2472
6133.0000 3.9363 3.7811 3.5788 83.2997 97.7694 7.7029 -0.0030 0.2381 2.9974 2.5529 -199.1875 0.2368
6133.5000 3.8339 3.6327 3.4624 83.3275 100.2969 7.7141 0.0005 0.2511 2.9369 2.5646 -199.1339 0.2355
6134.0000 3.8312 3.6108 3.4442 84.4081 95.8597 7.7029 0.0000 0.2550 2.8901 2.5549 -199.3516 0.2387
6134.5000 3.7733 3.6044 3.4260 84.3275 97.3880 7.6918 0.0000 0.2558 2.8581 2.5495 -199.1875 0.2405
6135.0000 3.7271 3.5779 3.4054 84.6192 96.2710 7.7252 -0.0028 0.2524 2.8810 2.5357 -199.1563 0.2479
6135.5000 3.6554 3.4945 3.3333 85.2345 104.4109 7.7141 -0.0028 0.2552 2.8863 2.5376 -198.9286 0.2536
6136.0000 3.5856 3.4083 3.2550 85.1222 108.2896 7.7364 -0.0037 0.2610 2.8964 2.5363 -199.0547 0.2527
6136.5000 3.6695 3.4832 3.3265 85.1907 109.2007 7.7364 -0.0015 0.2689 2.9034 2.5441 -199.1875 0.2506
6137.0000 3.7268 3.5505 3.3856 84.9772 103.8817 7.7141 0.0030 0.2695 2.9403 2.5547 -199.1953 0.2572
6137.5000 3.6893 3.5226 3.3616 84.8967 103.0884 7.7364 0.0056 0.2626 2.9619 2.5612 -198.9766 0.2617
6138.0000 3.6641 3.4894 3.3303 85.1949 100.2969 7.6918 0.0055 0.2590 2.9931 2.5627 -199.2054 0.2564
6138.5000 3.7168 3.5190 3.3735 85.0268 96.3595 7.6918 0.0018 0.2677 2.9950 2.5581 -199.5547 0.2494
6139.0000 3.7903 3.6228 3.4684 84.9054 92.4506 7.6918 0.0004 0.2681 2.9945 2.5558 -199.5625 0.2490
6139.5000 3.8638 3.6783 3.5194 84.4434 100.1790 7.7364 -0.0021 0.2700 2.9727 2.5451 -199.6016 0.2510
6140.0000 3.8288 3.6668 3.5164 84.5912 105.0571 7.7141 -0.0039 0.2641 2.9486 2.5330 -199.3839 0.2598
6140.5000 3.7904 3.6180 3.4772 84.6807 102.5891 7.7141 -0.0034 0.2746 2.8997 2.5310 -199.3047 0.2575
6141.0000 3.7302 3.5691 3.4284 84.8933 96.0358 7.6918 0.0015 0.2747 2.8661 2.5456 -199.5179 0.2706
