~VERSION INFORMATION
VERS.           1.2   :CWLS Log ASCII Standard - VERSION 1.2
WRAP.           NO    :One Line per depth step
PROD.  Schlumberger   :LAS Producer
PROG.  DLIS to ASCII 17C0-152                          :LAS Program name and version
CREA.        2013/08/16 09:04                          :LAS Creation date {YYYY/MM/DD hh:mm}
DLIS_CREA.  2013-Aug-16 00:16                          :DLIS Creation date and time {YYYY-MMM-DD hh:mm}
SOURCE.     960568ea-4174-41e0-a405-0f32a02141a6       :DLIS File Name
#--------------------------------------------------
~WELL INFORMATION
#MNEM.UNIT      DATA             DESCRIPTION
#---- ------ --------------   -----------------------------
STRT .F      457.0000        :START DEPTH        # original; data subset to 5500-8000
STOP .F      7701.0000       :STOP DEPTH        # original; data subset to 5500-8000
STEP .F       0.5000         :STEP       
NULL .          -999.25      :NULL VALUE
COMP .                 COMPANY:  Bear Oil & Gas, Inc.               
WELL .                    WELL:  Fornstrom 13-32A                   
FLD  .                   FIELD:  Wildcat                            
LOC  .                LOCATION:  SHL: NWSW 1925' FSL & 540" FWL     
CNTY .                  COUNTY:  Laramie                            
STAT .                   STATE:  Wyoming                            
CTRY .                 COUNTRY:  United States                      
SRVC .         SERVICE COMPANY:  Schlumberger                       
LATI .DEG             LATITUDE:  41.307320 degrees                  
LONG .DEG            LONGITUDE:  -104.11715 degrees                 
API  .              API NUMBER:  49-021-21022                       
DATE .                LOG DATE:  15-Aug-2013
UWI  .          UNIQUE WELL ID:  49021210220000                     
#-----------------------------------------------------------------------------
~PARAMETER INFORMATION
#MNEM.UNIT    VALUE                      DESCRIPTION
#---- -----   --------------------       ------------------------
CN   .        Bear Oil & Gas  Inc.       :Company Name
WN   .        Fornstrom 13-32A           :Well Name
FN   .        Wildcat                    :Field Name
FL   .        SHL  NWSW 1925' FSL & 540  FWL :Field Location
FL1  .        Sec. 32  T. 16N  R. 60W    :Field Location, Line 1
COUN .        Laramie                    :County or Parish
STAT .        Wyoming                    :State or Province
NATI .        United States              :Nation
DATE .        15-Aug-2013                :Tools Above Rotary Table Date
APIN .        49-021-21022               :API Well Number
SECT .        32                         :Section
TOWN .        16N                        :Township
RANG .        60W                        :Range
DMF  .        KB                         :Drilling Measured From (Name of Drilling Elevation Reference)
LMF  .        KB                         :Logging Measured From (Name of Logging Elevation Reference)
PDAT .        GL                         :Permanent Datum
ENGI .        Max Pace                   :Engineer s Name
WITN .        Tery Eittreim              :Witness s Name
LATI .        41.307320 degrees          :Latitude
LONG .        -104.11715 degrees         :Longitude
LUL  .        Fort Morgan  CO            :Logging Unit Location
LUN  .        3030                       :Logging Unit Number
RUN  .        Run 1                      :Run Number
SON  .        CA0R-00040                 :Service Order Number
BHT  .DEGF     168.00000                 :Bottom Hole Temperature
BS   .IN         7.87500                 :Bit Size
MDEN .G/C3       2.65000                 :Matrix Density for Density Porosity
DFD  .LB/G       8.80000                 :Drilling Fluid Density
DFV  .S         36.00000                 :Drilling Fluid Viscosity
DFL  .C3         5.00000                 :Drilling Fluid Loss
RMFS .OHMM       1.11000                 :Resistivity of Mud Filtrate Sample
EKB  .F       5298.00000                 :Elevation of Kelly Bushing
EGL  .F       5286.00000                 :Elevation of Ground Level
BLI  .F       7687.00000                 :Bottom Log Interval
BSAL .PPM     3295.90967                 :Borehole Salinity
FLEV .F          8.00000                 :Depth of Drilling Fluid Level to LMF (Log Measured From)
MCST .DEGF      84.00000                 :Mudcake Sample Temperature
MFST .DEGF      84.00000                 :Mud Filtrate Sample Temperature
MRT  .DEGF     168.00000                 :Maximum Recorded Temperature
MST  .DEGF      84.00000                 :Mud Sample Temperature
RMCS .OHMM       1.85000                 :Resistivity of Mud Cake Sample
RMS  .OHMM       1.48000                 :Resistivity of Mud Sample
RW   .OHMM       1.00000                 :Connate Water Resistivity
TDD  .F       7680.00000                 :Driller Total Depth
TDL  .F       7687.00000                 :Logger Total Depth
TLI  .F       1026.25000                 :Top Log Interval
HIDE .        Wildcat                    :Header Identifier
MATR .        SAND                       :Rock Matrix for Neutron Porosity Corrections
FNUM .           1.00000                 :F-Numerator for Formation Factor Formula
FEXP .           2.00000                 :Exponent "m" for Formation Factor Formula
DFT  .        Fresh Water                :Drilling Fluid Type
DFPH .           8.50000                 :Drilling Fluid pH
MCSS .        Calculated                 :Mudcake Sample Source
MFSS .        Calculated                 :Mud Filtrate Sample Source
FD   .G/C3       1.00000                 :Fluid Density
MSS  .        Active Tank                :Mud Sample Source
OS1  .                                   :Other Services Line 1
OS2  .                                   :Other Services Line 2
OS3  .                                   :Other Services Line 3
OS4  .                                   :Other Services Line 4
OS5  .                                   :Other Services Line 5
R1   .                                   :Remarks Line 1
R2   .                                   :Remarks Line 2
R3   .                                   :Remarks Line 3
R4   .                                   :Remarks Line 4
R5   .                                   :Remarks Line 5
R6   .                                   :Remarks Line 6
R7   .                                   :Remarks Line 7
R8   .                                   :Remarks Line 8
TCS  .        14 00 00                   :Time Circulation Stopped
TLAB .        22 20 59                   :Time Logger At Bottom
NMT  .        NOBARITE                   :HRDD Mud Type for Nuclear Devices
EPD  .F         5286.000000              :Elevation of Permanent Datum above Mean Sea Level
APD  .F          12.000000               :Elevation of Depth Reference (LMF) above Permanent Datum
#-----------------------------------------------------------------------------
~CURVE INFORMATION
#MNEM.UNIT   API CODE                                  DESCRIPTION
#---- -----  --------                                  -----------------------
DEPT .F                                                :DEPTH (BOREHOLE) {F12.4}
AT10 .OHMM                                             :Array Induction Two Foot Resistivity A10 {F11.4}
AT30 .OHMM                                             :Array Induction Two Foot Resistivity A30 {F11.4}
AT90 .OHMM                                             :Array Induction Two Foot Resistivity A90 {F11.4}
GR   .GAPI                                             :Gamma Ray {F11.4}
HCAL .IN                                               :HRCC Caliper Calibrated {F11.4}
HDRA .G/C3                                             :Density Standoff Correction {F11.4}
NPHI .CFCF                                             :Thermal Neutron Porosity (original Ratio Method) in Selected Lithology {F11.4}
PEFZ .                                                 :Standard Resolution Formation Photoelectric Factor {F11.4}
RHOZ .G/C3                                             :Standard Resolution Formation Density {F11.4}
SP   .MV                                               :Spontaneous Potential {F11.4}
TNPH .CFCF                                             :Thermal Neutron Porosity (Ratio Method) in Selected Lithology {F11.4}
#-----------------------------------------------------------------------------
# 
#      DEPT        AF10       AF20       AF30       AF60       AF90       AO10       AO20       AO30       AO60       AO90       AT10       AT20       AT30       AT60       AT90     AHFCO60      AHMF      AHORT      AHORX      AHSCA     AHTCO10    AHTCO20    AHTCO30    AHTCO60    AHTCO90     AHTD1      AHTD2      AHTRT      AHTRX       CDF        CFTC       CNTC       CTEM       DCAL       DNPH       DPHZ       DSOZ       ECGR        ED        GDEV        GR        GTEM       HCAL       HDRA       HDRB       HGR        HMIN       HMNO       HNPO       HPRA       HTNP        ND        NPHI       NPOR       PEFZ    PXND_HILT     RHOZ       RSOZ     RWA_HILT     RXO8       RXOZ        SP        SPAR       STIT       TENS       TNPH     HTNP_SAN
#
~A  DEPT AT10 AT30 AT90 GR HCAL HDRA NPHI PEFZ RHOZ SP TNPH
# ...
6966.5000 4.7819 4.4340 4.2181 103.4423 7.8645 -0.0023 0.2155 3.5504 2.5530 59.9063 0.2034
6967.0000 4.8202 4.5073 4.2661 96.2958 7.8530 -0.0042 0.2151 3.6043 2.5461 59.9643 0.2043
6967.5000 4.8393 4.5057 4.2573 100.1716 7.8530 -0.0035 0.2114 3.5976 2.5544 60.1696 0.1990
6968.0000 4.8483 4.5247 4.2605 102.1701 7.8530 -0.0005 0.2066 3.5625 2.5683 60.0268 0.1949
6968.5000 4.7986 4.5071 4.2530 95.7503 7.8761 0.0016 0.2094 3.5516 2.5760 60.1719 0.1881
6969.0000 4.7149 4.4034 4.1808 98.4154 7.8530 -0.0003 0.2114 3.5845 2.5682 60.2411 0.1935
6969.5000 4.6054 4.3070 4.0849 100.0510 7.8530 -0.0016 0.2147 3.5939 2.5678 59.9196 0.1947
6970.0000 4.6597 4.3505 4.1160 103.7153 7.8761 -0.0030 0.2081 3.6294 2.5692 60.2969 0.1944
6970.5000 4.7663 4.4409 4.1988 96.4474 7.8761 -0.0017 0.2091 3.6854 2.5758 60.1607 0.1889
6971.0000 4.8368 4.4997 4.2381 92.0868 7.8530 0.0054 0.2044 3.7468 2.5815 59.8304 0.1820
6971.5000 4.9027 4.5347 4.2812 88.6647 7.8299 0.0044 0.2019 3.7986 2.5816 59.7946 0.1751
6972.0000 4.9428 4.5289 4.2613 91.5719 7.8761 0.0023 0.1911 3.7742 2.5844 59.5703 0.1782
6972.5000 4.6112 4.3730 4.1370 98.3550 7.8761 -0.0062 0.1822 3.7348 2.5739 59.8750 0.1798
6973.0000 4.2740 4.0031 3.7972 100.5353 7.8530 -0.0061 0.1892 3.6523 2.5520 60.3125 0.1873
6973.5000 4.0891 3.8441 3.6523 101.1714 7.8992 -0.0043 0.2054 3.5425 2.5223 60.2656 0.1988
6974.0000 4.1118 3.8486 3.6395 106.0162 7.8992 -0.0005 0.2317 3.3914 2.5044 60.4643 0.2057
6974.5000 4.0895 3.8217 3.6099 112.3144 7.8761 0.0006 0.2437 3.2669 2.4975 60.4911 0.2207
6975.0000 4.0533 3.7644 3.5534 115.3123 7.8530 -0.0010 0.2498 3.2140 2.5017 60.6696 0.2268
6975.5000 4.0099 3.7190 3.5020 115.9478 7.8761 -0.0056 0.2394 3.2465 2.5004 60.7813 0.2325
6976.0000 3.9588 3.6791 3.4312 116.1911 7.8530 -0.0054 0.2394 3.3113 2.4984 60.6518 0.2222
6976.5000 3.8859 3.6287 3.4127 117.1599 7.8761 -0.0049 0.2433 3.3714 2.4999 60.9107 0.2214
6977.0000 3.8001 3.5334 3.3320 109.2565 7.8761 -0.0028 0.2360 3.4071 2.5111 60.6161 0.2207
6977.5000 3.7177 3.4517 3.2977 104.5924 7.8645 -0.0041 0.2252 3.4139 2.5282 60.4453 0.2113
6978.0000 3.6238 3.3438 3.1550 105.5615 7.8761 -0.0007 0.2084 3.3766 2.5537 60.6875 0.2067
6978.5000 3.6525 3.3694 3.1707 107.5001 7.8992 0.0005 0.2256 3.3290 2.5618 60.7500 0.1987
6979.0000 3.6535 3.3601 3.1676 109.6196 7.8761 0.0014 0.2378 3.2910 2.5570 60.8929 0.2157
6979.5000 3.6453 3.3769 3.1697 117.6140 7.9223 -0.0011 0.2508 3.3226 2.5338 60.6719 0.2236
6980.0000 3.6362 3.3939 3.1913 122.4586 7.8992 -0.0020 0.2471 3.3951 2.5222 60.5268 0.2296
6980.5000 3.7042 3.3889 3.1904 123.3068 7.9223 -0.0010 0.2400 3.4272 2.5309 60.5469 0.2254
6981.0000 3.6621 3.3774 3.1878 117.2504 7.9223 -0.0006 0.2455 3.4300 2.5413 60.4018 0.2186
6981.5000 3.5252 3.2266 3.0629 122.5804 7.9223 -0.0003 0.2419 3.3854 2.5518 60.6250 0.2238
6982.0000 3.4029 3.1378 2.9762 116.2814 7.9223 0.0015 0.2440 3.3650 2.5616 60.5000 0.2269
6982.5000 3.3135 3.0688 2.9158 113.2231 7.9223 0.0057 0.2426 3.3517 2.5803 60.3661 0.2309
6983.0000 3.1651 2.9401 2.8074 106.1978 7.9223 0.0076 0.2389 3.3551 2.5920 60.6429 0.2335
6983.5000 3.0527 2.8238 2.6858 119.7642 7.9223 0.0067 0.2501 3.3332 2.5914 60.2857 0.2361
6984.0000 2.9677 2.7542 2.6058 124.7606 7.9686 0.0025 0.2465 3.3039 2.5729 60.5469 0.2485
6984.5000 3.0463 2.7612 2.6067 126.5169 7.9917 0.0004 0.2443 3.2482 2.5598 60.5714 0.2376
6985.0000 3.0800 2.8368 2.6460 123.1252 7.9686 -0.0012 0.2466 3.2039 2.5487 60.5000 0.2229
6985.5000 3.1032 2.8541 2.6613 120.4601 7.9686 -0.0022 0.2385 3.1870 2.5388 60.6172 0.2192
6986.0000 3.0829 2.8222 2.6382 116.4329 7.9570 -0.0042 0.2543 3.2336 2.5199 60.4643 0.2157
6986.5000 3.0643 2.7952 2.6148 113.5258 7.8992 -0.0048 0.2615 3.2678 2.5110 60.9018 0.2346
6987.0000 3.0234 2.7694 2.5889 119.5820 7.8992 -0.0035 0.2729 3.2434 2.5166 60.7679 0.2458
6987.5000 2.9743 2.7327 2.5638 126.6985 7.8876 -0.0007 0.2658 3.1612 2.5287 59.9219 0.2690
6988.0000 2.9393 2.6971 2.5427 128.4850 7.8992 0.0023 0.2439 3.1321 2.5307 58.4375 0.2613
6988.5000 2.9555 2.7101 2.5504 126.3052 7.8761 0.0038 0.2379 3.1378 2.5210 59.6696 0.2325
6989.0000 2.9863 2.7365 2.5773 123.8823 7.8992 0.0055 0.2375 3.1738 2.5155 60.1786 0.2214
6989.5000 3.0082 2.7589 2.6024 127.6978 7.9339 0.0015 0.2472 3.2155 2.4978 60.2188 0.2185
6990.0000 3.0258 2.7761 2.6247 129.3937 7.8761 -0.0022 0.2617 3.2707 2.4905 60.2768 0.2350
6990.5000 3.0727 2.8183 2.6614 127.2131 7.8761 -0.0063 0.2785 3.2964 2.4867 60.5357 0.2424
6991.0000 3.1184 2.8670 2.7117 126.6979 7.8761 -0.0058 0.2833 3.2992 2.4960 60.5938 0.2540
6991.5000 3.1573 2.8789 2.7277 124.0332 7.8530 -0.0057 0.2786 3.3196 2.4957 60.9196 0.2601
6992.0000 3.1959 2.8905 2.7375 125.1235 7.8530 -0.0062 0.2515 3.3757 2.4896 60.8214 0.2586
6992.5000 3.1470 2.8769 2.7254 121.7327 7.8299 -0.0045 0.2470 3.3589 2.5021 60.9063 0.2391
6993.0000 3.0755 2.8121 2.6700 117.6145 7.8530 -0.0017 0.2432 3.2825 2.5239 60.9643 0.2334
6993.5000 3.0158 2.7671 2.6256 121.8534 7.8530 0.0004 0.2552 3.2102 2.5408 60.4732 0.2266
6994.0000 2.9816 2.7363 2.5897 115.7969 7.8530 -0.0007 0.2463 3.2117 2.5404 60.2969 0.2318
6994.5000 2.9610 2.7051 2.5515 114.8280 7.8530 -0.0017 0.2462 3.2135 2.5377 60.2589 0.2269
6995.0000 2.8857 2.6454 2.4944 111.4364 7.8761 -0.0006 0.2450 3.1826 2.5400 60.2946 0.2294
6995.5000 2.7797 2.5492 2.4001 120.3998 7.8761 0.0003 0.2599 3.1278 2.5345 60.0703 0.2281
6996.0000 2.6795 2.4583 2.3221 124.5181 7.8530 0.0003 0.2534 3.1066 2.5180 59.5446 0.2492
6996.5000 2.6059 2.3933 2.2577 125.2454 7.8299 0.0018 0.2526 3.1038 2.5060 59.7768 0.2535
6997.0000 2.5842 2.3686 2.2390 128.5761 7.8530 0.0047 0.2398 3.1138 2.5050 59.6016 0.2494
6997.5000 2.6763 2.4189 2.2830 127.8492 7.9454 0.0092 0.2537 3.1238 2.5157 59.6339 0.2280
6998.0000 2.7548 2.5148 2.3679 123.4884 7.9686 0.0097 0.2593 3.1213 2.5264 59.9821 0.2330
6998.5000 2.8419 2.6085 2.4539 119.0373 7.8645 0.0069 0.2807 3.0862 2.5267 59.8359 0.2372
6999.0000 2.9598 2.7058 2.5449 118.7948 7.8761 0.0009 0.2687 3.0852 2.5187 60.1696 0.2562
6999.5000 3.1293 2.8446 2.6744 124.6095 7.8299 -0.0049 0.2594 3.1217 2.4995 60.4911 0.2456
7000.0000 3.3128 2.9977 2.8196 123.0647 7.8299 -0.0075 0.2325 3.1578 2.4954 60.6797 0.2302
7000.5000 3.4423 3.1235 2.9365 122.5197 7.8299 -0.0058 0.2311 3.1017 2.5051 61.0804 0.2123
7001.0000 3.5874 3.2509 3.0699 116.9473 7.8299 -0.0034 0.2297 3.0451 2.5183 60.9375 0.2086
7001.5000 3.8185 3.4431 3.2551 113.0717 7.8299 -0.0037 0.2391 3.0661 2.5217 61.1161 0.2019
7002.0000 4.0580 3.6834 3.4711 107.0761 7.8299 -0.0063 0.2295 3.1476 2.5195 60.8047 0.2084
7002.5000 4.1857 3.7591 3.5366 110.6795 7.8067 -0.0065 0.2335 3.1626 2.5235 60.4732 0.2060
7003.0000 3.4431 3.3546 3.1925 116.0087 7.8299 -0.0040 0.2231 3.0970 2.5292 60.7232 0.2286
7003.5000 3.0123 2.7957 2.6711 120.6119 7.8530 -0.0012 0.2277 3.0311 2.5296 60.2891 0.2238
7004.0000 2.7819 2.5915 2.4739 115.7971 7.8530 -0.0012 0.2351 3.0631 2.5143 60.4554 0.2169
7004.5000 2.8820 2.6660 2.5412 111.4370 7.8761 0.0046 0.2544 3.1196 2.5052 60.6607 0.2161
7005.0000 2.9198 2.7131 2.5875 110.9520 7.8761 0.0123 0.2736 3.1588 2.4986 60.4141 0.2413
7005.5000 2.9738 2.7715 2.6370 112.1632 7.8876 0.0125 0.2752 3.1336 2.4871 60.6161 0.2669
7006.0000 3.1078 2.8738 2.7433 115.7670 7.8761 0.0061 0.2812 3.1316 2.4796 60.4375 0.2629
7006.5000 3.4441 3.1212 2.9602 117.7042 7.8530 -0.0022 0.2764 3.1469 2.4803 60.4219 0.2643
7007.0000 3.8881 3.5028 3.3142 113.5859 7.8299 -0.0048 0.2639 3.2202 2.4922 61.0179 0.2511
7007.5000 4.3188 3.9112 3.7228 113.1316 7.8299 -0.0076 0.2402 3.2902 2.4971 60.9375 0.2262
7008.0000 4.7979 4.2451 4.0616 106.2882 7.8299 -0.0073 0.2228 3.3093 2.5087 61.1797 0.2074
7008.5000 5.0291 4.4849 4.2975 107.9848 7.8299 -0.0043 0.2041 3.2664 2.5267 61.1696 0.1967
7009.0000 4.6633 4.2997 4.1190 100.7166 7.8299 -0.0018 0.1938 3.2022 2.5380 60.9018 0.1886
7009.5000 3.8483 3.6142 3.4967 105.5929 7.8530 -0.0018 0.2098 3.1433 2.5353 61.0268 0.1889
7010.0000 3.2603 3.0811 2.9960 116.4939 7.8761 -0.0031 0.2383 3.0889 2.5246 60.6172 0.2030
7010.5000 3.0805 2.9664 2.8860 122.5502 7.8761 -0.0047 0.2673 3.0737 2.5070 60.7143 0.2271
