~VERSION INFORMATION
VERS.           2.0   :CWLS Log ASCII Standard - VERSION 2.0
WRAP.           NO    :One Line per depth step
PROD.  Schlumberger   :LAS Producer
PROG.  DLIS to ASCII 19C2-270                          :LAS Program name and version
CREA.        2013/09/21 19:52                          :LAS Creation date {YYYY/MM/DD hh:mm}
DLIS_CREA.  2013-Sep-21 19:47                          :DLIS Creation date and time {YYYY-MMM-DD hh:mm}
SOURCE.     49-021-21035_McGahan Farms 42-31_Run_PEX_Mainpass.dlis  :DLIS File Name
FILE-ID.     MaxWell_3Dlis                             :File Identification Number
#--------------------------------------------------
~WELL INFORMATION
#MNEM.UNIT      DATA             DESCRIPTION
#---- ------ --------------   -----------------------------
STRT .F      1000.5          :START DEPTH        # original; data subset to 5500-8000
STOP .F      7716.5          :STOP DEPTH        # original; data subset to 5500-8000
STEP .F       0.5            :STEP     
NULL .          -999.25      :NULL VALUE
COMP .        Bear Oil & Gas, Inc                      :COMPANY
WELL .        McGahan Farms 42-31                      :WELL
FLD  .        Wildcat                                  :FIELD
LOC  .        Lat/Long: 41.3098/-104.1197              :LOCATION
CNTY .        Laramie                                  :COUNTY
STAT .        Wyoming                                  :STATE
CTRY .        USA                                      :COUNTRY
API  .        49-021-21035                             :API NUMBER
UWI  .        49021210350000                           :UNIQUE WELL ID
DATE .        21-Sep-2013                              :LOG DATE {DD-MMM-YYYY}
SRVC .        Schlumberger                             :SERVICE COMPANY
LATI .DEG     41.309800 degrees                        :LATITUDE
LONG .DEG     -104.11970 degrees                       :LONGITUDE
GDAT .                                                 :GeoDetic Datum
SECT .        31                                       :Section
RANG .        60W                                      :Range
TOWN .        16N                                      :Township
#-----------------------------------------------------------------------------
~PARAMETER INFORMATION
#MNEM.UNIT    VALUE                      DESCRIPTION
#---- -----   --------------------       ------------------------
CN   .        Bear Oil & Gas  Inc        :Company Name
WN   .        McGahan Farms 42-31        :Well Name
FN   .        Wildcat                    :Field Name
FL   .        Lat/Long  41.3098/-104.1197 :Field Location
FL1  .        SHL   2375' FNL X 190' FEL SENE :Field Location, Line 1
COUN .        Laramie                    :County or Parish
STAT .        Wyoming                    :State or Province
NATI .        USA                        :Nation
DATE .        21-Sep-2013                :Tools Above Rotary Table Date
APIN .        49-021-21035               :API Well Number
SECT .        31                         :Section
TOWN .        16N                        :Township
RANG .        60W                        :Range
DMF  .        KB                         :Drilling Measured From (Name of Drilling Elevation Reference)
LMF  .        KB                         :Logging Measured From (Name of Logging Elevation Reference)
PDAT .        GL                         :Permanent Datum
ENGI .        Arvin Shi                  :Engineer s Name
WITN .        Terry Eittreim             :Witness s Name
LATI .        41.309800 degrees          :Latitude
LONG .        -104.11970 degrees         :Longitude
LUL  .        Fort Morgan                :Logging Unit Location
LUN  .        3022                       :Logging Unit Number
RUN  .        Run 1                      :Run Number
SON  .        C6VJ-00079                 :Service Order Number
BHT  .DEGF     175.00000                 :Bottom Hole Temperature
BS   .IN         7.87500                 :Bit Size
MDEN .G/C3       2.65000                 :Matrix Density for Density Porosity
DFD  .LB/G       9.20000                 :Drilling Fluid Density
DFV  .S         80.00000                 :Drilling Fluid Viscosity
DFL  .C3      -999.25000                 :Drilling Fluid Loss
RMFS .OHMM       0.96000                 :Resistivity of Mud Filtrate Sample
EKB  .F       5307.00000                 :Elevation of Kelly Bushing
EGL  .F       5295.00000                 :Elevation of Ground Level
BLI  .F       7700.00000                 :Bottom Log Interval
BSAL .PPM     3275.14868                 :Borehole Salinity
FLEV .F          8.00000                 :Depth of Drilling Fluid Level to LMF (Log Measured From)
MCST .DEGF      98.00000                 :Mudcake Sample Temperature
MFST .DEGF      98.00000                 :Mud Filtrate Sample Temperature
MRT  .DEGF     175.00000                 :Maximum Recorded Temperature
MST  .DEGF      98.00000                 :Mud Sample Temperature
RMCS .OHMM       1.60000                 :Resistivity of Mud Cake Sample
RMS  .OHMM       1.28000                 :Resistivity of Mud Sample
RW   .OHMM       1.00000                 :Connate Water Resistivity
TDD  .F       7697.00000                 :Driller Total Depth
TDL  .F       7700.00000                 :Logger Total Depth
TLI  .F       1018.00000                 :Top Log Interval
HIDE .        Wildcat                    :Header Identifier
MATR .        SAND                       :Rock Matrix for Neutron Porosity Corrections
FNUM .           1.00000                 :F-Numerator for Formation Factor Formula
FEXP .           2.00000                 :Exponent "m" for Formation Factor Formula
DFT  .        Chemical Gel               :Drilling Fluid Type
DFPH .        -999.25000                 :Drilling Fluid pH
MCSS .        Calculated                 :Mudcake Sample Source
MFSS .        Calculated                 :Mud Filtrate Sample Source
FD   .G/C3       1.00000                 :Fluid Density
MSS  .        Flowline                   :Mud Sample Source
OS1  .                                   :Other Services Line 1
OS2  .                                   :Other Services Line 2
OS3  .                                   :Other Services Line 3
OS4  .                                   :Other Services Line 4
OS5  .                                   :Other Services Line 5
R1   .                                   :Remarks Line 1
R2   .                                   :Remarks Line 2
R3   .                                   :Remarks Line 3
R4   .                                   :Remarks Line 4
R5   .                                   :Remarks Line 5
R6   .                                   :Remarks Line 6
R7   .                                   :Remarks Line 7
R8   .                                   :Remarks Line 8
TCS  .        11 00 00                   :Time Circulation Stopped
TLAB .        17 20 49                   :Time Logger At Bottom
NMT  .        NOBARITE                   :HRDD Mud Type for Nuclear Devices
EPD  .C3         5295.000000             :Elevation of Permanent Datum above Mean Sea Level
APD  .F          12.000000               :Elevation of Depth Reference (LMF) above Permanent Datum
#-----------------------------------------------------------------------------
~CURVE INFORMATION
#MNEM.UNIT   API CODE                                  DESCRIPTION
#---- -----  --------                                  -----------------------
DEPT .F                                                :DEPTH (BOREHOLE) {F10.1}
AT10 .OHMM                                             :Array Induction Two Foot Resistivity A10 {F11.4}
AT30 .OHMM                                             :Array Induction Two Foot Resistivity A30 {F11.4}
AT90 .OHMM                                             :Array Induction Two Foot Resistivity A90 {F11.4}
GR   .GAPI                                             :Gamma Ray {F11.4}
HCAL .IN                                               :HRCC Caliper Calibrated {F11.4}
HDRA .G/C3                                             :Density Standoff Correction {F11.4}
NPHI .CFCF                                             :Thermal Neutron Porosity (original Ratio Method) in Selected Lithology {F11.4}
PEFZ .                                                 :Standard Resolution Formation Photoelectric Factor {F11.4}
RHOZ .G/C3                                             :Standard Resolution Formation Density {F11.4}
SP   .MV                                               :Spontaneous Potential {F11.4}
TNPH .CFCF                                             :Thermal Neutron Porosity (Ratio Method) in Selected Lithology {F11.4}
#-----------------------------------------------------------------------------
# 
#     DEPT       AF10       AF20       AF30       AF60       AF90       AO10       AO20       AO30       AO60       AO90       AT10       AT20       AT30       AT60       AT90     AHFCO60      AHMF      AHORT      AHORX      AHSCA     AHTCO10    AHTCO20    AHTCO30    AHTCO60    AHTCO90     AHTD1      AHTD2      AHTRT      AHTRX       CDF        CFTC       CNTC       CTEM       DCAL       DNPH       DPHZ       DSOZ       ECGR        ED        GDEV        GR        GTEM       HCAL       HDRA       HDRB       HGR        HMIN       HMNO       HNPO       HPRA       HTNP        ND        NPHI       NPOR       PEFZ    PXND_HILT     RHOZ       RSOZ     RWA_HILT     RXO8       RXOZ        SP        SPAR       STIT       TENS       TNPH     HTNP_SAN
#
~A  DEPT AT10 AT30 AT90 GR HCAL HDRA NPHI PEFZ RHOZ SP TNPH
# ...
6944.0 5.0373 4.7810 4.3938 113.2656 8.2140 -0.0077 0.1983 3.5212 2.5959 -345.8516 0.1742
6944.5 5.4520 4.9871 4.6101 110.0920 8.1920 -0.0055 0.2009 3.4550 2.5912 -345.9821 0.1867
6945.0 5.7987 5.4346 4.9453 111.3104 8.1700 -0.0062 0.1876 3.4467 2.5874 -346.1016 0.1848
6945.5 5.7728 5.4575 4.9947 109.1283 8.1480 -0.0030 0.1740 3.3940 2.6033 -346.2188 0.1707
6946.0 5.7838 5.4160 4.9855 105.5574 8.1920 -0.0041 0.1673 3.3314 2.6201 -346.2109 0.1599
6946.5 5.7285 5.4169 5.0258 99.2101 8.1700 -0.0039 0.1685 3.3454 2.6265 -346.0357 0.1541
6947.0 5.9593 5.6232 5.2086 98.6147 8.1700 -0.0078 0.1781 3.4769 2.6136 -346.3984 0.1507
6947.5 6.3984 5.9880 5.5457 96.8297 8.1920 -0.0112 0.1772 3.6604 2.5965 -346.4643 0.1549
6948.0 7.0194 6.5910 6.0246 89.3484 8.1700 -0.0107 0.1655 3.7577 2.5948 -346.4297 0.1566
6948.5 6.8890 6.6673 6.1341 85.7780 8.1480 -0.0052 0.1546 3.7481 2.6098 -346.2411 0.1526
6949.0 6.0814 5.8372 5.4265 88.9517 8.1700 0.0005 0.1614 3.6350 2.6298 -346.1094 0.1533
6949.5 5.5252 5.2592 4.9277 93.7125 8.2030 0.0007 0.1759 3.5655 2.6272 -345.4732 0.1603
6950.0 5.4370 5.1872 4.8674 100.8533 8.2140 -0.0023 0.1912 3.5630 2.6084 -345.7266 0.1642
6950.5 5.6303 5.2793 4.9411 99.1815 8.1920 -0.0074 0.1919 3.5877 2.5914 -346.0714 0.1687
6951.0 5.8914 5.5201 5.1515 99.4931 8.1810 -0.0074 0.1991 3.5578 2.5987 -346.0859 0.1658
6951.5 6.1502 5.7954 5.3890 90.5387 8.1920 -0.0072 0.1911 3.5310 2.6147 -346.3359 0.1722
6952.0 6.3369 5.9644 5.5216 88.8382 8.2140 -0.0050 0.1810 3.5849 2.6258 -346.4643 0.1695
6952.5 6.4246 6.0725 5.6141 86.2597 8.2140 -0.0038 0.1660 3.6876 2.6268 -346.5391 0.1611
6953.0 6.4582 6.1838 5.7154 85.0978 8.2360 -0.0016 0.1567 3.7540 2.6262 -346.5313 0.1515
6953.5 6.8171 6.4492 5.9432 81.1311 8.2360 0.0017 0.1617 3.7927 2.6268 -346.4688 0.1422
6954.0 7.3372 6.8984 6.3188 76.5683 8.2360 0.0023 0.1519 3.8419 2.6188 -346.5268 0.1451
6954.5 7.6147 7.2933 6.6582 77.9569 8.2360 0.0073 0.1521 3.9375 2.6211 -346.7734 0.1347
6955.0 7.7124 7.3376 6.7124 78.3538 8.2140 0.0049 0.1399 3.9853 2.6096 -346.8839 0.1387
6955.5 7.7527 7.3609 6.7415 75.7752 8.2140 0.0031 0.1448 4.0143 2.6106 -347.0078 0.1308
6956.0 8.1773 7.7506 7.0913 74.1881 8.2140 -0.0052 0.1387 4.0139 2.5996 -346.8125 0.1302
6956.5 8.6550 8.3340 7.6565 76.9650 8.2140 -0.0072 0.1431 4.0245 2.5999 -346.4732 0.1250
6957.0 8.3523 8.2581 7.5891 81.7259 8.2140 -0.0066 0.1377 3.9777 2.6033 -346.2500 0.1314
6957.5 7.3891 7.3269 6.8032 86.7138 8.1920 -0.0076 0.1504 3.9426 2.5975 -346.1786 0.1331
6958.0 6.6322 6.3616 5.9980 85.9201 8.2140 -0.0047 0.1619 3.9119 2.5945 -346.1875 0.1469
6958.5 6.4233 5.9059 5.5915 91.7011 8.2140 0.0062 0.1720 3.9277 2.5961 -346.1964 0.1487
6959.0 7.1195 6.5446 6.1696 87.7052 8.2360 0.0094 0.1541 4.0259 2.5971 -346.1563 0.1459
6959.5 8.1363 7.6765 7.0451 91.4456 8.2140 0.0082 0.1368 4.0622 2.6100 -345.9286 0.1325
6960.0 7.4829 7.5016 6.8602 93.0038 8.2250 -0.0024 0.1328 4.0352 2.6126 -345.7422 0.1293
6960.5 6.5647 6.4630 6.0194 107.4277 8.2360 -0.0009 0.1523 3.8989 2.6109 -345.4531 0.1351
6961.0 5.9911 5.6096 5.2961 113.8039 8.2360 -0.0005 0.1811 3.8036 2.5952 -345.3438 0.1501
6961.5 5.7265 5.3344 4.9741 118.5932 8.2360 -0.0033 0.1953 3.7423 2.5821 -345.3304 0.1696
6962.0 5.7617 5.4640 5.0886 115.6744 8.2360 -0.0080 0.1939 3.6961 2.5801 -345.4141 0.1817
6962.5 5.3603 5.2028 4.8457 112.4721 8.2140 -0.0105 0.1896 3.6605 2.5803 -345.3438 0.1799
6963.0 5.1000 4.7952 4.4722 112.0472 8.2580 -0.0095 0.2014 3.6352 2.5756 -345.4196 0.1803
6963.5 5.1532 4.8444 4.5131 113.0390 8.2580 -0.0092 0.2240 3.5900 2.5665 -345.4453 0.1923
6964.0 5.7150 5.2206 4.8191 122.1922 8.2360 -0.0085 0.2264 3.5355 2.5565 -345.3304 0.2062
6964.5 6.1642 5.6541 5.1623 119.4432 8.2360 -0.0051 0.2123 3.4564 2.5653 -345.1719 0.2082
6965.0 6.3776 6.1090 5.5771 118.6495 8.2360 -0.0051 0.1868 3.4950 2.5700 -345.1607 0.1906
6965.5 5.9407 5.6317 5.2263 112.8971 8.2470 -0.0038 0.1823 3.5260 2.5917 -345.5156 0.1657
6966.0 5.6457 5.3462 5.0240 115.6173 8.2360 -0.0074 0.1924 3.6322 2.5885 -345.6518 0.1667
6966.5 5.9447 5.6257 5.2727 112.4438 8.2140 -0.0075 0.1977 3.6453 2.5893 -345.5547 0.1805
6967.0 6.2129 5.9445 5.5561 105.6428 8.2580 -0.0098 0.2083 3.6837 2.5702 -345.2734 0.1842
6967.5 5.7674 5.6496 5.2928 103.4894 8.2140 -0.0093 0.2105 3.6489 2.5637 -345.1607 0.1912
6968.0 5.4180 5.1732 4.9158 103.9432 8.2360 -0.0061 0.2241 3.5842 2.5605 -345.3750 0.1949
6968.5 5.7536 5.4214 5.1111 110.1487 8.2140 0.0010 0.2287 3.5365 2.5601 -345.2891 0.2138
6969.0 6.8485 6.4525 6.0200 105.9544 8.2140 0.0103 0.2238 3.6120 2.5534 -345.6250 0.2088
6969.5 8.3271 7.8289 7.0861 97.1695 8.1920 0.0099 0.2079 3.7671 2.5566 -345.7344 0.1896
6970.0 9.3705 8.8954 7.9095 86.2030 8.1920 0.0059 0.1818 3.8472 2.5797 -345.4609 0.1707
6970.5 8.7465 8.4434 7.5172 82.4626 8.1920 -0.0012 0.1718 3.8323 2.6051 -344.8214 0.1567
6971.0 8.1344 7.8861 7.1204 84.2197 8.2140 -0.0026 0.1691 3.7857 2.6144 -344.9453 0.1591
6971.5 7.9223 7.7287 7.0310 87.0533 8.2360 -0.0050 0.1769 3.8252 2.6014 -344.9141 0.1613
6972.0 7.3490 7.3278 6.7766 92.0122 8.2360 -0.0063 0.1825 3.8711 2.5931 -344.6161 0.1674
6972.5 6.7212 6.6055 6.2105 95.4126 8.2580 -0.0056 0.1757 3.8693 2.5969 -344.4141 0.1695
6973.0 7.0584 6.7838 6.3417 95.2141 8.2140 -0.0036 0.1794 3.8181 2.6090 -345.0089 0.1665
6973.5 7.3125 7.0166 6.5852 91.0489 8.2580 -0.0027 0.1676 3.7577 2.6181 -344.9219 0.1660
6974.0 7.8170 7.3867 6.9050 89.6884 8.2470 -0.0029 0.1685 3.7180 2.6209 -344.6875 0.1554
6974.5 8.1639 7.6734 7.2694 92.7204 8.2580 -0.0062 0.1650 3.7564 2.6086 -344.6328 0.1493
6975.0 8.8688 8.2603 7.8109 96.8858 8.2580 -0.0071 0.1623 3.7926 2.6050 -344.4554 0.1431
6975.5 8.6022 7.8945 7.4992 89.6316 8.2580 -0.0087 0.1622 3.8737 2.6004 -344.5156 0.1405
6976.0 8.8875 7.9125 7.4329 82.4344 8.2250 0.0023 0.1503 3.9554 2.6029 -344.7422 0.1377
6976.5 9.8852 9.4246 9.0124 79.1756 8.2360 0.0148 0.1428 4.0465 2.6033 -344.6875 0.1338
6977.0 8.2295 8.9281 8.6729 84.0214 8.2140 0.0154 0.1445 4.1371 2.5960 -344.7109 0.1379
6977.5 6.1978 6.4269 6.2086 102.5543 8.2140 0.0066 0.1672 4.1049 2.5850 -344.9297 0.1496
6978.0 4.6241 4.5219 4.4763 124.6577 8.2690 -0.0036 0.2023 3.9717 2.5742 -345.0703 0.1752
6978.5 4.6166 4.2582 4.1267 138.9396 8.2140 -0.0013 0.2043 3.8273 2.5653 -344.8125 0.1979
6979.0 5.8759 5.4339 5.1561 133.0447 8.2580 0.0062 0.1825 3.7560 2.5739 -344.8672 0.1702
6979.5 6.8503 6.3566 5.9469 111.8201 8.2360 0.0025 0.1659 3.8072 2.5820 -345.1719 0.1470
6980.0 6.4184 6.1873 5.8059 95.3559 8.2580 -0.0002 0.1649 3.8549 2.5965 -345.2857 0.1440
6980.5 6.4163 6.0162 5.6681 88.0735 8.2800 -0.0085 0.1614 3.8879 2.6039 -344.9922 0.1505
6981.0 6.2774 5.9176 5.5758 83.7942 8.2800 -0.0087 0.1559 3.8962 2.6066 -344.9911 0.1484
6981.5 6.1307 5.7277 5.3879 86.3732 8.2580 -0.0091 0.1578 3.8874 2.6085 -345.0391 0.1429
6982.0 5.7429 5.5380 5.2114 89.3490 8.2470 -0.0091 0.1741 3.8547 2.6101 -345.1429 0.1491
6982.5 5.3742 5.0880 4.8068 98.3886 8.2360 -0.0091 0.1782 3.8152 2.6066 -345.0781 0.1667
6983.0 4.9662 4.7301 4.4744 102.4404 8.2580 -0.0073 0.2008 3.7229 2.6102 -344.8750 0.1706
6983.5 5.0647 4.7238 4.4611 98.8133 8.2580 -0.0058 0.2127 3.6448 2.6051 -344.6953 0.1923
6984.0 5.1968 4.8663 4.5707 98.4167 8.2360 -0.0000 0.2296 3.5766 2.6088 -344.8516 0.1997
6984.5 5.2333 4.9409 4.6254 98.1901 8.2140 0.0001 0.2203 3.5951 2.5939 -344.8516 0.2138
6985.0 5.2149 4.9194 4.6007 99.8337 8.2140 -0.0014 0.2070 3.6495 2.5883 -344.9196 0.2006
6985.5 5.1757 4.8898 4.5803 100.9389 8.2360 -0.0051 0.2048 3.7130 2.5853 -344.8750 0.1888
6986.0 5.0763 4.8124 4.5140 102.0726 8.2360 -0.0056 0.2099 3.7350 2.5951 -344.7734 0.1915
6986.5 4.9558 4.6690 4.3964 101.3352 8.2140 -0.0063 0.2178 3.7366 2.5984 -344.6250 0.1945
6987.0 4.9168 4.6304 4.3804 102.2138 8.2360 -0.0089 0.2010 3.7277 2.5939 -344.6406 0.1956
6987.5 5.0418 4.7335 4.4849 98.4448 8.2360 -0.0110 0.1877 3.7577 2.5879 -344.8906 0.1796
6988.0 5.1724 4.8459 4.5853 100.9381 8.2360 -0.0103 0.1859 3.7730 2.5976 -345.0446 0.1676
6988.5 5.1993 4.8692 4.5717 92.6070 8.2140 -0.0084 0.1800 3.8139 2.6085 -345.0781 0.1664
