~VERSION INFORMATION
VERS.           2.0   :CWLS Log ASCII Standard - VERSION 2.0
WRAP.           NO    :One Line per depth step
PROD.  Schlumberger   :LAS Producer
PROG.  DLIS to ASCII 19C2-270                          :LAS Program name and version
CREA.        2013/08/28 17:00                          :LAS Creation date {YYYY/MM/DD hh:mm}
DLIS_CREA.  2013-Aug-28 16:23                          :DLIS Creation date and time {YYYY-MMM-DD hh:mm}
SOURCE.     Bear_Oil_Marquardt_43_31_Main_DLIS.dlis    :DLIS File Name
FILE-ID.     MaxWell_5Dlis                             :File Identification Number
#--------------------------------------------------
~WELL INFORMATION
#MNEM.UNIT      DATA             DESCRIPTION
#---- ------ --------------   -----------------------------
STRT .F      1000.5          :START DEPTH        # original; data subset to 5500-8000
STOP .F      7710.0          :STOP DEPTH        # original; data subset to 5500-8000
STEP .F       0.5            :STEP     
NULL .          -999.25      :NULL VALUE
COMP .        Bear Oil and Gas, Inc.                   :COMPANY
WELL .        Marquardt 43 31                          :WELL
FLD  .        Wildcat                                  :FIELD
LOC  .        NESE 1627' FSL & 170' FEL                :LOCATION
CNTY .        Laramie                                  :COUNTY
STAT .        Wyoming                                  :STATE
CTRY .        United States                            :COUNTRY
API  .        049-021-21034                            :API NUMBER
UWI  .        049021210340000                          :UNIQUE WELL ID
DATE .        28-Aug-2013                              :LOG DATE {DD-MMM-YYYY}
SRVC .        Schlumberger                             :SERVICE COMPANY
LATI .DEG     41.306700 degrees                        :LATITUDE
LONG .DEG     -104.11980 degrees                       :LONGITUDE
GDAT .                                                 :GeoDetic Datum
SECT .        31                                       :Section
RANG .        60W                                      :Range
TOWN .        16N                                      :Township
#-----------------------------------------------------------------------------
~PARAMETER INFORMATION
#MNEM.UNIT    VALUE                      DESCRIPTION
#---- -----   --------------------       ------------------------
CN   .        Bear Oil and Gas  Inc.     :Company Name
WN   .        Marquardt 43 31            :Well Name
FN   .        Wildcat                    :Field Name
FL   .        NESE 1627' FSL & 170' FEL  :Field Location
FL1  .        Sec. 31  T. 16N  R. 60W    :Field Location, Line 1
COUN .        Laramie                    :County or Parish
STAT .        Wyoming                    :State or Province
NATI .        United States              :Nation
DATE .        28-Aug-2013                :Tools Above Rotary Table Date
APIN .        049-021-21034              :API Well Number
SECT .        31                         :Section
TOWN .        16N                        :Township
RANG .        60W                        :Range
DMF  .        KB                         :Drilling Measured From (Name of Drilling Elevation Reference)
LMF  .        KB                         :Logging Measured From (Name of Logging Elevation Reference)
PDAT .        GL                         :Permanent Datum
ENGI .        Max Pace                   :Engineer s Name
WITN .        Terry Eittreim             :Witness s Name
LATI .        41.306700 degrees          :Latitude
LONG .        -104.11980 degrees         :Longitude
LUL  .        Fort Morgan  CO            :Logging Unit Location
LUN  .        3022                       :Logging Unit Number
RUN  .        Run 1                      :Run Number
SON  .        CA0R-00043                 :Service Order Number
BHT  .DEGF     166.00000                 :Bottom Hole Temperature
BS   .IN         7.87500                 :Bit Size
MDEN .G/C3       2.65000                 :Matrix Density for Density Porosity
DFD  .LB/G       8.90000                 :Drilling Fluid Density
DFV  .S         65.00000                 :Drilling Fluid Viscosity
DFL  .C3         9.00000                 :Drilling Fluid Loss
RMFS .OHMM       1.11000                 :Resistivity of Mud Filtrate Sample
EKB  .F       5298.00000                 :Elevation of Kelly Bushing
EGL  .F       5286.00000                 :Elevation of Ground Level
BLI  .F       7686.00000                 :Bottom Log Interval
BSAL .PPM     3335.81519                 :Borehole Salinity
FLEV .F          8.00000                 :Depth of Drilling Fluid Level to LMF (Log Measured From)
MCST .DEGF      83.00000                 :Mudcake Sample Temperature
MFST .DEGF      83.00000                 :Mud Filtrate Sample Temperature
MRT  .DEGF     166.00000                 :Maximum Recorded Temperature
MST  .DEGF      83.00000                 :Mud Sample Temperature
RMCS .OHMM       1.85000                 :Resistivity of Mud Cake Sample
RMS  .OHMM       1.48000                 :Resistivity of Mud Sample
RW   .OHMM       1.00000                 :Connate Water Resistivity
TDD  .F       7680.00000                 :Driller Total Depth
TDL  .F       7686.00000                 :Logger Total Depth
TLI  .F       1025.00000                 :Top Log Interval
HIDE .        Wildcat                    :Header Identifier
MATR .        SAND                       :Rock Matrix for Neutron Porosity Corrections
FNUM .           1.00000                 :F-Numerator for Formation Factor Formula
FEXP .           2.00000                 :Exponent "m" for Formation Factor Formula
DFT  .        WATER                      :Drilling Fluid Type
DFPH .           8.00000                 :Drilling Fluid pH
MCSS .        Calculated                 :Mudcake Sample Source
MFSS .        Calculated                 :Mud Filtrate Sample Source
FD   .G/C3       1.00000                 :Fluid Density
MSS  .        Active Tank                :Mud Sample Source
OS1  .                                   :Other Services Line 1
OS2  .                                   :Other Services Line 2
OS3  .                                   :Other Services Line 3
OS4  .                                   :Other Services Line 4
OS5  .                                   :Other Services Line 5
R1   .                                   :Remarks Line 1
R2   .                                   :Remarks Line 2
R3   .                                   :Remarks Line 3
R4   .                                   :Remarks Line 4
R5   .                                   :Remarks Line 5
R6   .                                   :Remarks Line 6
R7   .                                   :Remarks Line 7
R8   .                                   :Remarks Line 8
TCS  .        05 00 00                   :Time Circulation Stopped
TLAB .        14 30 25                   :Time Logger At Bottom
NMT  .        NOBARITE                   :HRDD Mud Type for Nuclear Devices
EPD  .F         5286.000000              :Elevation of Permanent Datum above Mean Sea Level
APD  .F          12.000000               :Elevation of Depth Reference (LMF) above Permanent Datum
#-----------------------------------------------------------------------------
~CURVE INFORMATION
#MNEM.UNIT   API CODE                                  DESCRIPTION
#---- -----  --------                                  -----------------------
DEPT .F                                                :DEPTH (BOREHOLE) {F10.1}
AT10 .OHMM                                             :Array Induction Two Foot Resistivity A10 {F11.4}
AT30 .OHMM                                             :Array Induction Two Foot Resistivity A30 {F11.4}
AT90 .OHMM                                             :Array Induction Two Foot Resistivity A90 {F11.4}
GR   .GAPI                                             :Gamma Ray {F11.4}
HCAL .IN                                               :HRCC Caliper Calibrated {F11.4}
HDRA .G/C3                                             :Density Standoff Correction {F11.4}
NPHI .CFCF                                             :Thermal Neutron Porosity (original Ratio Method) in Selected Lithology {F11.4}
PEFZ .                                                 :Standard Resolution Formation Photoelectric Factor {F11.4}
RHOZ .G/C3                                             :Standard Resolution Formation Density {F11.4}
SP   .MV                                               :Spontaneous Potential {F11.4}
TNPH .CFCF                                             :Thermal Neutron Porosity (Ratio Method) in Selected Lithology {F11.4}
#-----------------------------------------------------------------------------
# 
#     DEPT       AF10       AF20       AF30       AF60       AF90       AO10       AO20       AO30       AO60       AO90       AT10       AT20       AT30       AT60       AT90     AHFCO60      AHMF      AHORT      AHORX      AHSCA     AHTCO10    AHTCO20    AHTCO30    AHTCO60    AHTCO90     AHTD1      AHTD2      AHTRT      AHTRX       CDF        CFTC       CNTC       CTEM       DCAL       DNPH       DPHZ       DSOZ       ECGR        ED        GDEV        GR        GTEM       HCAL       HDRA       HDRB       HGR        HMIN       HMNO       HNPO       HPRA       HTNP        ND        NPHI       NPOR       PEFZ    PXND_HILT     RHOZ       RSOZ     RWA_HILT     RXO8       RXOZ        SP        SPAR       STIT       TENS       TNPH     HTNP_SAN
#
~A  DEPT AT10 AT30 AT90 GR HCAL HDRA NPHI PEFZ RHOZ SP TNPH
5500.0 2.4051 2.3341 2.3136 115.4970 8.1826 0.1244 0.3197 3.0819 2.5310 -82.5357 0.3266
5500.5 2.3915 2.3298 2.3081 115.7569 8.2738 0.1200 0.3007 3.0858 2.5142 -82.5208 0.3247
5501.0 2.3794 2.3341 2.3080 103.0483 8.3993 0.1344 0.3100 3.1224 2.4949 -82.4688 0.3029
5501.5 2.3700 2.3430 2.3178 111.8235 8.5248 0.1516 0.3078 3.1430 2.4736 -82.4732 0.3093
5502.0 2.3690 2.3414 2.3223 116.7940 8.2510 0.1752 0.3129 3.1289 2.4979 -82.3958 0.3023
5502.5 2.3433 2.2930 2.2648 124.7906 8.2738 0.1792 0.3003 3.0897 2.5286 -82.3214 0.2985
5503.0 2.2810 2.2422 2.2096 115.4114 8.2966 0.1705 0.2849 3.0864 2.5415 -82.2292 0.2982
5503.5 2.2590 2.2216 2.1864 116.9243 8.2282 0.1506 0.3143 3.1107 2.5349 -82.3393 0.2891
5504.0 2.2679 2.2362 2.1985 108.6250 8.3879 0.1362 0.3163 3.1115 2.5149 -82.3125 0.3051
5504.5 2.2728 2.2450 2.2101 107.7171 8.3651 0.1247 0.3338 3.0334 2.4758 -82.2054 0.3014
5505.0 2.2806 2.2473 2.2147 108.2357 8.5705 0.1307 0.3081 2.9266 2.4627 -82.0625 0.3222
5505.5 2.2952 2.2680 2.2347 112.7744 8.3195 0.1296 0.3028 2.8317 2.4573 -82.2321 0.3061
5506.0 2.2735 2.2537 2.2177 119.9498 8.2966 0.1350 0.3052 2.8172 2.4761 -82.3958 0.3024
5506.5 2.2347 2.2029 2.1832 111.5642 8.5933 0.1531 0.3231 2.8875 2.4720 -82.4018 0.3055
5507.0 2.1846 2.1759 2.1592 106.7664 8.2966 0.1918 0.3528 2.9882 2.4514 -82.4271 0.3263
5507.5 2.1496 2.1399 2.1267 103.8271 8.5020 0.2254 0.3648 3.0509 2.4328 -82.4688 0.3448
5508.0 2.0908 2.0803 2.0671 107.4579 8.3651 0.2359 0.3586 3.0732 2.4466 -82.3214 0.3554
5508.5 1.9940 1.9835 1.9760 110.8293 8.2054 0.2152 0.3702 3.0885 2.4917 -82.2708 0.3532
5509.0 1.8915 1.8910 1.8959 104.1721 8.2966 0.1634 0.3568 3.0729 2.5071 -81.8839 0.3586
5509.5 1.8796 1.8430 1.8400 110.2240 8.2966 0.0999 0.3397 3.0109 2.4954 -81.4583 0.3406
5510.0 2.0925 2.0330 2.0583 112.8607 8.2624 0.0624 0.3189 2.9777 2.4885 -81.6071 0.3103
5510.5 2.2948 2.2724 2.2684 118.5664 8.2054 0.0609 0.3284 3.0229 2.5028 -81.9375 0.2959
5511.0 2.3916 2.3402 2.3131 114.0275 8.2054 0.0827 0.3290 3.1326 2.5056 -82.0446 0.3137
5511.5 2.3851 2.3385 2.3000 118.8690 8.2054 0.1022 0.3447 3.2070 2.4954 -82.0104 0.3227
5512.0 2.3839 2.3667 2.3426 112.3855 8.1597 0.1070 0.3195 3.2145 2.4977 -82.1429 0.3367
5512.5 2.3613 2.3985 2.4002 115.4113 8.2054 0.0991 0.3168 3.1729 2.5148 -82.0729 0.3154
5513.0 2.4157 2.3770 2.3615 109.4891 8.1826 0.0825 0.3041 3.1350 2.5320 -82.2232 0.3122
5513.5 2.3734 2.3104 2.2776 116.9238 8.4336 0.0856 0.2871 3.1416 2.5359 -82.2708 0.3021
5514.0 2.3426 2.2688 2.2531 112.9903 8.4336 0.0983 0.3077 3.1818 2.5428 -82.1518 0.2884
5514.5 2.3271 2.2709 2.2527 115.3250 8.4678 0.1073 0.3094 3.2180 2.5450 -82.1354 0.3018
5515.0 2.3119 2.2605 2.2412 112.6016 8.2282 0.1016 0.3478 3.2264 2.5392 -82.0521 0.3067
5515.5 2.3003 2.2433 2.2198 111.0455 8.3651 0.1030 0.3465 3.2197 2.5403 -81.9196 0.3379
5516.0 2.2883 2.2393 2.2023 106.7659 8.4107 0.1084 0.3524 3.2087 2.5166 -81.6771 0.3397
5516.5 2.2805 2.2294 2.2059 101.2766 8.3651 0.1169 0.3473 3.2155 2.5138 -81.8839 0.3442
5517.0 2.2676 2.2126 2.1892 104.6482 8.3879 0.1038 0.3386 3.1968 2.5028 -82.0521 0.3422
5517.5 2.3242 2.2425 2.2153 104.6483 8.3423 0.0865 0.3234 3.1624 2.5165 -81.9554 0.3309
5518.0 2.3494 2.3021 2.2616 113.7257 8.3195 0.0688 0.3144 3.1282 2.5219 -81.8229 0.3122
5518.5 2.3638 2.3277 2.2936 110.6997 8.3423 0.0576 0.3192 3.1213 2.5256 -81.9107 0.3031
5519.0 2.3840 2.3400 2.3119 110.0513 8.2510 0.0489 0.3337 3.1135 2.5274 -82.0000 0.3088
5519.5 2.4029 2.3502 2.3275 107.9760 8.2966 0.0379 0.3345 3.0711 2.5155 -82.0521 0.3251
5520.0 2.4217 2.3715 2.3454 111.3049 8.3081 0.0351 0.3148 3.0217 2.5125 -81.9732 0.3317
5520.5 2.4396 2.4029 2.3657 110.2675 8.2738 0.0454 0.3088 3.0115 2.5089 -81.8125 0.3194
5521.0 2.4462 2.3987 2.3868 108.7546 8.2510 0.0728 0.3077 3.0628 2.5066 -81.8661 0.3044
5521.5 2.4022 2.3727 2.3674 107.9330 8.2510 0.1144 0.3204 3.1403 2.5078 -81.9375 0.3095
5522.0 2.3677 2.3413 2.3416 112.9469 8.3195 0.1473 0.3214 3.2034 2.5040 -81.8750 0.3193
5522.5 2.3604 2.3323 2.3388 115.2381 8.3195 0.1643 0.3080 3.2471 2.5002 -81.6042 0.3157
5523.0 2.3508 2.3178 2.3239 108.1924 8.4792 0.1625 0.3018 3.2627 2.4830 -81.6786 0.3041
5523.5 2.2942 2.2782 2.2803 105.5129 8.3195 0.1618 0.3103 3.2740 2.4843 -81.7604 0.3076
5524.0 2.2319 2.2092 2.2124 100.4981 8.5705 0.1517 0.3259 3.2779 2.4829 -81.8571 0.3032
5524.5 2.2216 2.1991 2.1975 107.8033 8.4107 0.1450 0.3349 3.3012 2.5013 -82.0313 0.3114
5525.0 2.2023 2.1822 2.1764 108.9700 8.2966 0.1215 0.3422 3.3061 2.4952 -81.8482 0.3285
5525.5 2.2101 2.1856 2.1743 107.7602 8.2966 0.1008 0.3398 3.2971 2.5139 -81.7292 0.3364
5526.0 2.2172 2.1856 2.1710 108.2789 8.3195 0.0733 0.3247 3.2430 2.5094 -81.7321 0.3280
5526.5 2.2210 2.1876 2.1730 109.7919 8.2966 0.0528 0.3127 3.1480 2.5205 -81.6458 0.3118
5527.0 2.2452 2.2078 2.1922 114.9789 8.2738 0.0339 0.3301 3.0274 2.5226 -81.7054 0.3017
5527.5 2.3237 2.2639 2.2477 114.4169 8.2282 0.0234 0.3246 2.9720 2.5268 -81.7396 0.3160
5528.0 2.4051 2.3360 2.3180 115.6273 8.2054 0.0311 0.3370 3.0219 2.5223 -81.8229 0.3121
5528.5 2.3517 2.3029 2.3002 115.6275 8.2282 0.0568 0.3144 3.1398 2.5151 -81.8125 0.3347
5529.0 2.2912 2.2420 2.2429 113.2066 8.2282 0.0820 0.3168 3.2408 2.5168 -81.6875 0.3328
5529.5 2.2965 2.2522 2.2374 114.7628 8.2054 0.1011 0.3227 3.3149 2.5318 -81.9107 0.3244
5530.0 2.2929 2.2526 2.2332 116.2321 8.1826 0.1046 0.3387 3.3650 2.5371 -82.2292 0.3141
5530.5 2.2588 2.2223 2.2048 119.2580 8.2396 0.1012 0.3597 3.3644 2.5217 -81.9643 0.3142
5531.0 2.2269 2.1968 2.1764 113.2930 8.2738 0.0946 0.3475 3.3176 2.5113 -81.7292 0.3308
5531.5 2.2342 2.1918 2.1703 115.1084 8.4792 0.0774 0.3344 3.1991 2.5015 -81.8571 0.3366
5532.0 2.2469 2.1959 2.1739 112.7309 8.0913 0.0705 0.3604 3.1188 2.5164 -81.8646 0.3390
5532.5 2.1743 2.1558 2.1223 116.2318 8.2282 0.0591 0.3514 3.0559 2.5040 -81.9732 0.3576
5533.0 2.1006 2.0692 2.0367 106.9821 8.2966 0.0571 0.3630 3.0309 2.4997 -81.8438 0.3543
5533.5 2.0807 2.0304 2.0028 105.4260 8.2738 0.0471 0.3394 2.9980 2.4927 -81.6518 0.3583
5534.0 2.1157 2.0784 2.0430 103.2216 8.2396 0.0416 0.3425 2.9775 2.4952 -81.7083 0.3364
5534.5 2.1287 2.1079 2.0672 105.8150 8.4564 0.0473 0.3236 2.9981 2.4938 -81.6518 0.3300
5535.0 2.1535 2.1208 2.0825 109.1437 8.2738 0.0518 0.3304 3.0098 2.4931 -81.5417 0.3087
5535.5 2.1743 2.1434 2.0887 107.0688 8.2510 0.0580 0.3145 3.0229 2.4966 -81.4732 0.3185
5536.0 2.1649 2.1255 2.0849 112.5149 8.1826 0.0603 0.3224 3.0441 2.5006 -81.6458 0.3117
5536.5 2.1273 2.0828 2.0590 116.7076 8.1597 0.0674 0.3146 3.0893 2.4931 -81.7054 0.3251
5537.0 2.1095 2.0661 2.0381 123.4076 8.1826 0.0790 0.3396 3.1310 2.4887 -81.5833 0.3195
5537.5 2.1013 2.0571 2.0321 125.2236 8.1597 0.0864 0.3436 3.1337 2.4907 -81.4271 0.3354
5538.0 2.0503 2.0289 2.0012 123.7537 8.2282 0.0885 0.3536 3.1002 2.4965 -81.5000 0.3282
5538.5 2.0094 1.9758 1.9526 115.8866 8.1369 0.0781 0.3308 3.0498 2.5061 -81.6667 0.3330
5539.0 1.9922 1.9417 1.9232 107.3280 8.1369 0.0662 0.3262 3.0365 2.4973 -81.4821 0.3216
5539.5 1.9735 1.9380 1.9146 101.2764 8.1597 0.0751 0.3206 3.1240 2.4893 -81.4583 0.3283
5540.0 1.9673 1.9316 1.9081 107.8899 8.1369 0.0953 0.3267 3.2358 2.4784 -81.6339 0.3282
5540.5 1.9665 1.9224 1.8962 115.5403 8.0456 0.1213 0.3277 3.3121 2.4871 -81.6979 0.3224
5541.0 1.9831 1.9393 1.9054 122.5432 8.0456 0.1200 0.3265 3.2781 2.4974 -81.6071 0.3231
5541.5 1.9936 1.9471 1.9169 120.4686 8.0228 0.0961 0.3327 3.1849 2.5091 -81.3333 0.3158
5542.0 2.0026 1.9536 1.9237 114.7201 7.9315 0.0597 0.3352 3.0717 2.5027 -81.0982 0.3201
5542.5 2.0327 1.9897 1.9588 105.6425 8.1141 0.0290 0.3475 2.9874 2.4906 -81.0938 0.3258
5543.0 2.0655 2.0137 1.9830 105.3401 8.0685 0.0187 0.3642 2.9806 2.4817 -81.1563 0.3319
5543.5 2.1196 2.0580 2.0241 107.3281 8.0456 0.0207 0.3640 3.0435 2.4917 -81.2768 0.3455
5544.0 2.1447 2.0797 2.0439 116.9678 8.1369 0.0335 0.3445 3.1352 2.5057 -81.2708 0.3453
5544.5 2.1245 2.0696 2.0340 113.0339 8.1141 0.0457 0.3501 3.2107 2.5078 -81.2054 0.3323
5545.0 2.1157 2.0658 2.0239 111.7371 8.2054 0.0586 0.3465 3.2640 2.5192 -81.2396 0.3333
